{"bloque":"tmin","bloques":[{"clave":"precip_det","etiqueta":"Precipitaci\u00f3n: detecci\u00f3n"},{"clave":"precip_cua","etiqueta":"Precipitaci\u00f3n: cuantificaci\u00f3n"},{"clave":"tmax","etiqueta":"Temperatura m\u00e1xima"},{"clave":"tmin","etiqueta":"Temperatura m\u00ednima"}],"estaciones":[{"codigo":"84099","nombre":"El Coca","region":"Amazonia"},{"codigo":"84253","nombre":"Gualaquiza","region":"Amazonia"},{"codigo":"84151","nombre":"Jumandy","region":"Amazonia"},{"codigo":"84063","nombre":"Lago Agrio","region":"Amazonia"},{"codigo":"84217","nombre":"Macas","region":"Amazonia"},{"codigo":"84132","nombre":"N. Rocafu","region":"Amazonia"},{"codigo":"84163","nombre":"Pastaza","region":"Amazonia"},{"codigo":"84179","nombre":"Puyo","region":"Amazonia"},{"codigo":"84001","nombre":"Baltra","region":"Insular"},{"codigo":"84008","nombre":"S. Cristobal","region":"Insular"},{"codigo":"84010","nombre":"S. Cristobal A","region":"Insular"},{"codigo":"84147","nombre":"Ambato","region":"Interandina"},{"codigo":"84226","nombre":"Ca\u00f1ar","region":"Interandina"},{"codigo":"84239","nombre":"Cuenca","region":"Interandina"},{"codigo":"84173","nombre":"ESPOCH","region":"Interandina"},{"codigo":"M1240","nombre":"Ibarra","region":"Interandina"},{"codigo":"84045","nombre":"Inguincho","region":"Interandina"},{"codigo":"84088","nombre":"Izobamba","region":"Interandina"},{"codigo":"M0024","nombre":"I\u00f1aquito","region":"Interandina"},{"codigo":"84076","nombre":"La Tola","region":"Interandina"},{"codigo":"84265","nombre":"La Toma","region":"Interandina"},{"codigo":"84123","nombre":"Latacunga","region":"Interandina"},{"codigo":"84270","nombre":"Loja Argelia","region":"Interandina"},{"codigo":"84160","nombre":"Querochaca","region":"Interandina"},{"codigo":"84176","nombre":"Riobamba","region":"Interandina"},{"codigo":"84143","nombre":"Rumipamba","region":"Interandina"},{"codigo":"84036","nombre":"S. Gabriel","region":"Interandina"},{"codigo":"84075","nombre":"Tababela","region":"Interandina"},{"codigo":"84056","nombre":"Tomal\u00f3n","region":"Interandina"},{"codigo":"84027","nombre":"Tulc\u00e1n","region":"Interandina"},{"codigo":"84018","nombre":"Esmeraldas","region":"Litoral"},{"codigo":"84203","nombre":"Guayaquil","region":"Litoral"},{"codigo":"84050","nombre":"La Concordia","region":"Litoral"},{"codigo":"84117","nombre":"Manta","region":"Litoral"},{"codigo":"M0037","nombre":"Milagro","region":"Litoral"},{"codigo":"84140","nombre":"Pichilingue","region":"Litoral"},{"codigo":"84135","nombre":"Portoviejo","region":"Litoral"},{"codigo":"84105","nombre":"Puerto Ila","region":"Litoral"},{"codigo":"84200","nombre":"Salinas","region":"Litoral"},{"codigo":"84252","nombre":"Sta. Rosa","region":"Litoral"}],"familia":"Postprocesamiento","ganadores":[{"bias":-0.11,"codigo":"84200","color":"#0B6E4F","confianza":"Alta","corr":0.95,"familia":"Postprocesamiento","lat":-2.2,"lon":-80.98972,"mae":0.37,"modelo":"CONSENSO_OP_TOP5","n":157,"nombre":"Salinas","rating":8.29,"region":"Litoral","rmse":0.48},{"bias":-0.16,"codigo":"84105","color":"#111111","confianza":"Alta","corr":0.82,"familia":"Postprocesamiento","lat":-0.493,"lon":-79.34892,"mae":0.49,"modelo":"BEST_OP_CV","n":177,"nombre":"Puerto Ila","rating":7.74,"region":"Litoral","rmse":0.61},{"bias":0.01,"codigo":"84135","color":"#0B6E4F","confianza":"Alta","corr":0.75,"familia":"Postprocesamiento","lat":-1.17343,"lon":-80.38736,"mae":0.55,"modelo":"CONSENSO_OP_TOP5","n":162,"nombre":"Portoviejo","rating":7.72,"region":"Litoral","rmse":0.7},{"bias":-0.06,"codigo":"84001","color":"#8A2BE2","confianza":"Alta","corr":0.94,"familia":"Postprocesamiento","lat":-0.445,"lon":-90.269,"mae":0.61,"modelo":"ENS_MEAN","n":160,"nombre":"Baltra","rating":7.67,"region":"Insular","rmse":0.75},{"bias":-0.02,"codigo":"84252","color":"#111111","confianza":"Alta","corr":0.84,"familia":"Postprocesamiento","lat":-3.43583,"lon":-79.98333,"mae":0.65,"modelo":"BEST_OP_CV","n":193,"nombre":"Sta. Rosa","rating":7.5,"region":"Litoral","rmse":0.83},{"bias":0.03,"codigo":"84050","color":"#0B6E4F","confianza":"Alta","corr":0.63,"familia":"Postprocesamiento","lat":-0.02478,"lon":-79.38028,"mae":0.59,"modelo":"CONSENSO_OP_TOP5","n":186,"nombre":"La Concordia","rating":7.34,"region":"Litoral","rmse":0.9},{"bias":0.18,"codigo":"84008","color":"#0B6E4F","confianza":"Alta","corr":0.92,"familia":"Postprocesamiento","lat":-0.90406,"lon":-89.61431,"mae":0.64,"modelo":"CONSENSO_OP_TOP5","n":166,"nombre":"S. Cristobal","rating":7.32,"region":"Insular","rmse":0.86},{"bias":0.08,"codigo":"84132","color":"#17A398","confianza":"Alta","corr":0.48,"familia":"Postprocesamiento","lat":-0.92003,"lon":-75.40303,"mae":0.56,"modelo":"ENS_MEDIAN","n":106,"nombre":"N. Rocafu","rating":7.3,"region":"Amazonia","rmse":0.75},{"bias":-0.06,"codigo":"84151","color":"#111111","confianza":"Alta","corr":0.57,"familia":"Postprocesamiento","lat":-1.057,"lon":-77.584,"mae":0.62,"modelo":"BEST_OP_CV","n":92,"nombre":"Jumandy","rating":7.19,"region":"Amazonia","rmse":0.89},{"bias":-0.1,"codigo":"84099","color":"#0B6E4F","confianza":"Alta","corr":0.5,"familia":"Postprocesamiento","lat":-0.46056,"lon":-76.98806,"mae":0.64,"modelo":"CONSENSO_OP_TOP5","n":182,"nombre":"El Coca","rating":7.12,"region":"Amazonia","rmse":0.79},{"bias":0.02,"codigo":"84063","color":"#1F78B4","confianza":"Alta","corr":0.45,"familia":"Postprocesamiento","lat":0.0925,"lon":-76.86944,"mae":0.64,"modelo":"QM_METEOBLUE","n":167,"nombre":"Lago Agrio","rating":7.11,"region":"Amazonia","rmse":0.87},{"bias":-0.37,"codigo":"84117","color":"#A65628","confianza":"Alta","corr":0.87,"familia":"Postprocesamiento","lat":-0.95,"lon":-80.68333,"mae":0.63,"modelo":"BC_CLASSIC_METEOBLUE","n":163,"nombre":"Manta","rating":7.06,"region":"Litoral","rmse":0.86},{"bias":0.13,"codigo":"84140","color":"#8A2BE2","confianza":"Alta","corr":0.55,"familia":"Postprocesamiento","lat":-1.07434,"lon":-79.4929,"mae":0.59,"modelo":"ENS_MEAN","n":163,"nombre":"Pichilingue","rating":7.05,"region":"Litoral","rmse":0.97},{"bias":0.42,"codigo":"84010","color":"#0B6E4F","confianza":"Alta","corr":0.93,"familia":"Postprocesamiento","lat":-0.909,"lon":-89.617,"mae":0.66,"modelo":"CONSENSO_OP_TOP5","n":175,"nombre":"S. Cristobal A","rating":7.01,"region":"Insular","rmse":0.87},{"bias":-0.23,"codigo":"84018","color":"#FDBF6F","confianza":"Alta","corr":0.5,"familia":"Postprocesamiento","lat":0.97917,"lon":-79.62444,"mae":0.65,"modelo":"QM_GFS05","n":135,"nombre":"Esmeraldas","rating":6.9,"region":"Litoral","rmse":0.8},{"bias":0.02,"codigo":"84179","color":"#17A398","confianza":"Alta","corr":0.39,"familia":"Postprocesamiento","lat":-1.5057,"lon":-77.956,"mae":0.73,"modelo":"ENS_MEDIAN","n":151,"nombre":"Puyo","rating":6.81,"region":"Amazonia","rmse":1.02},{"bias":0.0,"codigo":"84226","color":"#111111","confianza":"Alta","corr":0.6,"familia":"Postprocesamiento","lat":-2.55221,"lon":-78.94519,"mae":1.07,"modelo":"BEST_OP_CV","n":152,"nombre":"Ca\u00f1ar","rating":6.35,"region":"Interandina","rmse":1.33},{"bias":0.17,"codigo":"84075","color":"#A65628","confianza":"Alta","corr":0.76,"familia":"Postprocesamiento","lat":-0.14083,"lon":-78.353,"mae":1.01,"modelo":"BC_CLASSIC_METEOBLUE","n":173,"nombre":"Tababela","rating":6.3,"region":"Interandina","rmse":1.34},{"bias":-0.21,"codigo":"84163","color":"#0B6E4F","confianza":"Alta","corr":0.33,"familia":"Postprocesamiento","lat":-1.5,"lon":-78.06667,"mae":0.83,"modelo":"CONSENSO_OP_TOP5","n":182,"nombre":"Pastaza","rating":6.26,"region":"Amazonia","rmse":1.12},{"bias":0.04,"codigo":"84217","color":"#984EA3","confianza":"Alta","corr":0.32,"familia":"Postprocesamiento","lat":-2.29861,"lon":-78.12056,"mae":0.98,"modelo":"EMOS_GAUSS","n":196,"nombre":"Macas","rating":6.24,"region":"Amazonia","rmse":1.2},{"bias":-0.0,"codigo":"84203","color":"#A65628","confianza":"Alta","corr":0.46,"familia":"Postprocesamiento","lat":-2.15333,"lon":-79.88333,"mae":0.9,"modelo":"BC_CLASSIC_METEOBLUE","n":163,"nombre":"Guayaquil","rating":6.12,"region":"Litoral","rmse":1.92},{"bias":0.05,"codigo":"84027","color":"#0B6E4F","confianza":"Alta","corr":0.63,"familia":"Postprocesamiento","lat":0.81667,"lon":-77.7,"mae":1.22,"modelo":"CONSENSO_OP_TOP5","n":105,"nombre":"Tulc\u00e1n","rating":6.0,"region":"Interandina","rmse":1.54},{"bias":-0.13,"codigo":"84076","color":"#17A398","confianza":"Alta","corr":0.57,"familia":"Postprocesamiento","lat":-0.23179,"lon":-78.37043,"mae":1.22,"modelo":"ENS_MEDIAN","n":135,"nombre":"La Tola","rating":5.79,"region":"Interandina","rmse":1.6},{"bias":0.0,"codigo":"M1240","color":"#1F78B4","confianza":"Alta","corr":0.31,"familia":"Postprocesamiento","lat":0.32978,"lon":-78.1322,"mae":1.38,"modelo":"QM_METEOBLUE","n":169,"nombre":"Ibarra","rating":5.54,"region":"Interandina","rmse":1.7},{"bias":-0.03,"codigo":"84270","color":"#CC79A7","confianza":"Alta","corr":-0.09,"familia":"Postprocesamiento","lat":-4.0375,"lon":-79.2034,"mae":1.45,"modelo":"BC_CLASSIC_IFSHRES","n":160,"nombre":"Loja Argelia","rating":4.7,"region":"Interandina","rmse":2.62},{"bias":0.02,"codigo":"84088","color":"#0B6E4F","confianza":"Alta","corr":0.06,"familia":"Postprocesamiento","lat":-0.36593,"lon":-78.55513,"mae":1.49,"modelo":"CONSENSO_OP_TOP5","n":188,"nombre":"Izobamba","rating":4.66,"region":"Interandina","rmse":3.24},{"bias":0.58,"codigo":"84056","color":"#0B6E4F","confianza":"Alta","corr":0.35,"familia":"Postprocesamiento","lat":0.01116,"lon":-78.25505,"mae":1.61,"modelo":"CONSENSO_OP_TOP5","n":189,"nombre":"Tomal\u00f3n","rating":4.58,"region":"Interandina","rmse":1.98},{"bias":-0.04,"codigo":"84036","color":"#8A2BE2","confianza":"Alta","corr":-0.04,"familia":"Postprocesamiento","lat":0.60417,"lon":-77.81944,"mae":1.54,"modelo":"ENS_MEAN","n":162,"nombre":"S. Gabriel","rating":4.56,"region":"Interandina","rmse":2.98},{"bias":-0.27,"codigo":"84173","color":"#111111","confianza":"Alta","corr":0.28,"familia":"Postprocesamiento","lat":-1.65083,"lon":-78.68521,"mae":1.58,"modelo":"BEST_OP_CV","n":168,"nombre":"ESPOCH","rating":4.55,"region":"Interandina","rmse":2.79},{"bias":-0.08,"codigo":"84143","color":"#1B9E77","confianza":"Alta","corr":-0.13,"familia":"Postprocesamiento","lat":-1.01998,"lon":-78.59456,"mae":1.71,"modelo":"BC_CLASSIC_IFS025","n":169,"nombre":"Rumipamba","rating":4.32,"region":"Interandina","rmse":2.86},{"bias":-1.05,"codigo":"84147","color":"#111111","confianza":"Alta","corr":0.45,"familia":"Postprocesamiento","lat":-1.21413,"lon":-78.57455,"mae":1.65,"modelo":"BEST_OP_CV","n":83,"nombre":"Ambato","rating":4.28,"region":"Interandina","rmse":2.13},{"bias":-0.86,"codigo":"84239","color":"#1F78B4","confianza":"Alta","corr":0.44,"familia":"Postprocesamiento","lat":-2.88917,"lon":-78.98417,"mae":1.65,"modelo":"QM_METEOBLUE","n":201,"nombre":"Cuenca","rating":4.27,"region":"Interandina","rmse":2.38},{"bias":0.15,"codigo":"84160","color":"#8A2BE2","confianza":"Alta","corr":-0.1,"familia":"Postprocesamiento","lat":-1.3671,"lon":-78.60554,"mae":1.71,"modelo":"ENS_MEAN","n":148,"nombre":"Querochaca","rating":4.24,"region":"Interandina","rmse":2.86},{"bias":-1.25,"codigo":"84253","color":"#0B6E4F","confianza":"Alta","corr":0.34,"familia":"Postprocesamiento","lat":-3.42333,"lon":-78.56694,"mae":1.54,"modelo":"CONSENSO_OP_TOP5","n":116,"nombre":"Gualaquiza","rating":4.2,"region":"Amazonia","rmse":2.09},{"bias":-1.79,"codigo":"M0037","color":"#7570B3","confianza":"Media","corr":0.63,"familia":"Postprocesamiento","lat":-2.11805,"lon":-79.60038,"mae":1.8,"modelo":"BC_CLASSIC_ICON","n":23,"nombre":"Milagro","rating":4.16,"region":"Litoral","rmse":2.03},{"bias":-0.51,"codigo":"M0024","color":"#F781BF","confianza":"Alta","corr":0.15,"familia":"Postprocesamiento","lat":-0.1783,"lon":-78.48773,"mae":1.63,"modelo":"BC_CLASSIC_AIFS025","n":159,"nombre":"I\u00f1aquito","rating":4.13,"region":"Interandina","rmse":2.86},{"bias":0.81,"codigo":"84045","color":"#0B6E4F","confianza":"Alta","corr":-0.01,"familia":"Postprocesamiento","lat":0.25694,"lon":-78.40524,"mae":1.33,"modelo":"CONSENSO_OP_TOP5","n":165,"nombre":"Inguincho","rating":4.0,"region":"Interandina","rmse":2.91},{"bias":-0.78,"codigo":"84265","color":"#B33DC6","confianza":"Alta","corr":-0.05,"familia":"Postprocesamiento","lat":-3.99556,"lon":-79.37167,"mae":1.87,"modelo":"NGR","n":30,"nombre":"La Toma","rating":3.83,"region":"Interandina","rmse":2.13},{"bias":-0.71,"codigo":"84176","color":"#CC79A7","confianza":"Alta","corr":-0.05,"familia":"Postprocesamiento","lat":-1.65333,"lon":-78.54889,"mae":1.99,"modelo":"QM_IFSHRES","n":114,"nombre":"Riobamba","rating":3.47,"region":"Interandina","rmse":3.21},{"bias":0.97,"codigo":"84123","color":"#A65628","confianza":"Alta","corr":-0.01,"familia":"Postprocesamiento","lat":-0.91333,"lon":-78.61556,"mae":1.75,"modelo":"BC_CLASSIC_METEOBLUE","n":163,"nombre":"Latacunga","rating":3.29,"region":"Interandina","rmse":4.43}],"metricas":{"calif_media":5.8,"estaciones":40,"mas_ganador":"CONSENSO_OP_TOP5"},"modo":"continuous","ranking":[{"bias":-0.14,"color":"#0B6E4F","confianza":"Alta","corr":0.43,"estaciones":40,"familia":"Postprocesamiento","mae":1.12,"modelo":"CONSENSO_OP_TOP5","n":156,"rating":5.72,"rmse":1.73},{"bias":-0.12,"color":"#111111","confianza":"Alta","corr":0.43,"estaciones":40,"familia":"Postprocesamiento","mae":1.14,"modelo":"BEST_OP_CV","n":156,"rating":5.7,"rmse":1.75},{"bias":-0.22,"color":"#A65628","confianza":"Alta","corr":0.42,"estaciones":40,"familia":"Postprocesamiento","mae":1.19,"modelo":"BC_CLASSIC_METEOBLUE","n":156,"rating":5.55,"rmse":1.8},{"bias":-0.11,"color":"#CC79A7","confianza":"Alta","corr":0.39,"estaciones":40,"familia":"Postprocesamiento","mae":1.24,"modelo":"BC_CLASSIC_IFSHRES","n":156,"rating":5.46,"rmse":1.84},{"bias":-0.14,"color":"#7570B3","confianza":"Alta","corr":0.38,"estaciones":40,"familia":"Postprocesamiento","mae":1.29,"modelo":"BC_CLASSIC_ICON","n":156,"rating":5.41,"rmse":1.88},{"bias":-0.13,"color":"#F781BF","confianza":"Alta","corr":0.36,"estaciones":40,"familia":"Postprocesamiento","mae":1.26,"modelo":"BC_CLASSIC_AIFS025","n":156,"rating":5.38,"rmse":1.86},{"bias":-0.19,"color":"#E7298A","confianza":"Alta","corr":0.35,"estaciones":40,"familia":"Postprocesamiento","mae":1.3,"modelo":"BC_CLASSIC_GFS05","n":156,"rating":5.33,"rmse":1.89},{"bias":-0.11,"color":"#1B9E77","confianza":"Alta","corr":0.36,"estaciones":40,"familia":"Postprocesamiento","mae":1.3,"modelo":"BC_CLASSIC_IFS025","n":156,"rating":5.31,"rmse":1.9},{"bias":-0.31,"color":"#1F78B4","confianza":"Alta","corr":0.42,"estaciones":40,"familia":"Postprocesamiento","mae":1.3,"modelo":"QM_METEOBLUE","n":156,"rating":5.28,"rmse":1.89},{"bias":-0.47,"color":"#8A2BE2","confianza":"Alta","corr":0.4,"estaciones":40,"familia":"Postprocesamiento","mae":1.43,"modelo":"ENS_MEAN","n":146,"rating":5.11,"rmse":1.95},{"bias":-0.42,"color":"#17A398","confianza":"Alta","corr":0.4,"estaciones":40,"familia":"Postprocesamiento","mae":1.42,"modelo":"ENS_MEDIAN","n":146,"rating":5.1,"rmse":1.97},{"bias":-0.2,"color":"#984EA3","confianza":"Alta","corr":0.3,"estaciones":40,"familia":"Postprocesamiento","mae":1.36,"modelo":"EMOS_GAUSS","n":156,"rating":5.05,"rmse":1.94},{"bias":-0.12,"color":"#CC79A7","confianza":"Alta","corr":0.39,"estaciones":40,"familia":"Postprocesamiento","mae":1.38,"modelo":"QM_IFSHRES","n":156,"rating":5.01,"rmse":1.97},{"bias":-0.17,"color":"#D55E00","confianza":"Alta","corr":0.37,"estaciones":40,"familia":"Postprocesamiento","mae":1.55,"modelo":"QM_AIFS025","n":156,"rating":4.93,"rmse":2.1},{"bias":-0.22,"color":"#FB9A99","confianza":"Alta","corr":0.38,"estaciones":40,"familia":"Postprocesamiento","mae":1.53,"modelo":"QM_ICON","n":156,"rating":4.93,"rmse":2.08},{"bias":-0.17,"color":"#B2DF8A","confianza":"Alta","corr":0.36,"estaciones":40,"familia":"Postprocesamiento","mae":1.63,"modelo":"QM_IFS025","n":156,"rating":4.72,"rmse":2.18},{"bias":-0.34,"color":"#FDBF6F","confianza":"Alta","corr":0.33,"estaciones":40,"familia":"Postprocesamiento","mae":1.64,"modelo":"QM_GFS05","n":156,"rating":4.71,"rmse":2.17},{"bias":0.4,"color":"#B33DC6","confianza":"Media","corr":0.08,"estaciones":40,"familia":"Postprocesamiento","mae":5.89,"modelo":"NGR","n":29,"rating":2.24,"rmse":6.11}],"sintesis_region":[{"modelo":"CONSENSO_OP_TOP5","region":"Amazonia"},{"modelo":"CONSENSO_OP_TOP5","region":"Insular"},{"modelo":"CONSENSO_OP_TOP5","region":"Interandina"},{"modelo":"CONSENSO_OP_TOP5","region":"Litoral"}],"ventana":"todo"}
