{"bloque":"tmax","bloques":[{"clave":"precip_det","etiqueta":"Precipitaci\u00f3n: detecci\u00f3n"},{"clave":"precip_cua","etiqueta":"Precipitaci\u00f3n: cuantificaci\u00f3n"},{"clave":"tmax","etiqueta":"Temperatura m\u00e1xima"},{"clave":"tmin","etiqueta":"Temperatura m\u00ednima"}],"estaciones":[{"codigo":"84099","nombre":"El Coca","region":"Amazonia"},{"codigo":"84253","nombre":"Gualaquiza","region":"Amazonia"},{"codigo":"84151","nombre":"Jumandy","region":"Amazonia"},{"codigo":"84063","nombre":"Lago Agrio","region":"Amazonia"},{"codigo":"84217","nombre":"Macas","region":"Amazonia"},{"codigo":"84132","nombre":"N. Rocafu","region":"Amazonia"},{"codigo":"84163","nombre":"Pastaza","region":"Amazonia"},{"codigo":"84179","nombre":"Puyo","region":"Amazonia"},{"codigo":"84001","nombre":"Baltra","region":"Insular"},{"codigo":"84008","nombre":"S. Cristobal","region":"Insular"},{"codigo":"84010","nombre":"S. Cristobal A","region":"Insular"},{"codigo":"84147","nombre":"Ambato","region":"Interandina"},{"codigo":"84226","nombre":"Ca\u00f1ar","region":"Interandina"},{"codigo":"84239","nombre":"Cuenca","region":"Interandina"},{"codigo":"84173","nombre":"ESPOCH","region":"Interandina"},{"codigo":"M1240","nombre":"Ibarra","region":"Interandina"},{"codigo":"84045","nombre":"Inguincho","region":"Interandina"},{"codigo":"84088","nombre":"Izobamba","region":"Interandina"},{"codigo":"M0024","nombre":"I\u00f1aquito","region":"Interandina"},{"codigo":"84076","nombre":"La Tola","region":"Interandina"},{"codigo":"84265","nombre":"La Toma","region":"Interandina"},{"codigo":"84123","nombre":"Latacunga","region":"Interandina"},{"codigo":"84270","nombre":"Loja Argelia","region":"Interandina"},{"codigo":"84160","nombre":"Querochaca","region":"Interandina"},{"codigo":"84176","nombre":"Riobamba","region":"Interandina"},{"codigo":"84143","nombre":"Rumipamba","region":"Interandina"},{"codigo":"84036","nombre":"S. Gabriel","region":"Interandina"},{"codigo":"84075","nombre":"Tababela","region":"Interandina"},{"codigo":"84056","nombre":"Tomal\u00f3n","region":"Interandina"},{"codigo":"84027","nombre":"Tulc\u00e1n","region":"Interandina"},{"codigo":"84018","nombre":"Esmeraldas","region":"Litoral"},{"codigo":"84203","nombre":"Guayaquil","region":"Litoral"},{"codigo":"84050","nombre":"La Concordia","region":"Litoral"},{"codigo":"84117","nombre":"Manta","region":"Litoral"},{"codigo":"M0037","nombre":"Milagro","region":"Litoral"},{"codigo":"84140","nombre":"Pichilingue","region":"Litoral"},{"codigo":"84135","nombre":"Portoviejo","region":"Litoral"},{"codigo":"84105","nombre":"Puerto Ila","region":"Litoral"},{"codigo":"84200","nombre":"Salinas","region":"Litoral"},{"codigo":"84252","nombre":"Sta. Rosa","region":"Litoral"}],"familia":"Convencionales","ganadores":[{"bias":-0.16,"codigo":"84088","color":"#56B4E9","confianza":"Media","corr":0.75,"familia":"Convencionales","lat":-0.36593,"lon":-78.55513,"mae":0.55,"modelo":"AIFS025","n":15,"nombre":"Izobamba","rating":7.46,"region":"Interandina","rmse":0.73},{"bias":-0.02,"codigo":"84123","color":"#004E89","confianza":"Media","corr":0.6,"familia":"Convencionales","lat":-0.91333,"lon":-78.61556,"mae":0.61,"modelo":"IFSHRES","n":15,"nombre":"Latacunga","rating":7.34,"region":"Interandina","rmse":0.83},{"bias":-0.58,"codigo":"84045","color":"#56B4E9","confianza":"Media","corr":0.71,"familia":"Convencionales","lat":0.25694,"lon":-78.40524,"mae":0.64,"modelo":"AIFS025","n":15,"nombre":"Inguincho","rating":6.71,"region":"Interandina","rmse":0.86},{"bias":-0.1,"codigo":"84105","color":"#E69F00","confianza":"Media","corr":0.53,"familia":"Convencionales","lat":-0.493,"lon":-79.34892,"mae":1.07,"modelo":"GFS05","n":15,"nombre":"Puerto Ila","rating":6.25,"region":"Litoral","rmse":1.16},{"bias":-0.26,"codigo":"84076","color":"#009E73","confianza":"Media","corr":0.45,"familia":"Convencionales","lat":-0.23179,"lon":-78.37043,"mae":0.86,"modelo":"ICON","n":15,"nombre":"La Tola","rating":6.24,"region":"Interandina","rmse":1.15},{"bias":-0.43,"codigo":"84140","color":"#004E89","confianza":"Media","corr":0.69,"familia":"Convencionales","lat":-1.07434,"lon":-79.4929,"mae":0.98,"modelo":"IFSHRES","n":15,"nombre":"Pichilingue","rating":6.11,"region":"Litoral","rmse":1.14},{"bias":-0.82,"codigo":"84203","color":"#56B4E9","confianza":"Media","corr":0.77,"familia":"Convencionales","lat":-2.15333,"lon":-79.88333,"mae":0.93,"modelo":"AIFS025","n":15,"nombre":"Guayaquil","rating":6.03,"region":"Litoral","rmse":1.01},{"bias":0.77,"codigo":"84226","color":"#0072B2","confianza":"Media","corr":0.87,"familia":"Convencionales","lat":-2.55221,"lon":-78.94519,"mae":0.94,"modelo":"IFS025","n":15,"nombre":"Ca\u00f1ar","rating":6.02,"region":"Interandina","rmse":1.2},{"bias":-0.59,"codigo":"84036","color":"#56B4E9","confianza":"Media","corr":0.3,"familia":"Convencionales","lat":0.60417,"lon":-77.81944,"mae":1.0,"modelo":"AIFS025","n":15,"nombre":"S. Gabriel","rating":5.55,"region":"Interandina","rmse":1.2},{"bias":-0.82,"codigo":"84163","color":"#0072B2","confianza":"Media","corr":0.73,"familia":"Convencionales","lat":-1.5,"lon":-78.06667,"mae":1.1,"modelo":"IFS025","n":15,"nombre":"Pastaza","rating":5.44,"region":"Amazonia","rmse":1.55},{"bias":-0.4,"codigo":"84117","color":"#004E89","confianza":"Media","corr":0.01,"familia":"Convencionales","lat":-0.95,"lon":-80.68333,"mae":1.17,"modelo":"IFSHRES","n":15,"nombre":"Manta","rating":5.13,"region":"Litoral","rmse":1.39},{"bias":-0.18,"codigo":"84252","color":"#E69F00","confianza":"Media","corr":0.22,"familia":"Convencionales","lat":-3.43583,"lon":-79.98333,"mae":1.41,"modelo":"GFS05","n":15,"nombre":"Sta. Rosa","rating":5.0,"region":"Litoral","rmse":2.05},{"bias":-1.34,"codigo":"84050","color":"#004E89","confianza":"Media","corr":0.41,"familia":"Convencionales","lat":-0.02478,"lon":-79.38028,"mae":1.36,"modelo":"IFSHRES","n":15,"nombre":"La Concordia","rating":4.6,"region":"Litoral","rmse":1.64},{"bias":1.03,"codigo":"84270","color":"#56B4E9","confianza":"Media","corr":0.6,"familia":"Convencionales","lat":-4.0375,"lon":-79.2034,"mae":1.61,"modelo":"AIFS025","n":15,"nombre":"Loja Argelia","rating":4.49,"region":"Interandina","rmse":2.03},{"bias":-0.36,"codigo":"84143","color":"#E69F00","confianza":"Media","corr":-0.08,"familia":"Convencionales","lat":-1.01998,"lon":-78.59456,"mae":1.71,"modelo":"GFS05","n":15,"nombre":"Rumipamba","rating":4.34,"region":"Interandina","rmse":1.94},{"bias":-1.21,"codigo":"84179","color":"#004E89","confianza":"Media","corr":0.51,"familia":"Convencionales","lat":-1.5057,"lon":-77.956,"mae":1.61,"modelo":"IFSHRES","n":15,"nombre":"Puyo","rating":4.31,"region":"Amazonia","rmse":2.09},{"bias":-1.67,"codigo":"84151","color":"#004E89","confianza":"Media","corr":0.63,"familia":"Convencionales","lat":-1.057,"lon":-77.584,"mae":1.98,"modelo":"IFSHRES","n":15,"nombre":"Jumandy","rating":4.01,"region":"Amazonia","rmse":2.18},{"bias":-1.78,"codigo":"84239","color":"#004E89","confianza":"Media","corr":0.52,"familia":"Convencionales","lat":-2.88917,"lon":-78.98417,"mae":1.78,"modelo":"IFSHRES","n":15,"nombre":"Cuenca","rating":3.98,"region":"Interandina","rmse":2.25},{"bias":-1.95,"codigo":"84018","color":"#009E73","confianza":"Media","corr":0.59,"familia":"Convencionales","lat":0.97917,"lon":-79.62444,"mae":1.95,"modelo":"ICON","n":15,"nombre":"Esmeraldas","rating":3.97,"region":"Litoral","rmse":2.11},{"bias":-0.95,"codigo":"M0037","color":"#009E73","confianza":"Media","corr":0.22,"familia":"Convencionales","lat":-2.11805,"lon":-79.60038,"mae":1.77,"modelo":"ICON","n":15,"nombre":"Milagro","rating":3.96,"region":"Litoral","rmse":2.33},{"bias":-2.03,"codigo":"M1240","color":"#004E89","confianza":"Media","corr":0.63,"familia":"Convencionales","lat":0.32978,"lon":-78.1322,"mae":2.03,"modelo":"IFSHRES","n":15,"nombre":"Ibarra","rating":3.91,"region":"Interandina","rmse":2.23},{"bias":-1.91,"codigo":"84010","color":"#004E89","confianza":"Media","corr":0.43,"familia":"Convencionales","lat":-0.909,"lon":-89.617,"mae":1.91,"modelo":"IFSHRES","n":15,"nombre":"S. Cristobal A","rating":3.9,"region":"Insular","rmse":2.03},{"bias":-1.65,"codigo":"84200","color":"#009E73","confianza":"Media","corr":0.02,"familia":"Convencionales","lat":-2.2,"lon":-80.98972,"mae":1.65,"modelo":"ICON","n":15,"nombre":"Salinas","rating":3.89,"region":"Litoral","rmse":1.72},{"bias":-1.75,"codigo":"84160","color":"#0072B2","confianza":"Media","corr":0.55,"familia":"Convencionales","lat":-1.3671,"lon":-78.60554,"mae":1.98,"modelo":"IFS025","n":15,"nombre":"Querochaca","rating":3.88,"region":"Interandina","rmse":2.31},{"bias":-1.9,"codigo":"84027","color":"#004E89","confianza":"Media","corr":0.56,"familia":"Convencionales","lat":0.81667,"lon":-77.7,"mae":2.02,"modelo":"IFSHRES","n":15,"nombre":"Tulc\u00e1n","rating":3.83,"region":"Interandina","rmse":2.32},{"bias":-1.77,"codigo":"84063","color":"#004E89","confianza":"Media","corr":0.38,"familia":"Convencionales","lat":0.0925,"lon":-76.86944,"mae":1.88,"modelo":"IFSHRES","n":15,"nombre":"Lago Agrio","rating":3.71,"region":"Amazonia","rmse":2.51},{"bias":-2.28,"codigo":"M0024","color":"#004E89","confianza":"Media","corr":0.67,"familia":"Convencionales","lat":-0.1783,"lon":-78.48773,"mae":2.35,"modelo":"IFSHRES","n":15,"nombre":"I\u00f1aquito","rating":3.63,"region":"Interandina","rmse":2.61},{"bias":-2.43,"codigo":"84135","color":"#0072B2","confianza":"Media","corr":0.63,"familia":"Convencionales","lat":-1.17343,"lon":-80.38736,"mae":2.43,"modelo":"IFS025","n":15,"nombre":"Portoviejo","rating":3.55,"region":"Litoral","rmse":2.59},{"bias":-2.38,"codigo":"84056","color":"#004E89","confianza":"Media","corr":0.6,"familia":"Convencionales","lat":0.01116,"lon":-78.25505,"mae":2.38,"modelo":"IFSHRES","n":15,"nombre":"Tomal\u00f3n","rating":3.52,"region":"Interandina","rmse":2.68},{"bias":-2.87,"codigo":"84147","color":"#004E89","confianza":"Media","corr":0.82,"familia":"Convencionales","lat":-1.21413,"lon":-78.57455,"mae":2.87,"modelo":"IFSHRES","n":15,"nombre":"Ambato","rating":3.43,"region":"Interandina","rmse":3.09},{"bias":-2.73,"codigo":"84132","color":"#56B4E9","confianza":"Media","corr":0.67,"familia":"Convencionales","lat":-0.92003,"lon":-75.40303,"mae":2.73,"modelo":"AIFS025","n":15,"nombre":"N. Rocafu","rating":3.38,"region":"Amazonia","rmse":2.92},{"bias":-3.38,"codigo":"84253","color":"#004E89","confianza":"Media","corr":0.84,"familia":"Convencionales","lat":-3.42333,"lon":-78.56694,"mae":3.38,"modelo":"IFSHRES","n":15,"nombre":"Gualaquiza","rating":3.2,"region":"Amazonia","rmse":3.65},{"bias":-2.64,"codigo":"84217","color":"#004E89","confianza":"Media","corr":0.48,"familia":"Convencionales","lat":-2.29861,"lon":-78.12056,"mae":2.75,"modelo":"IFSHRES","n":15,"nombre":"Macas","rating":3.14,"region":"Amazonia","rmse":3.19},{"bias":-2.39,"codigo":"84001","color":"#004E89","confianza":"Media","corr":0.05,"familia":"Convencionales","lat":-0.445,"lon":-90.269,"mae":2.39,"modelo":"IFSHRES","n":15,"nombre":"Baltra","rating":3.09,"region":"Insular","rmse":2.48},{"bias":-3.3,"codigo":"84099","color":"#004E89","confianza":"Media","corr":0.62,"familia":"Convencionales","lat":-0.46056,"lon":-76.98806,"mae":3.3,"modelo":"IFSHRES","n":15,"nombre":"El Coca","rating":2.99,"region":"Amazonia","rmse":3.8},{"bias":-3.01,"codigo":"84008","color":"#009E73","confianza":"Media","corr":0.38,"familia":"Convencionales","lat":-0.90406,"lon":-89.61431,"mae":3.01,"modelo":"ICON","n":15,"nombre":"S. Cristobal","rating":2.97,"region":"Insular","rmse":3.19},{"bias":-1.33,"codigo":"84075","color":"#004E89","confianza":"Media","corr":0.51,"familia":"Convencionales","lat":-0.14083,"lon":-78.353,"mae":3.79,"modelo":"IFSHRES","n":15,"nombre":"Tababela","rating":2.89,"region":"Interandina","rmse":5.27},{"bias":-4.47,"codigo":"84265","color":"#009E73","confianza":"Media","corr":0.78,"familia":"Convencionales","lat":-3.99556,"lon":-79.37167,"mae":4.47,"modelo":"ICON","n":15,"nombre":"La Toma","rating":2.88,"region":"Interandina","rmse":4.58},{"bias":-5.31,"codigo":"84173","color":"#004E89","confianza":"Media","corr":0.67,"familia":"Convencionales","lat":-1.65083,"lon":-78.68521,"mae":5.31,"modelo":"IFSHRES","n":15,"nombre":"ESPOCH","rating":2.66,"region":"Interandina","rmse":5.47},{"bias":-5.34,"codigo":"84176","color":"#009E73","confianza":"Media","corr":0.45,"familia":"Convencionales","lat":-1.65333,"lon":-78.54889,"mae":5.34,"modelo":"ICON","n":15,"nombre":"Riobamba","rating":2.45,"region":"Interandina","rmse":5.62}],"metricas":{"calif_media":4.3,"estaciones":40,"mas_ganador":"IFSHRES"},"modo":"continuous","ranking":[{"bias":-2.22,"color":"#004E89","confianza":"Media","corr":0.51,"estaciones":40,"familia":"Convencionales","mae":2.43,"modelo":"IFSHRES","n":15,"rating":3.82,"rmse":2.73},{"bias":-3.04,"color":"#56B4E9","confianza":"Media","corr":0.5,"estaciones":40,"familia":"Convencionales","mae":3.23,"modelo":"AIFS025","n":15,"rating":3.54,"rmse":3.45},{"bias":-2.62,"color":"#009E73","confianza":"Media","corr":0.46,"estaciones":40,"familia":"Convencionales","mae":2.98,"modelo":"ICON","n":15,"rating":3.51,"rmse":3.28},{"bias":-3.39,"color":"#0072B2","confianza":"Media","corr":0.43,"estaciones":40,"familia":"Convencionales","mae":3.81,"modelo":"IFS025","n":15,"rating":3.29,"rmse":4.05},{"bias":-2.81,"color":"#E69F00","confianza":"Media","corr":0.31,"estaciones":40,"familia":"Convencionales","mae":3.59,"modelo":"GFS05","n":15,"rating":3.13,"rmse":3.95}],"sintesis_region":[{"modelo":"IFSHRES","region":"Amazonia"},{"modelo":"IFSHRES","region":"Insular"},{"modelo":"IFSHRES","region":"Interandina"},{"modelo":"IFSHRES","region":"Litoral"}],"ventana":"15"}
