{"bloque":"tmax","bloques":[{"clave":"precip_det","etiqueta":"Precipitaci\u00f3n: detecci\u00f3n"},{"clave":"precip_cua","etiqueta":"Precipitaci\u00f3n: cuantificaci\u00f3n"},{"clave":"tmax","etiqueta":"Temperatura m\u00e1xima"},{"clave":"tmin","etiqueta":"Temperatura m\u00ednima"}],"estaciones":[{"codigo":"84099","nombre":"El Coca","region":"Amazonia"},{"codigo":"84253","nombre":"Gualaquiza","region":"Amazonia"},{"codigo":"84151","nombre":"Jumandy","region":"Amazonia"},{"codigo":"84063","nombre":"Lago Agrio","region":"Amazonia"},{"codigo":"84217","nombre":"Macas","region":"Amazonia"},{"codigo":"84132","nombre":"N. Rocafu","region":"Amazonia"},{"codigo":"84163","nombre":"Pastaza","region":"Amazonia"},{"codigo":"84179","nombre":"Puyo","region":"Amazonia"},{"codigo":"84001","nombre":"Baltra","region":"Insular"},{"codigo":"84008","nombre":"S. Cristobal","region":"Insular"},{"codigo":"84010","nombre":"S. Cristobal A","region":"Insular"},{"codigo":"84147","nombre":"Ambato","region":"Interandina"},{"codigo":"84226","nombre":"Ca\u00f1ar","region":"Interandina"},{"codigo":"84239","nombre":"Cuenca","region":"Interandina"},{"codigo":"84173","nombre":"ESPOCH","region":"Interandina"},{"codigo":"M1240","nombre":"Ibarra","region":"Interandina"},{"codigo":"84045","nombre":"Inguincho","region":"Interandina"},{"codigo":"84088","nombre":"Izobamba","region":"Interandina"},{"codigo":"M0024","nombre":"I\u00f1aquito","region":"Interandina"},{"codigo":"84076","nombre":"La Tola","region":"Interandina"},{"codigo":"84265","nombre":"La Toma","region":"Interandina"},{"codigo":"84123","nombre":"Latacunga","region":"Interandina"},{"codigo":"84270","nombre":"Loja Argelia","region":"Interandina"},{"codigo":"84160","nombre":"Querochaca","region":"Interandina"},{"codigo":"84176","nombre":"Riobamba","region":"Interandina"},{"codigo":"84143","nombre":"Rumipamba","region":"Interandina"},{"codigo":"84036","nombre":"S. Gabriel","region":"Interandina"},{"codigo":"84075","nombre":"Tababela","region":"Interandina"},{"codigo":"84056","nombre":"Tomal\u00f3n","region":"Interandina"},{"codigo":"84027","nombre":"Tulc\u00e1n","region":"Interandina"},{"codigo":"84018","nombre":"Esmeraldas","region":"Litoral"},{"codigo":"84203","nombre":"Guayaquil","region":"Litoral"},{"codigo":"84050","nombre":"La Concordia","region":"Litoral"},{"codigo":"84117","nombre":"Manta","region":"Litoral"},{"codigo":"M0037","nombre":"Milagro","region":"Litoral"},{"codigo":"84140","nombre":"Pichilingue","region":"Litoral"},{"codigo":"84135","nombre":"Portoviejo","region":"Litoral"},{"codigo":"84105","nombre":"Puerto Ila","region":"Litoral"},{"codigo":"84200","nombre":"Salinas","region":"Litoral"},{"codigo":"84252","nombre":"Sta. Rosa","region":"Litoral"}],"familia":"ML","ganadores":[{"bias":-0.0,"codigo":"84203","color":"#785EF0","confianza":"Baja","corr":0.95,"familia":"ML","lat":-2.15333,"lon":-79.88333,"mae":0.17,"modelo":"ML_RF","n":7,"nombre":"Guayaquil","rating":9.23,"region":"Litoral","rmse":0.22},{"bias":-0.02,"codigo":"84200","color":"#E41A1C","confianza":"Baja","corr":0.79,"familia":"ML","lat":-2.2,"lon":-80.98972,"mae":0.25,"modelo":"ML_CAT","n":7,"nombre":"Salinas","rating":8.76,"region":"Litoral","rmse":0.31},{"bias":-0.25,"codigo":"84045","color":"#8A2BE2","confianza":"Baja","corr":0.97,"familia":"ML","lat":0.25694,"lon":-78.40524,"mae":0.25,"modelo":"ML_ET","n":7,"nombre":"Inguincho","rating":8.58,"region":"Interandina","rmse":0.31},{"bias":-0.12,"codigo":"84239","color":"#8A2BE2","confianza":"Baja","corr":0.96,"familia":"ML","lat":-2.88917,"lon":-78.98417,"mae":0.32,"modelo":"ML_ET","n":7,"nombre":"Cuenca","rating":8.49,"region":"Interandina","rmse":0.41},{"bias":0.09,"codigo":"84163","color":"#377EB8","confianza":"Baja","corr":0.89,"familia":"ML","lat":-1.5,"lon":-78.06667,"mae":0.37,"modelo":"ML_HGB","n":7,"nombre":"Pastaza","rating":8.34,"region":"Amazonia","rmse":0.43},{"bias":0.07,"codigo":"84001","color":"#984EA3","confianza":"Baja","corr":0.63,"familia":"ML","lat":-0.445,"lon":-90.269,"mae":0.38,"modelo":"RIDGE_RICH","n":7,"nombre":"Baltra","rating":8.07,"region":"Insular","rmse":0.47},{"bias":0.07,"codigo":"84135","color":"#FE6100","confianza":"Baja","corr":0.78,"familia":"ML","lat":-1.17343,"lon":-80.38736,"mae":0.5,"modelo":"ML_GBR","n":7,"nombre":"Portoviejo","rating":7.72,"region":"Litoral","rmse":0.73},{"bias":-0.23,"codigo":"84123","color":"#FE6100","confianza":"Baja","corr":0.72,"familia":"ML","lat":-0.91333,"lon":-78.61556,"mae":0.47,"modelo":"ML_GBR","n":7,"nombre":"Latacunga","rating":7.68,"region":"Interandina","rmse":0.53},{"bias":-0.33,"codigo":"84076","color":"#785EF0","confianza":"Baja","corr":0.87,"familia":"ML","lat":-0.23179,"lon":-78.37043,"mae":0.45,"modelo":"ML_RF","n":7,"nombre":"La Tola","rating":7.64,"region":"Interandina","rmse":0.63},{"bias":-0.02,"codigo":"84117","color":"#FF7F00","confianza":"Baja","corr":0.52,"familia":"ML","lat":-0.95,"lon":-80.68333,"mae":0.52,"modelo":"ML_ELASTICNET","n":7,"nombre":"Manta","rating":7.62,"region":"Litoral","rmse":0.61},{"bias":-0.03,"codigo":"84105","color":"#8A2BE2","confianza":"Baja","corr":0.92,"familia":"ML","lat":-0.493,"lon":-79.34892,"mae":0.63,"modelo":"ML_ET","n":7,"nombre":"Puerto Ila","rating":7.61,"region":"Litoral","rmse":0.78},{"bias":-0.08,"codigo":"84088","color":"#8A2BE2","confianza":"Baja","corr":0.55,"familia":"ML","lat":-0.36593,"lon":-78.55513,"mae":0.52,"modelo":"ML_ET","n":7,"nombre":"Izobamba","rating":7.59,"region":"Interandina","rmse":0.59},{"bias":0.17,"codigo":"84179","color":"#FE6100","confianza":"Baja","corr":0.81,"familia":"ML","lat":-1.5057,"lon":-77.956,"mae":0.54,"modelo":"ML_GBR","n":7,"nombre":"Puyo","rating":7.58,"region":"Amazonia","rmse":0.66},{"bias":-0.03,"codigo":"84160","color":"#785EF0","confianza":"Baja","corr":0.92,"familia":"ML","lat":-1.3671,"lon":-78.60554,"mae":0.65,"modelo":"ML_RF","n":7,"nombre":"Querochaca","rating":7.55,"region":"Interandina","rmse":0.83},{"bias":0.01,"codigo":"84008","color":"#E41A1C","confianza":"Baja","corr":0.78,"familia":"ML","lat":-0.90406,"lon":-89.61431,"mae":0.63,"modelo":"ML_CAT","n":7,"nombre":"S. Cristobal","rating":7.5,"region":"Insular","rmse":0.82},{"bias":0.07,"codigo":"84010","color":"#377EB8","confianza":"Baja","corr":0.59,"familia":"ML","lat":-0.909,"lon":-89.617,"mae":0.54,"modelo":"ML_HGB","n":7,"nombre":"S. Cristobal A","rating":7.45,"region":"Insular","rmse":0.76},{"bias":-0.28,"codigo":"84036","color":"#FE6100","confianza":"Baja","corr":0.43,"familia":"ML","lat":0.60417,"lon":-77.81944,"mae":0.55,"modelo":"ML_GBR","n":7,"nombre":"S. Gabriel","rating":7.0,"region":"Interandina","rmse":0.75},{"bias":0.25,"codigo":"84143","color":"#8A2BE2","confianza":"Baja","corr":0.6,"familia":"ML","lat":-1.01998,"lon":-78.59456,"mae":0.58,"modelo":"ML_ET","n":7,"nombre":"Rumipamba","rating":6.94,"region":"Interandina","rmse":1.0},{"bias":0.23,"codigo":"84063","color":"#377EB8","confianza":"Baja","corr":0.86,"familia":"ML","lat":0.0925,"lon":-76.86944,"mae":0.78,"modelo":"ML_HGB","n":7,"nombre":"Lago Agrio","rating":6.87,"region":"Amazonia","rmse":0.99},{"bias":-0.11,"codigo":"84018","color":"#984EA3","confianza":"Baja","corr":0.62,"familia":"ML","lat":0.97917,"lon":-79.62444,"mae":0.79,"modelo":"ML_HUBER","n":7,"nombre":"Esmeraldas","rating":6.82,"region":"Litoral","rmse":0.96},{"bias":-0.38,"codigo":"84226","color":"#8A2BE2","confianza":"Baja","corr":0.89,"familia":"ML","lat":-2.55221,"lon":-78.94519,"mae":0.77,"modelo":"ML_ET","n":7,"nombre":"Ca\u00f1ar","rating":6.81,"region":"Interandina","rmse":0.9},{"bias":-0.14,"codigo":"84132","color":"#E41A1C","confianza":"Baja","corr":0.42,"familia":"ML","lat":-0.92003,"lon":-75.40303,"mae":0.7,"modelo":"ML_CAT","n":7,"nombre":"N. Rocafu","rating":6.79,"region":"Amazonia","rmse":0.9},{"bias":0.03,"codigo":"84270","color":"#0072B2","confianza":"Baja","corr":0.81,"familia":"ML","lat":-4.0375,"lon":-79.2034,"mae":1.03,"modelo":"LGBM_REG","n":7,"nombre":"Loja Argelia","rating":6.64,"region":"Interandina","rmse":1.16},{"bias":-0.35,"codigo":"M0037","color":"#984EA3","confianza":"Baja","corr":0.66,"familia":"ML","lat":-2.11805,"lon":-79.60038,"mae":0.79,"modelo":"RIDGE_RICH","n":7,"nombre":"Milagro","rating":6.52,"region":"Litoral","rmse":1.0},{"bias":0.14,"codigo":"84140","color":"#4DAF4A","confianza":"Baja","corr":0.6,"familia":"ML","lat":-1.07434,"lon":-79.4929,"mae":0.85,"modelo":"ML_LGBM","n":7,"nombre":"Pichilingue","rating":6.51,"region":"Litoral","rmse":1.18},{"bias":0.39,"codigo":"84027","color":"#0072B2","confianza":"Baja","corr":0.73,"familia":"ML","lat":0.81667,"lon":-77.7,"mae":0.73,"modelo":"LGBM_REG","n":7,"nombre":"Tulc\u00e1n","rating":6.49,"region":"Interandina","rmse":1.21},{"bias":0.29,"codigo":"84056","color":"#8A2BE2","confianza":"Baja","corr":0.6,"familia":"ML","lat":0.01116,"lon":-78.25505,"mae":0.87,"modelo":"ML_ET","n":7,"nombre":"Tomal\u00f3n","rating":6.31,"region":"Interandina","rmse":1.18},{"bias":-0.13,"codigo":"M0024","color":"#E41A1C","confianza":"Baja","corr":0.62,"familia":"ML","lat":-0.1783,"lon":-78.48773,"mae":1.01,"modelo":"ML_CAT","n":7,"nombre":"I\u00f1aquito","rating":6.26,"region":"Interandina","rmse":1.3},{"bias":-0.77,"codigo":"84173","color":"#8A2BE2","confianza":"Baja","corr":0.92,"familia":"ML","lat":-1.65083,"lon":-78.68521,"mae":0.95,"modelo":"ML_ET","n":7,"nombre":"ESPOCH","rating":6.2,"region":"Interandina","rmse":0.99},{"bias":-0.1,"codigo":"84099","color":"#8A2BE2","confianza":"Baja","corr":0.69,"familia":"ML","lat":-0.46056,"lon":-76.98806,"mae":1.06,"modelo":"ML_ET","n":7,"nombre":"El Coca","rating":6.19,"region":"Amazonia","rmse":1.49},{"bias":-0.66,"codigo":"84050","color":"#E41A1C","confianza":"Baja","corr":0.53,"familia":"ML","lat":-0.02478,"lon":-79.38028,"mae":0.88,"modelo":"ML_CAT","n":7,"nombre":"La Concordia","rating":5.98,"region":"Litoral","rmse":1.03},{"bias":-0.77,"codigo":"M1240","color":"#8A2BE2","confianza":"Baja","corr":0.81,"familia":"ML","lat":0.32978,"lon":-78.1322,"mae":1.06,"modelo":"ML_ET","n":7,"nombre":"Ibarra","rating":5.89,"region":"Interandina","rmse":1.08},{"bias":0.2,"codigo":"84147","color":"#FE6100","confianza":"Baja","corr":0.52,"familia":"ML","lat":-1.21413,"lon":-78.57455,"mae":1.12,"modelo":"ML_GBR","n":7,"nombre":"Ambato","rating":5.81,"region":"Interandina","rmse":1.54},{"bias":0.62,"codigo":"84252","color":"#785EF0","confianza":"Baja","corr":0.75,"familia":"ML","lat":-3.43583,"lon":-79.98333,"mae":0.93,"modelo":"ML_RF","n":7,"nombre":"Sta. Rosa","rating":5.64,"region":"Litoral","rmse":1.85},{"bias":-0.66,"codigo":"84217","color":"#E41A1C","confianza":"Baja","corr":0.48,"familia":"ML","lat":-2.29861,"lon":-78.12056,"mae":1.1,"modelo":"ML_CAT","n":7,"nombre":"Macas","rating":5.41,"region":"Amazonia","rmse":1.4},{"bias":-0.3,"codigo":"84151","color":"#984EA3","confianza":"Baja","corr":-0.1,"familia":"ML","lat":-1.057,"lon":-77.584,"mae":1.05,"modelo":"ML_HUBER","n":7,"nombre":"Jumandy","rating":5.35,"region":"Amazonia","rmse":1.29},{"bias":-0.1,"codigo":"84176","color":"#0072B2","confianza":"Baja","corr":0.23,"familia":"ML","lat":-1.65333,"lon":-78.54889,"mae":1.6,"modelo":"LGBM_REG","n":7,"nombre":"Riobamba","rating":5.03,"region":"Interandina","rmse":1.93},{"bias":-0.29,"codigo":"84075","color":"#8A2BE2","confianza":"Baja","corr":0.24,"familia":"ML","lat":-0.14083,"lon":-78.353,"mae":1.49,"modelo":"ML_ET","n":7,"nombre":"Tababela","rating":4.93,"region":"Interandina","rmse":1.82},{"bias":0.24,"codigo":"84253","color":"#0072B2","confianza":"Baja","corr":0.2,"familia":"ML","lat":-3.42333,"lon":-78.56694,"mae":1.62,"modelo":"LGBM_REG","n":7,"nombre":"Gualaquiza","rating":4.78,"region":"Amazonia","rmse":1.96},{"bias":-0.71,"codigo":"84265","color":"#8A2BE2","confianza":"Baja","corr":0.5,"familia":"ML","lat":-3.99556,"lon":-79.37167,"mae":1.41,"modelo":"ML_ET","n":7,"nombre":"La Toma","rating":4.69,"region":"Interandina","rmse":2.16}],"metricas":{"calif_media":6.8,"estaciones":40,"mas_ganador":"ML_ET"},"modo":"continuous","ranking":[{"bias":-0.11,"color":"#8A2BE2","confianza":"Baja","corr":0.57,"estaciones":39,"familia":"ML","mae":0.95,"modelo":"ML_ET","n":7,"rating":6.23,"rmse":1.22},{"bias":-0.28,"color":"#785EF0","confianza":"Baja","corr":0.57,"estaciones":39,"familia":"ML","mae":0.98,"modelo":"ML_RF","n":7,"rating":6.16,"rmse":1.25},{"bias":-0.63,"color":"#FE6100","confianza":"Baja","corr":0.6,"estaciones":39,"familia":"ML","mae":1.21,"modelo":"ML_GBR","n":7,"rating":5.86,"rmse":1.47},{"bias":-0.63,"color":"#DC267F","confianza":"Baja","corr":0.6,"estaciones":40,"familia":"ML","mae":1.19,"modelo":"ML_XGB","n":7,"rating":5.75,"rmse":1.47},{"bias":-0.56,"color":"#E41A1C","confianza":"Baja","corr":0.62,"estaciones":40,"familia":"ML","mae":1.22,"modelo":"ML_CAT","n":7,"rating":5.73,"rmse":1.48},{"bias":-0.21,"color":"#984EA3","confianza":"Baja","corr":0.33,"estaciones":40,"familia":"ML","mae":1.13,"modelo":"ML_HUBER","n":7,"rating":5.68,"rmse":1.4},{"bias":-0.77,"color":"#377EB8","confianza":"Baja","corr":0.62,"estaciones":39,"familia":"ML","mae":1.18,"modelo":"ML_HGB","n":7,"rating":5.65,"rmse":1.45},{"bias":-0.27,"color":"#FF7F00","confianza":"Baja","corr":0.34,"estaciones":40,"familia":"ML","mae":1.14,"modelo":"ML_ELASTICNET","n":7,"rating":5.62,"rmse":1.42},{"bias":-0.28,"color":"#377EB8","confianza":"Baja","corr":0.34,"estaciones":40,"familia":"ML","mae":1.15,"modelo":"ML_RIDGE","n":7,"rating":5.62,"rmse":1.42},{"bias":-0.71,"color":"#4DAF4A","confianza":"Baja","corr":0.59,"estaciones":40,"familia":"ML","mae":1.2,"modelo":"ML_LGBM","n":7,"rating":5.56,"rmse":1.48},{"bias":-0.08,"color":"#984EA3","confianza":"Baja","corr":0.16,"estaciones":40,"familia":"ML","mae":1.78,"modelo":"RIDGE_RICH","n":7,"rating":4.6,"rmse":2.14},{"bias":0.34,"color":"#0072B2","confianza":"Baja","corr":0.17,"estaciones":40,"familia":"ML","mae":1.78,"modelo":"LGBM_REG","n":7,"rating":4.43,"rmse":2.19}],"sintesis_region":[{"modelo":"ML_HGB","region":"Amazonia"},{"modelo":"RIDGE_RICH","region":"Insular"},{"modelo":"ML_ET","region":"Interandina"},{"modelo":"ML_RF","region":"Litoral"}],"ventana":"7"}
