{"bloque":"tmax","bloques":[{"clave":"precip_det","etiqueta":"Precipitaci\u00f3n: detecci\u00f3n"},{"clave":"precip_cua","etiqueta":"Precipitaci\u00f3n: cuantificaci\u00f3n"},{"clave":"tmax","etiqueta":"Temperatura m\u00e1xima"},{"clave":"tmin","etiqueta":"Temperatura m\u00ednima"}],"estaciones":[{"codigo":"84099","nombre":"El Coca","region":"Amazonia"},{"codigo":"84253","nombre":"Gualaquiza","region":"Amazonia"},{"codigo":"84151","nombre":"Jumandy","region":"Amazonia"},{"codigo":"84063","nombre":"Lago Agrio","region":"Amazonia"},{"codigo":"84217","nombre":"Macas","region":"Amazonia"},{"codigo":"84132","nombre":"N. Rocafu","region":"Amazonia"},{"codigo":"84163","nombre":"Pastaza","region":"Amazonia"},{"codigo":"84179","nombre":"Puyo","region":"Amazonia"},{"codigo":"84001","nombre":"Baltra","region":"Insular"},{"codigo":"84008","nombre":"S. Cristobal","region":"Insular"},{"codigo":"84010","nombre":"S. Cristobal A","region":"Insular"},{"codigo":"84147","nombre":"Ambato","region":"Interandina"},{"codigo":"84226","nombre":"Ca\u00f1ar","region":"Interandina"},{"codigo":"84239","nombre":"Cuenca","region":"Interandina"},{"codigo":"84173","nombre":"ESPOCH","region":"Interandina"},{"codigo":"M1240","nombre":"Ibarra","region":"Interandina"},{"codigo":"84045","nombre":"Inguincho","region":"Interandina"},{"codigo":"84088","nombre":"Izobamba","region":"Interandina"},{"codigo":"M0024","nombre":"I\u00f1aquito","region":"Interandina"},{"codigo":"84076","nombre":"La Tola","region":"Interandina"},{"codigo":"84265","nombre":"La Toma","region":"Interandina"},{"codigo":"84123","nombre":"Latacunga","region":"Interandina"},{"codigo":"84270","nombre":"Loja Argelia","region":"Interandina"},{"codigo":"84160","nombre":"Querochaca","region":"Interandina"},{"codigo":"84176","nombre":"Riobamba","region":"Interandina"},{"codigo":"84143","nombre":"Rumipamba","region":"Interandina"},{"codigo":"84036","nombre":"S. Gabriel","region":"Interandina"},{"codigo":"84075","nombre":"Tababela","region":"Interandina"},{"codigo":"84056","nombre":"Tomal\u00f3n","region":"Interandina"},{"codigo":"84027","nombre":"Tulc\u00e1n","region":"Interandina"},{"codigo":"84018","nombre":"Esmeraldas","region":"Litoral"},{"codigo":"84203","nombre":"Guayaquil","region":"Litoral"},{"codigo":"84050","nombre":"La Concordia","region":"Litoral"},{"codigo":"84117","nombre":"Manta","region":"Litoral"},{"codigo":"M0037","nombre":"Milagro","region":"Litoral"},{"codigo":"84140","nombre":"Pichilingue","region":"Litoral"},{"codigo":"84135","nombre":"Portoviejo","region":"Litoral"},{"codigo":"84105","nombre":"Puerto Ila","region":"Litoral"},{"codigo":"84200","nombre":"Salinas","region":"Litoral"},{"codigo":"84252","nombre":"Sta. Rosa","region":"Litoral"}],"familia":"No convencionales","ganadores":[{"bias":-0.14,"codigo":"84105","color":"#D55E00","confianza":"Media","corr":0.86,"familia":"No convencionales","lat":-0.493,"lon":-79.34892,"mae":0.69,"modelo":"METEOBLUE","n":15,"nombre":"Puerto Ila","rating":7.27,"region":"Litoral","rmse":0.83},{"bias":-0.15,"codigo":"84200","color":"#56B4E9","confianza":"Media","corr":0.47,"familia":"No convencionales","lat":-2.2,"lon":-80.98972,"mae":0.63,"modelo":"NEMSGLOBAL_E","n":15,"nombre":"Salinas","rating":7.01,"region":"Litoral","rmse":0.81},{"bias":0.08,"codigo":"84140","color":"#D55E00","confianza":"Media","corr":0.72,"familia":"No convencionales","lat":-1.07434,"lon":-79.4929,"mae":0.82,"modelo":"METEOBLUE","n":15,"nombre":"Pichilingue","rating":6.83,"region":"Litoral","rmse":1.07},{"bias":0.1,"codigo":"84163","color":"#648FFF","confianza":"Media","corr":0.62,"familia":"No convencionales","lat":-1.5,"lon":-78.06667,"mae":0.84,"modelo":"UMGLOBAL10","n":15,"nombre":"Pastaza","rating":6.73,"region":"Amazonia","rmse":1.01},{"bias":0.22,"codigo":"84117","color":"#B33DC6","confianza":"Media","corr":0.73,"familia":"No convencionales","lat":-0.95,"lon":-80.68333,"mae":0.83,"modelo":"SA01","n":15,"nombre":"Manta","rating":6.73,"region":"Litoral","rmse":0.95},{"bias":-0.01,"codigo":"84045","color":"#D55E00","confianza":"Media","corr":0.58,"familia":"No convencionales","lat":0.25694,"lon":-78.40524,"mae":0.92,"modelo":"METEOBLUE","n":15,"nombre":"Inguincho","rating":6.51,"region":"Interandina","rmse":1.3},{"bias":-0.08,"codigo":"84179","color":"#648FFF","confianza":"Media","corr":0.61,"familia":"No convencionales","lat":-1.5057,"lon":-77.956,"mae":0.97,"modelo":"UMGLOBAL10","n":15,"nombre":"Puyo","rating":6.38,"region":"Amazonia","rmse":1.3},{"bias":-0.49,"codigo":"84123","color":"#CC79A7","confianza":"Media","corr":0.65,"familia":"No convencionales","lat":-0.91333,"lon":-78.61556,"mae":1.02,"modelo":"GEM15","n":15,"nombre":"Latacunga","rating":5.86,"region":"Interandina","rmse":1.3},{"bias":0.34,"codigo":"84088","color":"#00A9A5","confianza":"Media","corr":0.71,"familia":"No convencionales","lat":-0.36593,"lon":-78.55513,"mae":1.12,"modelo":"NEMSGLOBAL","n":15,"nombre":"Izobamba","rating":5.86,"region":"Interandina","rmse":1.46},{"bias":-0.29,"codigo":"84203","color":"#B33DC6","confianza":"Media","corr":0.43,"familia":"No convencionales","lat":-2.15333,"lon":-79.88333,"mae":1.23,"modelo":"SA01","n":15,"nombre":"Guayaquil","rating":5.5,"region":"Litoral","rmse":1.52},{"bias":-1.04,"codigo":"84018","color":"#D55E00","confianza":"Media","corr":0.76,"familia":"No convencionales","lat":0.97917,"lon":-79.62444,"mae":1.13,"modelo":"METEOBLUE","n":15,"nombre":"Esmeraldas","rating":5.39,"region":"Litoral","rmse":1.43},{"bias":0.51,"codigo":"M0037","color":"#D55E00","confianza":"Media","corr":0.51,"familia":"No convencionales","lat":-2.11805,"lon":-79.60038,"mae":1.12,"modelo":"METEOBLUE","n":15,"nombre":"Milagro","rating":5.38,"region":"Litoral","rmse":1.66},{"bias":-1.06,"codigo":"84036","color":"#D55E00","confianza":"Media","corr":0.76,"familia":"No convencionales","lat":0.60417,"lon":-77.81944,"mae":1.17,"modelo":"METEOBLUE","n":15,"nombre":"S. Gabriel","rating":5.31,"region":"Interandina","rmse":1.46},{"bias":-1.25,"codigo":"84252","color":"#D55E00","confianza":"Media","corr":0.92,"familia":"No convencionales","lat":-3.43583,"lon":-79.98333,"mae":1.25,"modelo":"METEOBLUE","n":15,"nombre":"Sta. Rosa","rating":5.29,"region":"Litoral","rmse":1.48},{"bias":0.16,"codigo":"84143","color":"#A6761D","confianza":"Media","corr":0.38,"familia":"No convencionales","lat":-1.01998,"lon":-78.59456,"mae":1.51,"modelo":"NEMSSA","n":15,"nombre":"Rumipamba","rating":5.13,"region":"Interandina","rmse":1.97},{"bias":1.06,"codigo":"M1240","color":"#648FFF","confianza":"Media","corr":0.74,"familia":"No convencionales","lat":0.32978,"lon":-78.1322,"mae":1.28,"modelo":"UMGLOBAL10","n":15,"nombre":"Ibarra","rating":5.08,"region":"Interandina","rmse":1.63},{"bias":-0.6,"codigo":"84270","color":"#648FFF","confianza":"Media","corr":0.77,"familia":"No convencionales","lat":-4.0375,"lon":-79.2034,"mae":1.54,"modelo":"UMGLOBAL10","n":15,"nombre":"Loja Argelia","rating":5.06,"region":"Interandina","rmse":1.84},{"bias":-0.52,"codigo":"84160","color":"#A6761D","confianza":"Media","corr":0.6,"familia":"No convencionales","lat":-1.3671,"lon":-78.60554,"mae":1.41,"modelo":"NEMSSA","n":15,"nombre":"Querochaca","rating":5.04,"region":"Interandina","rmse":1.92},{"bias":-1.36,"codigo":"84226","color":"#D55E00","confianza":"Media","corr":0.88,"familia":"No convencionales","lat":-2.55221,"lon":-78.94519,"mae":1.36,"modelo":"METEOBLUE","n":15,"nombre":"Ca\u00f1ar","rating":5.0,"region":"Interandina","rmse":1.68},{"bias":-1.22,"codigo":"84010","color":"#D55E00","confianza":"Media","corr":0.36,"familia":"No convencionales","lat":-0.909,"lon":-89.617,"mae":1.22,"modelo":"METEOBLUE","n":15,"nombre":"S. Cristobal A","rating":4.72,"region":"Insular","rmse":1.67},{"bias":-0.21,"codigo":"84132","color":"#CC79A7","confianza":"Media","corr":0.27,"familia":"No convencionales","lat":-0.92003,"lon":-75.40303,"mae":1.76,"modelo":"GEM15","n":15,"nombre":"N. Rocafu","rating":4.66,"region":"Amazonia","rmse":2.28},{"bias":-1.44,"codigo":"84239","color":"#D55E00","confianza":"Media","corr":0.76,"familia":"No convencionales","lat":-2.88917,"lon":-78.98417,"mae":1.51,"modelo":"METEOBLUE","n":15,"nombre":"Cuenca","rating":4.63,"region":"Interandina","rmse":1.88},{"bias":-0.74,"codigo":"84151","color":"#D55E00","confianza":"Media","corr":0.43,"familia":"No convencionales","lat":-1.057,"lon":-77.584,"mae":1.62,"modelo":"METEOBLUE","n":15,"nombre":"Jumandy","rating":4.56,"region":"Amazonia","rmse":1.89},{"bias":-1.64,"codigo":"84265","color":"#D55E00","confianza":"Media","corr":0.86,"familia":"No convencionales","lat":-3.99556,"lon":-79.37167,"mae":1.64,"modelo":"METEOBLUE","n":15,"nombre":"La Toma","rating":4.51,"region":"Interandina","rmse":2.05},{"bias":-0.57,"codigo":"84147","color":"#A6761D","confianza":"Media","corr":0.3,"familia":"No convencionales","lat":-1.21413,"lon":-78.57455,"mae":1.69,"modelo":"NEMSSA","n":15,"nombre":"Ambato","rating":4.48,"region":"Interandina","rmse":1.99},{"bias":-1.42,"codigo":"84063","color":"#D55E00","confianza":"Media","corr":0.67,"familia":"No convencionales","lat":0.0925,"lon":-76.86944,"mae":1.64,"modelo":"METEOBLUE","n":15,"nombre":"Lago Agrio","rating":4.43,"region":"Amazonia","rmse":1.94},{"bias":-1.74,"codigo":"84027","color":"#D55E00","confianza":"Media","corr":0.79,"familia":"No convencionales","lat":0.81667,"lon":-77.7,"mae":1.74,"modelo":"METEOBLUE","n":15,"nombre":"Tulc\u00e1n","rating":4.4,"region":"Interandina","rmse":1.94},{"bias":-1.58,"codigo":"84008","color":"#D55E00","confianza":"Media","corr":0.51,"familia":"No convencionales","lat":-0.90406,"lon":-89.61431,"mae":1.58,"modelo":"METEOBLUE","n":15,"nombre":"S. Cristobal","rating":4.29,"region":"Insular","rmse":1.93},{"bias":-1.72,"codigo":"84050","color":"#D55E00","confianza":"Media","corr":0.76,"familia":"No convencionales","lat":-0.02478,"lon":-79.38028,"mae":1.84,"modelo":"METEOBLUE","n":15,"nombre":"La Concordia","rating":4.26,"region":"Litoral","rmse":2.05},{"bias":-1.55,"codigo":"84076","color":"#D55E00","confianza":"Media","corr":0.52,"familia":"No convencionales","lat":-0.23179,"lon":-78.37043,"mae":1.6,"modelo":"METEOBLUE","n":15,"nombre":"La Tola","rating":4.22,"region":"Interandina","rmse":2.1},{"bias":-1.71,"codigo":"84217","color":"#785EF0","confianza":"Media","corr":0.7,"familia":"No convencionales","lat":-2.29861,"lon":-78.12056,"mae":1.77,"modelo":"MFGLOBAL","n":15,"nombre":"Macas","rating":4.2,"region":"Amazonia","rmse":2.18},{"bias":-1.68,"codigo":"84135","color":"#B33DC6","confianza":"Media","corr":0.67,"familia":"No convencionales","lat":-1.17343,"lon":-80.38736,"mae":1.84,"modelo":"SA01","n":15,"nombre":"Portoviejo","rating":4.14,"region":"Litoral","rmse":2.14},{"bias":-1.75,"codigo":"84001","color":"#648FFF","confianza":"Media","corr":0.12,"familia":"No convencionales","lat":-0.445,"lon":-90.269,"mae":1.75,"modelo":"UMGLOBAL10","n":15,"nombre":"Baltra","rating":3.78,"region":"Insular","rmse":1.96},{"bias":-2.12,"codigo":"84253","color":"#D55E00","confianza":"Media","corr":0.6,"familia":"No convencionales","lat":-3.42333,"lon":-78.56694,"mae":2.12,"modelo":"METEOBLUE","n":15,"nombre":"Gualaquiza","rating":3.61,"region":"Amazonia","rmse":2.91},{"bias":-2.51,"codigo":"84173","color":"#D55E00","confianza":"Media","corr":0.78,"familia":"No convencionales","lat":-1.65083,"lon":-78.68521,"mae":2.51,"modelo":"METEOBLUE","n":15,"nombre":"ESPOCH","rating":3.57,"region":"Interandina","rmse":2.9},{"bias":-2.51,"codigo":"84099","color":"#D55E00","confianza":"Media","corr":0.69,"familia":"No convencionales","lat":-0.46056,"lon":-76.98806,"mae":2.51,"modelo":"METEOBLUE","n":15,"nombre":"El Coca","rating":3.47,"region":"Amazonia","rmse":2.95},{"bias":-2.69,"codigo":"M0024","color":"#648FFF","confianza":"Media","corr":0.74,"familia":"No convencionales","lat":-0.1783,"lon":-78.48773,"mae":2.76,"modelo":"UMGLOBAL10","n":15,"nombre":"I\u00f1aquito","rating":3.39,"region":"Interandina","rmse":3.1},{"bias":-2.55,"codigo":"84056","color":"#D55E00","confianza":"Media","corr":0.53,"familia":"No convencionales","lat":0.01116,"lon":-78.25505,"mae":2.64,"modelo":"METEOBLUE","n":15,"nombre":"Tomal\u00f3n","rating":3.26,"region":"Interandina","rmse":3.02},{"bias":-0.49,"codigo":"84075","color":"#D55E00","confianza":"Media","corr":0.17,"familia":"No convencionales","lat":-0.14083,"lon":-78.353,"mae":3.35,"modelo":"METEOBLUE","n":15,"nombre":"Tababela","rating":3.11,"region":"Interandina","rmse":5.49},{"bias":-3.46,"codigo":"84176","color":"#56B4E9","confianza":"Media","corr":0.61,"familia":"No convencionales","lat":-1.65333,"lon":-78.54889,"mae":3.54,"modelo":"NEMSGLOBAL_E","n":15,"nombre":"Riobamba","rating":2.96,"region":"Interandina","rmse":3.69}],"metricas":{"calif_media":4.9,"estaciones":40,"mas_ganador":"METEOBLUE"},"modo":"continuous","ranking":[{"bias":-1.64,"color":"#D55E00","confianza":"Media","corr":0.62,"estaciones":40,"familia":"No convencionales","mae":1.9,"modelo":"METEOBLUE","n":15,"rating":4.42,"rmse":2.31},{"bias":-2.33,"color":"#A6761D","confianza":"Media","corr":0.37,"estaciones":37,"familia":"No convencionales","mae":2.87,"modelo":"NEMSSA","n":15,"rating":3.47,"rmse":3.27},{"bias":-2.33,"color":"#CC79A7","confianza":"Media","corr":0.38,"estaciones":40,"familia":"No convencionales","mae":2.89,"modelo":"GEM15","n":15,"rating":3.47,"rmse":3.3},{"bias":-3.4,"color":"#648FFF","confianza":"Media","corr":0.5,"estaciones":40,"familia":"No convencionales","mae":3.65,"modelo":"UMGLOBAL10","n":15,"rating":3.45,"rmse":3.91},{"bias":-2.81,"color":"#56B4E9","confianza":"Media","corr":0.37,"estaciones":40,"familia":"No convencionales","mae":3.3,"modelo":"NEMSGLOBAL_E","n":15,"rating":3.14,"rmse":3.67},{"bias":-3.11,"color":"#785EF0","confianza":"Media","corr":0.39,"estaciones":40,"familia":"No convencionales","mae":3.46,"modelo":"MFGLOBAL","n":15,"rating":3.11,"rmse":3.87},{"bias":-2.73,"color":"#00A9A5","confianza":"Media","corr":0.29,"estaciones":40,"familia":"No convencionales","mae":3.32,"modelo":"NEMSGLOBAL","n":15,"rating":3.06,"rmse":3.74},{"bias":-4.1,"color":"#B33DC6","confianza":"Media","corr":0.32,"estaciones":36,"familia":"No convencionales","mae":4.51,"modelo":"SA01","n":15,"rating":2.98,"rmse":4.86}],"sintesis_region":[{"modelo":"METEOBLUE","region":"Amazonia"},{"modelo":"METEOBLUE","region":"Insular"},{"modelo":"METEOBLUE","region":"Interandina"},{"modelo":"METEOBLUE","region":"Litoral"}],"ventana":"15"}
