{"bloque":"tmin","bloques":[{"clave":"precip_det","etiqueta":"Precipitaci\u00f3n: detecci\u00f3n"},{"clave":"precip_cua","etiqueta":"Precipitaci\u00f3n: cuantificaci\u00f3n"},{"clave":"tmax","etiqueta":"Temperatura m\u00e1xima"},{"clave":"tmin","etiqueta":"Temperatura m\u00ednima"}],"estaciones":[{"codigo":"84099","nombre":"El Coca","region":"Amazonia"},{"codigo":"84253","nombre":"Gualaquiza","region":"Amazonia"},{"codigo":"84151","nombre":"Jumandy","region":"Amazonia"},{"codigo":"84063","nombre":"Lago Agrio","region":"Amazonia"},{"codigo":"84217","nombre":"Macas","region":"Amazonia"},{"codigo":"84132","nombre":"N. Rocafu","region":"Amazonia"},{"codigo":"84163","nombre":"Pastaza","region":"Amazonia"},{"codigo":"84179","nombre":"Puyo","region":"Amazonia"},{"codigo":"84001","nombre":"Baltra","region":"Insular"},{"codigo":"84008","nombre":"S. Cristobal","region":"Insular"},{"codigo":"84010","nombre":"S. Cristobal A","region":"Insular"},{"codigo":"84147","nombre":"Ambato","region":"Interandina"},{"codigo":"84226","nombre":"Ca\u00f1ar","region":"Interandina"},{"codigo":"84239","nombre":"Cuenca","region":"Interandina"},{"codigo":"84173","nombre":"ESPOCH","region":"Interandina"},{"codigo":"M1240","nombre":"Ibarra","region":"Interandina"},{"codigo":"84045","nombre":"Inguincho","region":"Interandina"},{"codigo":"84088","nombre":"Izobamba","region":"Interandina"},{"codigo":"M0024","nombre":"I\u00f1aquito","region":"Interandina"},{"codigo":"84076","nombre":"La Tola","region":"Interandina"},{"codigo":"84265","nombre":"La Toma","region":"Interandina"},{"codigo":"84123","nombre":"Latacunga","region":"Interandina"},{"codigo":"84270","nombre":"Loja Argelia","region":"Interandina"},{"codigo":"84160","nombre":"Querochaca","region":"Interandina"},{"codigo":"84176","nombre":"Riobamba","region":"Interandina"},{"codigo":"84143","nombre":"Rumipamba","region":"Interandina"},{"codigo":"84036","nombre":"S. Gabriel","region":"Interandina"},{"codigo":"84075","nombre":"Tababela","region":"Interandina"},{"codigo":"84056","nombre":"Tomal\u00f3n","region":"Interandina"},{"codigo":"84027","nombre":"Tulc\u00e1n","region":"Interandina"},{"codigo":"84018","nombre":"Esmeraldas","region":"Litoral"},{"codigo":"84203","nombre":"Guayaquil","region":"Litoral"},{"codigo":"84050","nombre":"La Concordia","region":"Litoral"},{"codigo":"84117","nombre":"Manta","region":"Litoral"},{"codigo":"M0037","nombre":"Milagro","region":"Litoral"},{"codigo":"84140","nombre":"Pichilingue","region":"Litoral"},{"codigo":"84135","nombre":"Portoviejo","region":"Litoral"},{"codigo":"84105","nombre":"Puerto Ila","region":"Litoral"},{"codigo":"84200","nombre":"Salinas","region":"Litoral"},{"codigo":"84252","nombre":"Sta. Rosa","region":"Litoral"}],"familia":"No convencionales","ganadores":[{"bias":0.08,"codigo":"84200","color":"#D55E00","confianza":"Alta","corr":0.87,"familia":"No convencionales","lat":-2.2,"lon":-80.98972,"mae":0.29,"modelo":"METEOBLUE","n":111,"nombre":"Salinas","rating":8.58,"region":"Litoral","rmse":0.36},{"bias":0.19,"codigo":"84117","color":"#D55E00","confianza":"Alta","corr":0.9,"familia":"No convencionales","lat":-0.95,"lon":-80.68333,"mae":0.38,"modelo":"METEOBLUE","n":113,"nombre":"Manta","rating":8.11,"region":"Litoral","rmse":0.5},{"bias":0.3,"codigo":"84203","color":"#D55E00","confianza":"Alta","corr":0.83,"familia":"No convencionales","lat":-2.15333,"lon":-79.88333,"mae":0.41,"modelo":"METEOBLUE","n":113,"nombre":"Guayaquil","rating":7.86,"region":"Litoral","rmse":0.5},{"bias":0.06,"codigo":"84132","color":"#D55E00","confianza":"Alta","corr":0.61,"familia":"No convencionales","lat":-0.92003,"lon":-75.40303,"mae":0.46,"modelo":"METEOBLUE","n":76,"nombre":"N. Rocafu","rating":7.74,"region":"Amazonia","rmse":0.64},{"bias":0.01,"codigo":"84001","color":"#CC79A7","confianza":"Alta","corr":0.93,"familia":"No convencionales","lat":-0.445,"lon":-90.269,"mae":0.62,"modelo":"GEM15","n":157,"nombre":"Baltra","rating":7.68,"region":"Insular","rmse":0.79},{"bias":0.12,"codigo":"84151","color":"#D55E00","confianza":"Alta","corr":0.56,"familia":"No convencionales","lat":-1.057,"lon":-77.584,"mae":0.49,"modelo":"METEOBLUE","n":54,"nombre":"Jumandy","rating":7.57,"region":"Amazonia","rmse":0.62},{"bias":0.01,"codigo":"84252","color":"#D55E00","confianza":"Alta","corr":0.54,"familia":"No convencionales","lat":-3.43583,"lon":-79.98333,"mae":0.55,"modelo":"METEOBLUE","n":112,"nombre":"Sta. Rosa","rating":7.52,"region":"Litoral","rmse":0.7},{"bias":0.01,"codigo":"84105","color":"#785EF0","confianza":"Alta","corr":0.18,"familia":"No convencionales","lat":-0.493,"lon":-79.34892,"mae":0.51,"modelo":"MFGLOBAL","n":112,"nombre":"Puerto Ila","rating":7.32,"region":"Litoral","rmse":0.66},{"bias":0.17,"codigo":"84050","color":"#D55E00","confianza":"Alta","corr":0.35,"familia":"No convencionales","lat":-0.02478,"lon":-79.38028,"mae":0.53,"modelo":"METEOBLUE","n":112,"nombre":"La Concordia","rating":7.17,"region":"Litoral","rmse":0.67},{"bias":-0.21,"codigo":"84140","color":"#648FFF","confianza":"Alta","corr":0.74,"familia":"No convencionales","lat":-1.07434,"lon":-79.4929,"mae":0.66,"modelo":"UMGLOBAL10","n":169,"nombre":"Pichilingue","rating":7.14,"region":"Litoral","rmse":0.8},{"bias":0.0,"codigo":"84018","color":"#785EF0","confianza":"Alta","corr":0.32,"familia":"No convencionales","lat":0.97917,"lon":-79.62444,"mae":0.62,"modelo":"MFGLOBAL","n":101,"nombre":"Esmeraldas","rating":7.14,"region":"Litoral","rmse":0.78},{"bias":-0.21,"codigo":"84099","color":"#D55E00","confianza":"Alta","corr":0.59,"familia":"No convencionales","lat":-0.46056,"lon":-76.98806,"mae":0.62,"modelo":"METEOBLUE","n":109,"nombre":"El Coca","rating":7.09,"region":"Amazonia","rmse":0.78},{"bias":0.32,"codigo":"84135","color":"#D55E00","confianza":"Alta","corr":0.53,"familia":"No convencionales","lat":-1.17343,"lon":-80.38736,"mae":0.57,"modelo":"METEOBLUE","n":113,"nombre":"Portoviejo","rating":7.03,"region":"Litoral","rmse":0.73},{"bias":-0.21,"codigo":"84239","color":"#D55E00","confianza":"Alta","corr":0.85,"familia":"No convencionales","lat":-2.88917,"lon":-78.98417,"mae":0.74,"modelo":"METEOBLUE","n":112,"nombre":"Cuenca","rating":6.99,"region":"Interandina","rmse":0.94},{"bias":0.18,"codigo":"84063","color":"#D55E00","confianza":"Alta","corr":0.47,"familia":"No convencionales","lat":0.0925,"lon":-76.86944,"mae":0.67,"modelo":"METEOBLUE","n":112,"nombre":"Lago Agrio","rating":6.88,"region":"Amazonia","rmse":0.85},{"bias":-0.06,"codigo":"84217","color":"#785EF0","confianza":"Alta","corr":0.29,"familia":"No convencionales","lat":-2.29861,"lon":-78.12056,"mae":0.87,"modelo":"MFGLOBAL","n":112,"nombre":"Macas","rating":6.37,"region":"Amazonia","rmse":1.11},{"bias":-0.04,"codigo":"84173","color":"#785EF0","confianza":"Alta","corr":0.53,"familia":"No convencionales","lat":-1.65083,"lon":-78.68521,"mae":1.02,"modelo":"MFGLOBAL","n":111,"nombre":"ESPOCH","rating":6.32,"region":"Interandina","rmse":1.27},{"bias":-0.55,"codigo":"84253","color":"#D55E00","confianza":"Alta","corr":0.48,"familia":"No convencionales","lat":-3.42333,"lon":-78.56694,"mae":0.72,"modelo":"METEOBLUE","n":69,"nombre":"Gualaquiza","rating":6.32,"region":"Amazonia","rmse":0.95},{"bias":0.57,"codigo":"84075","color":"#D55E00","confianza":"Alta","corr":0.83,"familia":"No convencionales","lat":-0.14083,"lon":-78.353,"mae":0.91,"modelo":"METEOBLUE","n":113,"nombre":"Tababela","rating":6.17,"region":"Interandina","rmse":1.17},{"bias":-0.15,"codigo":"84265","color":"#D55E00","confianza":"Alta","corr":0.6,"familia":"No convencionales","lat":-3.99556,"lon":-79.37167,"mae":1.03,"modelo":"METEOBLUE","n":113,"nombre":"La Toma","rating":6.08,"region":"Interandina","rmse":1.47},{"bias":-0.33,"codigo":"84163","color":"#A6761D","confianza":"Alta","corr":0.28,"familia":"No convencionales","lat":-1.5,"lon":-78.06667,"mae":0.83,"modelo":"NEMSSA","n":172,"nombre":"Pastaza","rating":6.08,"region":"Amazonia","rmse":1.1},{"bias":0.46,"codigo":"84008","color":"#648FFF","confianza":"Alta","corr":0.82,"familia":"No convencionales","lat":-0.90406,"lon":-89.61431,"mae":0.97,"modelo":"UMGLOBAL10","n":149,"nombre":"S. Cristobal","rating":6.06,"region":"Insular","rmse":1.36},{"bias":0.72,"codigo":"84123","color":"#D55E00","confianza":"Alta","corr":0.91,"familia":"No convencionales","lat":-0.91333,"lon":-78.61556,"mae":0.98,"modelo":"METEOBLUE","n":113,"nombre":"Latacunga","rating":5.98,"region":"Interandina","rmse":1.27},{"bias":0.45,"codigo":"84088","color":"#D55E00","confianza":"Alta","corr":0.64,"familia":"No convencionales","lat":-0.36593,"lon":-78.55513,"mae":0.99,"modelo":"METEOBLUE","n":113,"nombre":"Izobamba","rating":5.95,"region":"Interandina","rmse":1.26},{"bias":-0.29,"codigo":"84076","color":"#D55E00","confianza":"Alta","corr":0.64,"familia":"No convencionales","lat":-0.23179,"lon":-78.37043,"mae":1.13,"modelo":"METEOBLUE","n":113,"nombre":"La Tola","rating":5.8,"region":"Interandina","rmse":1.52},{"bias":0.5,"codigo":"84027","color":"#D55E00","confianza":"Alta","corr":0.69,"familia":"No convencionales","lat":0.81667,"lon":-77.7,"mae":1.07,"modelo":"METEOBLUE","n":74,"nombre":"Tulc\u00e1n","rating":5.75,"region":"Interandina","rmse":1.42},{"bias":-0.23,"codigo":"84036","color":"#648FFF","confianza":"Alta","corr":0.59,"familia":"No convencionales","lat":0.60417,"lon":-77.81944,"mae":1.25,"modelo":"UMGLOBAL10","n":159,"nombre":"S. Gabriel","rating":5.71,"region":"Interandina","rmse":1.51},{"bias":0.11,"codigo":"M1240","color":"#D55E00","confianza":"Alta","corr":0.38,"familia":"No convencionales","lat":0.32978,"lon":-78.1322,"mae":1.25,"modelo":"METEOBLUE","n":113,"nombre":"Ibarra","rating":5.68,"region":"Interandina","rmse":1.51},{"bias":0.85,"codigo":"84179","color":"#D55E00","confianza":"Alta","corr":0.56,"familia":"No convencionales","lat":-1.5057,"lon":-77.956,"mae":0.95,"modelo":"METEOBLUE","n":112,"nombre":"Puyo","rating":5.67,"region":"Amazonia","rmse":1.21},{"bias":0.22,"codigo":"84226","color":"#D55E00","confianza":"Alta","corr":0.49,"familia":"No convencionales","lat":-2.55221,"lon":-78.94519,"mae":1.24,"modelo":"METEOBLUE","n":108,"nombre":"Ca\u00f1ar","rating":5.64,"region":"Interandina","rmse":1.5},{"bias":0.88,"codigo":"84010","color":"#648FFF","confianza":"Alta","corr":0.89,"familia":"No convencionales","lat":-0.909,"lon":-89.617,"mae":1.06,"modelo":"UMGLOBAL10","n":185,"nombre":"S. Cristobal A","rating":5.62,"region":"Insular","rmse":1.48},{"bias":-0.69,"codigo":"84143","color":"#D55E00","confianza":"Alta","corr":0.64,"familia":"No convencionales","lat":-1.01998,"lon":-78.59456,"mae":1.3,"modelo":"METEOBLUE","n":113,"nombre":"Rumipamba","rating":5.2,"region":"Interandina","rmse":1.59},{"bias":-0.6,"codigo":"M0024","color":"#648FFF","confianza":"Alta","corr":0.35,"familia":"No convencionales","lat":-0.1783,"lon":-78.48773,"mae":1.08,"modelo":"UMGLOBAL10","n":165,"nombre":"I\u00f1aquito","rating":5.19,"region":"Interandina","rmse":1.7},{"bias":1.17,"codigo":"84045","color":"#D55E00","confianza":"Alta","corr":0.51,"familia":"No convencionales","lat":0.25694,"lon":-78.40524,"mae":1.29,"modelo":"METEOBLUE","n":110,"nombre":"Inguincho","rating":4.87,"region":"Interandina","rmse":1.55},{"bias":0.47,"codigo":"84160","color":"#785EF0","confianza":"Alta","corr":0.41,"familia":"No convencionales","lat":-1.3671,"lon":-78.60554,"mae":1.55,"modelo":"MFGLOBAL","n":112,"nombre":"Querochaca","rating":4.8,"region":"Interandina","rmse":1.9},{"bias":0.34,"codigo":"84270","color":"#785EF0","confianza":"Alta","corr":0.21,"familia":"No convencionales","lat":-4.0375,"lon":-79.2034,"mae":1.62,"modelo":"MFGLOBAL","n":109,"nombre":"Loja Argelia","rating":4.67,"region":"Interandina","rmse":1.97},{"bias":-1.09,"codigo":"84147","color":"#D55E00","confianza":"Alta","corr":0.51,"familia":"No convencionales","lat":-1.21413,"lon":-78.57455,"mae":1.55,"modelo":"METEOBLUE","n":51,"nombre":"Ambato","rating":4.54,"region":"Interandina","rmse":1.79},{"bias":-1.01,"codigo":"84176","color":"#D55E00","confianza":"Alta","corr":0.37,"familia":"No convencionales","lat":-1.65333,"lon":-78.54889,"mae":1.56,"modelo":"METEOBLUE","n":74,"nombre":"Riobamba","rating":4.39,"region":"Interandina","rmse":1.9},{"bias":-0.97,"codigo":"84056","color":"#CC79A7","confianza":"Alta","corr":0.29,"familia":"No convencionales","lat":0.01116,"lon":-78.25505,"mae":1.81,"modelo":"GEM15","n":158,"nombre":"Tomal\u00f3n","rating":4.0,"region":"Interandina","rmse":2.27},{"bias":-2.1,"codigo":"M0037","color":"#648FFF","confianza":"Media","corr":0.67,"familia":"No convencionales","lat":-2.11805,"lon":-79.60038,"mae":2.1,"modelo":"UMGLOBAL10","n":23,"nombre":"Milagro","rating":3.9,"region":"Litoral","rmse":2.22}],"metricas":{"calif_media":6.2,"estaciones":40,"mas_ganador":"METEOBLUE"},"modo":"continuous","ranking":[{"bias":0.14,"color":"#D55E00","confianza":"Alta","corr":0.5,"estaciones":39,"familia":"No convencionales","mae":1.03,"modelo":"METEOBLUE","n":104,"rating":5.91,"rmse":1.28},{"bias":0.24,"color":"#785EF0","confianza":"Alta","corr":0.35,"estaciones":39,"familia":"No convencionales","mae":1.48,"modelo":"MFGLOBAL","n":103,"rating":4.93,"rmse":1.78},{"bias":-0.66,"color":"#648FFF","confianza":"Alta","corr":0.39,"estaciones":40,"familia":"No convencionales","mae":1.63,"modelo":"UMGLOBAL10","n":151,"rating":4.74,"rmse":2.24},{"bias":-0.44,"color":"#A6761D","confianza":"Alta","corr":0.18,"estaciones":37,"familia":"No convencionales","mae":1.72,"modelo":"NEMSSA","n":151,"rating":4.38,"rmse":2.5},{"bias":-0.88,"color":"#00A9A5","confianza":"Alta","corr":0.26,"estaciones":40,"familia":"No convencionales","mae":1.96,"modelo":"NEMSGLOBAL","n":151,"rating":4.22,"rmse":2.59},{"bias":-1.36,"color":"#CC79A7","confianza":"Alta","corr":0.35,"estaciones":40,"familia":"No convencionales","mae":2.23,"modelo":"GEM15","n":149,"rating":4.18,"rmse":2.83},{"bias":-0.67,"color":"#DC267F","confianza":"Alta","corr":0.31,"estaciones":40,"familia":"No convencionales","mae":1.97,"modelo":"NEMSGLOBAL_E","n":150,"rating":4.09,"rmse":2.46},{"bias":-1.85,"color":"#B33DC6","confianza":"Alta","corr":0.24,"estaciones":36,"familia":"No convencionales","mae":2.25,"modelo":"SA01","n":55,"rating":3.78,"rmse":2.57}],"sintesis_region":[{"modelo":"METEOBLUE","region":"Amazonia"},{"modelo":"UMGLOBAL10","region":"Insular"},{"modelo":"METEOBLUE","region":"Interandina"},{"modelo":"METEOBLUE","region":"Litoral"}],"ventana":"todo"}
