{"bloque":"tmin","bloques":[{"clave":"precip_det","etiqueta":"Precipitaci\u00f3n: detecci\u00f3n"},{"clave":"precip_cua","etiqueta":"Precipitaci\u00f3n: cuantificaci\u00f3n"},{"clave":"tmax","etiqueta":"Temperatura m\u00e1xima"},{"clave":"tmin","etiqueta":"Temperatura m\u00ednima"}],"estaciones":[{"codigo":"84099","nombre":"El Coca","region":"Amazonia"},{"codigo":"84253","nombre":"Gualaquiza","region":"Amazonia"},{"codigo":"84151","nombre":"Jumandy","region":"Amazonia"},{"codigo":"84063","nombre":"Lago Agrio","region":"Amazonia"},{"codigo":"84217","nombre":"Macas","region":"Amazonia"},{"codigo":"84132","nombre":"N. Rocafu","region":"Amazonia"},{"codigo":"84163","nombre":"Pastaza","region":"Amazonia"},{"codigo":"84179","nombre":"Puyo","region":"Amazonia"},{"codigo":"84001","nombre":"Baltra","region":"Insular"},{"codigo":"84008","nombre":"S. Cristobal","region":"Insular"},{"codigo":"84010","nombre":"S. Cristobal A","region":"Insular"},{"codigo":"84147","nombre":"Ambato","region":"Interandina"},{"codigo":"84226","nombre":"Ca\u00f1ar","region":"Interandina"},{"codigo":"84239","nombre":"Cuenca","region":"Interandina"},{"codigo":"84173","nombre":"ESPOCH","region":"Interandina"},{"codigo":"M1240","nombre":"Ibarra","region":"Interandina"},{"codigo":"84045","nombre":"Inguincho","region":"Interandina"},{"codigo":"84088","nombre":"Izobamba","region":"Interandina"},{"codigo":"M0024","nombre":"I\u00f1aquito","region":"Interandina"},{"codigo":"84076","nombre":"La Tola","region":"Interandina"},{"codigo":"84265","nombre":"La Toma","region":"Interandina"},{"codigo":"84123","nombre":"Latacunga","region":"Interandina"},{"codigo":"84270","nombre":"Loja Argelia","region":"Interandina"},{"codigo":"84160","nombre":"Querochaca","region":"Interandina"},{"codigo":"84176","nombre":"Riobamba","region":"Interandina"},{"codigo":"84143","nombre":"Rumipamba","region":"Interandina"},{"codigo":"84036","nombre":"S. Gabriel","region":"Interandina"},{"codigo":"84075","nombre":"Tababela","region":"Interandina"},{"codigo":"84056","nombre":"Tomal\u00f3n","region":"Interandina"},{"codigo":"84027","nombre":"Tulc\u00e1n","region":"Interandina"},{"codigo":"84018","nombre":"Esmeraldas","region":"Litoral"},{"codigo":"84203","nombre":"Guayaquil","region":"Litoral"},{"codigo":"84050","nombre":"La Concordia","region":"Litoral"},{"codigo":"84117","nombre":"Manta","region":"Litoral"},{"codigo":"M0037","nombre":"Milagro","region":"Litoral"},{"codigo":"84140","nombre":"Pichilingue","region":"Litoral"},{"codigo":"84135","nombre":"Portoviejo","region":"Litoral"},{"codigo":"84105","nombre":"Puerto Ila","region":"Litoral"},{"codigo":"84200","nombre":"Salinas","region":"Litoral"},{"codigo":"84252","nombre":"Sta. Rosa","region":"Litoral"}],"familia":"Postprocesamiento","ganadores":[{"bias":-0.14,"codigo":"84200","color":"#A65628","confianza":"Alta","corr":0.96,"familia":"Postprocesamiento","lat":-2.2,"lon":-80.98972,"mae":0.36,"modelo":"BC_CLASSIC_METEOBLUE","n":151,"nombre":"Salinas","rating":8.28,"region":"Litoral","rmse":0.48},{"bias":-0.17,"codigo":"84105","color":"#111111","confianza":"Alta","corr":0.82,"familia":"Postprocesamiento","lat":-0.493,"lon":-79.34892,"mae":0.5,"modelo":"BEST_OP_CV","n":171,"nombre":"Puerto Ila","rating":7.72,"region":"Litoral","rmse":0.61},{"bias":-0.0,"codigo":"84135","color":"#0B6E4F","confianza":"Alta","corr":0.75,"familia":"Postprocesamiento","lat":-1.17343,"lon":-80.38736,"mae":0.55,"modelo":"CONSENSO_OP_TOP5","n":156,"nombre":"Portoviejo","rating":7.72,"region":"Litoral","rmse":0.71},{"bias":-0.05,"codigo":"84001","color":"#8A2BE2","confianza":"Alta","corr":0.94,"familia":"Postprocesamiento","lat":-0.445,"lon":-90.269,"mae":0.62,"modelo":"ENS_MEAN","n":154,"nombre":"Baltra","rating":7.64,"region":"Insular","rmse":0.76},{"bias":-0.04,"codigo":"84252","color":"#111111","confianza":"Alta","corr":0.85,"familia":"Postprocesamiento","lat":-3.43583,"lon":-79.98333,"mae":0.65,"modelo":"BEST_OP_CV","n":187,"nombre":"Sta. Rosa","rating":7.47,"region":"Litoral","rmse":0.83},{"bias":0.19,"codigo":"84008","color":"#0B6E4F","confianza":"Alta","corr":0.92,"familia":"Postprocesamiento","lat":-0.90406,"lon":-89.61431,"mae":0.65,"modelo":"CONSENSO_OP_TOP5","n":160,"nombre":"S. Cristobal","rating":7.29,"region":"Insular","rmse":0.87},{"bias":0.1,"codigo":"84132","color":"#17A398","confianza":"Alta","corr":0.48,"familia":"Postprocesamiento","lat":-0.92003,"lon":-75.40303,"mae":0.56,"modelo":"ENS_MEDIAN","n":103,"nombre":"N. Rocafu","rating":7.25,"region":"Amazonia","rmse":0.76},{"bias":-0.07,"codigo":"84151","color":"#111111","confianza":"Alta","corr":0.57,"familia":"Postprocesamiento","lat":-1.057,"lon":-77.584,"mae":0.63,"modelo":"BEST_OP_CV","n":89,"nombre":"Jumandy","rating":7.16,"region":"Amazonia","rmse":0.9},{"bias":0.11,"codigo":"84063","color":"#111111","confianza":"Alta","corr":0.45,"familia":"Postprocesamiento","lat":0.0925,"lon":-76.86944,"mae":0.6,"modelo":"BEST_OP_CV","n":161,"nombre":"Lago Agrio","rating":7.08,"region":"Amazonia","rmse":0.83},{"bias":-0.12,"codigo":"84099","color":"#0B6E4F","confianza":"Alta","corr":0.49,"familia":"Postprocesamiento","lat":-0.46056,"lon":-76.98806,"mae":0.65,"modelo":"CONSENSO_OP_TOP5","n":176,"nombre":"El Coca","rating":7.06,"region":"Amazonia","rmse":0.8},{"bias":0.0,"codigo":"84050","color":"#0B6E4F","confianza":"Alta","corr":0.51,"familia":"Postprocesamiento","lat":-0.02478,"lon":-79.38028,"mae":0.63,"modelo":"CONSENSO_OP_TOP5","n":181,"nombre":"La Concordia","rating":7.03,"region":"Litoral","rmse":1.12},{"bias":-0.4,"codigo":"84117","color":"#A65628","confianza":"Alta","corr":0.87,"familia":"Postprocesamiento","lat":-0.95,"lon":-80.68333,"mae":0.64,"modelo":"BC_CLASSIC_METEOBLUE","n":157,"nombre":"Manta","rating":7.02,"region":"Litoral","rmse":0.86},{"bias":0.15,"codigo":"84140","color":"#8A2BE2","confianza":"Alta","corr":0.55,"familia":"Postprocesamiento","lat":-1.07434,"lon":-79.4929,"mae":0.59,"modelo":"ENS_MEAN","n":157,"nombre":"Pichilingue","rating":7.0,"region":"Litoral","rmse":0.98},{"bias":0.43,"codigo":"84010","color":"#0B6E4F","confianza":"Alta","corr":0.93,"familia":"Postprocesamiento","lat":-0.909,"lon":-89.617,"mae":0.68,"modelo":"CONSENSO_OP_TOP5","n":169,"nombre":"S. Cristobal A","rating":6.96,"region":"Insular","rmse":0.88},{"bias":-0.22,"codigo":"84018","color":"#FDBF6F","confianza":"Alta","corr":0.48,"familia":"Postprocesamiento","lat":0.97917,"lon":-79.62444,"mae":0.65,"modelo":"QM_GFS05","n":131,"nombre":"Esmeraldas","rating":6.9,"region":"Litoral","rmse":0.81},{"bias":0.09,"codigo":"84179","color":"#8A2BE2","confianza":"Alta","corr":0.43,"familia":"Postprocesamiento","lat":-1.5057,"lon":-77.956,"mae":0.73,"modelo":"ENS_MEAN","n":145,"nombre":"Puyo","rating":6.76,"region":"Amazonia","rmse":0.99},{"bias":0.15,"codigo":"84075","color":"#A65628","confianza":"Alta","corr":0.77,"familia":"Postprocesamiento","lat":-0.14083,"lon":-78.353,"mae":1.0,"modelo":"BC_CLASSIC_METEOBLUE","n":167,"nombre":"Tababela","rating":6.35,"region":"Interandina","rmse":1.34},{"bias":0.02,"codigo":"84226","color":"#111111","confianza":"Alta","corr":0.61,"familia":"Postprocesamiento","lat":-2.55221,"lon":-78.94519,"mae":1.07,"modelo":"BEST_OP_CV","n":149,"nombre":"Ca\u00f1ar","rating":6.33,"region":"Interandina","rmse":1.33},{"bias":0.02,"codigo":"84217","color":"#A6761D","confianza":"Alta","corr":0.33,"familia":"Postprocesamiento","lat":-2.29861,"lon":-78.12056,"mae":0.99,"modelo":"EMOS_GAUSS","n":190,"nombre":"Macas","rating":6.24,"region":"Amazonia","rmse":1.21},{"bias":-0.21,"codigo":"84163","color":"#0B6E4F","confianza":"Alta","corr":0.33,"familia":"Postprocesamiento","lat":-1.5,"lon":-78.06667,"mae":0.85,"modelo":"CONSENSO_OP_TOP5","n":176,"nombre":"Pastaza","rating":6.22,"region":"Amazonia","rmse":1.14},{"bias":-0.03,"codigo":"84203","color":"#0B6E4F","confianza":"Alta","corr":0.43,"familia":"Postprocesamiento","lat":-2.15333,"lon":-79.88333,"mae":0.88,"modelo":"CONSENSO_OP_TOP5","n":157,"nombre":"Guayaquil","rating":6.06,"region":"Litoral","rmse":1.94},{"bias":0.09,"codigo":"84027","color":"#0B6E4F","confianza":"Alta","corr":0.64,"familia":"Postprocesamiento","lat":0.81667,"lon":-77.7,"mae":1.23,"modelo":"CONSENSO_OP_TOP5","n":101,"nombre":"Tulc\u00e1n","rating":5.94,"region":"Interandina","rmse":1.54},{"bias":-0.08,"codigo":"84076","color":"#17A398","confianza":"Alta","corr":0.59,"familia":"Postprocesamiento","lat":-0.23179,"lon":-78.37043,"mae":1.21,"modelo":"ENS_MEDIAN","n":129,"nombre":"La Tola","rating":5.93,"region":"Interandina","rmse":1.54},{"bias":-0.14,"codigo":"M1240","color":"#FB9A99","confianza":"Alta","corr":0.34,"familia":"Postprocesamiento","lat":0.32978,"lon":-78.1322,"mae":1.29,"modelo":"QM_ICON","n":163,"nombre":"Ibarra","rating":5.5,"region":"Interandina","rmse":1.61},{"bias":0.0,"codigo":"84270","color":"#377EB8","confianza":"Alta","corr":-0.09,"familia":"Postprocesamiento","lat":-4.0375,"lon":-79.2034,"mae":1.47,"modelo":"BC_CLASSIC_IFSHRES","n":154,"nombre":"Loja Argelia","rating":4.72,"region":"Interandina","rmse":2.66},{"bias":-0.0,"codigo":"84088","color":"#A65628","confianza":"Alta","corr":0.07,"familia":"Postprocesamiento","lat":-0.36593,"lon":-78.55513,"mae":1.5,"modelo":"BC_CLASSIC_METEOBLUE","n":182,"nombre":"Izobamba","rating":4.68,"region":"Interandina","rmse":3.28},{"bias":0.64,"codigo":"84056","color":"#111111","confianza":"Alta","corr":0.4,"familia":"Postprocesamiento","lat":0.01116,"lon":-78.25505,"mae":1.58,"modelo":"BEST_OP_CV","n":184,"nombre":"Tomal\u00f3n","rating":4.61,"region":"Interandina","rmse":1.94},{"bias":-0.0,"codigo":"84036","color":"#8A2BE2","confianza":"Alta","corr":-0.05,"familia":"Postprocesamiento","lat":0.60417,"lon":-77.81944,"mae":1.56,"modelo":"ENS_MEAN","n":156,"nombre":"S. Gabriel","rating":4.59,"region":"Interandina","rmse":3.03},{"bias":-0.28,"codigo":"84173","color":"#111111","confianza":"Alta","corr":0.29,"familia":"Postprocesamiento","lat":-1.65083,"lon":-78.68521,"mae":1.59,"modelo":"BEST_OP_CV","n":162,"nombre":"ESPOCH","rating":4.53,"region":"Interandina","rmse":2.82},{"bias":-1.1,"codigo":"84147","color":"#111111","confianza":"Alta","corr":0.47,"familia":"Postprocesamiento","lat":-1.21413,"lon":-78.57455,"mae":1.66,"modelo":"BEST_OP_CV","n":81,"nombre":"Ambato","rating":4.27,"region":"Interandina","rmse":2.14},{"bias":-0.11,"codigo":"84143","color":"#1B9E77","confianza":"Alta","corr":-0.13,"familia":"Postprocesamiento","lat":-1.01998,"lon":-78.59456,"mae":1.74,"modelo":"BC_CLASSIC_IFS025","n":163,"nombre":"Rumipamba","rating":4.25,"region":"Interandina","rmse":2.9},{"bias":-0.89,"codigo":"84239","color":"#1F78B4","confianza":"Alta","corr":0.44,"familia":"Postprocesamiento","lat":-2.88917,"lon":-78.98417,"mae":1.66,"modelo":"QM_METEOBLUE","n":195,"nombre":"Cuenca","rating":4.23,"region":"Interandina","rmse":2.4},{"bias":-1.27,"codigo":"84253","color":"#0B6E4F","confianza":"Alta","corr":0.35,"familia":"Postprocesamiento","lat":-3.42333,"lon":-78.56694,"mae":1.55,"modelo":"CONSENSO_OP_TOP5","n":114,"nombre":"Gualaquiza","rating":4.18,"region":"Amazonia","rmse":2.11},{"bias":-1.79,"codigo":"M0037","color":"#7570B3","confianza":"Media","corr":0.63,"familia":"Postprocesamiento","lat":-2.11805,"lon":-79.60038,"mae":1.8,"modelo":"BC_CLASSIC_ICON","n":23,"nombre":"Milagro","rating":4.16,"region":"Litoral","rmse":2.03},{"bias":0.21,"codigo":"84160","color":"#8A2BE2","confianza":"Alta","corr":-0.1,"familia":"Postprocesamiento","lat":-1.3671,"lon":-78.60554,"mae":1.73,"modelo":"ENS_MEAN","n":142,"nombre":"Querochaca","rating":4.15,"region":"Interandina","rmse":2.9},{"bias":-0.42,"codigo":"M0024","color":"#E7298A","confianza":"Alta","corr":0.08,"familia":"Postprocesamiento","lat":-0.1783,"lon":-78.48773,"mae":1.63,"modelo":"BC_CLASSIC_GFS05","n":153,"nombre":"I\u00f1aquito","rating":4.14,"region":"Interandina","rmse":2.88},{"bias":0.84,"codigo":"84045","color":"#0B6E4F","confianza":"Alta","corr":-0.01,"familia":"Postprocesamiento","lat":0.25694,"lon":-78.40524,"mae":1.36,"modelo":"CONSENSO_OP_TOP5","n":159,"nombre":"Inguincho","rating":3.93,"region":"Interandina","rmse":2.96},{"bias":-0.71,"codigo":"84265","color":"#0B6E4F","confianza":"Alta","corr":0.04,"familia":"Postprocesamiento","lat":-3.99556,"lon":-79.37167,"mae":1.75,"modelo":"CONSENSO_OP_TOP5","n":161,"nombre":"La Toma","rating":3.86,"region":"Interandina","rmse":2.61},{"bias":-0.71,"codigo":"84176","color":"#CC79A7","confianza":"Alta","corr":-0.05,"familia":"Postprocesamiento","lat":-1.65333,"lon":-78.54889,"mae":2.03,"modelo":"QM_IFSHRES","n":111,"nombre":"Riobamba","rating":3.44,"region":"Interandina","rmse":3.26},{"bias":0.98,"codigo":"84123","color":"#A65628","confianza":"Alta","corr":-0.02,"familia":"Postprocesamiento","lat":-0.91333,"lon":-78.61556,"mae":1.79,"modelo":"BC_CLASSIC_METEOBLUE","n":157,"nombre":"Latacunga","rating":3.25,"region":"Interandina","rmse":4.5}],"metricas":{"calif_media":5.8,"estaciones":40,"mas_ganador":"CONSENSO_OP_TOP5"},"modo":"continuous","ranking":[{"bias":-0.14,"color":"#0B6E4F","confianza":"Alta","corr":0.42,"estaciones":40,"familia":"Postprocesamiento","mae":1.13,"modelo":"CONSENSO_OP_TOP5","n":151,"rating":5.69,"rmse":1.75},{"bias":-0.12,"color":"#111111","confianza":"Alta","corr":0.42,"estaciones":40,"familia":"Postprocesamiento","mae":1.15,"modelo":"BEST_OP_CV","n":151,"rating":5.67,"rmse":1.77},{"bias":-0.21,"color":"#A65628","confianza":"Alta","corr":0.41,"estaciones":40,"familia":"Postprocesamiento","mae":1.2,"modelo":"BC_CLASSIC_METEOBLUE","n":151,"rating":5.53,"rmse":1.82},{"bias":-0.11,"color":"#377EB8","confianza":"Alta","corr":0.39,"estaciones":40,"familia":"Postprocesamiento","mae":1.25,"modelo":"BC_CLASSIC_IFSHRES","n":151,"rating":5.43,"rmse":1.86},{"bias":-0.14,"color":"#7570B3","confianza":"Alta","corr":0.37,"estaciones":40,"familia":"Postprocesamiento","mae":1.3,"modelo":"BC_CLASSIC_ICON","n":151,"rating":5.39,"rmse":1.89},{"bias":-0.12,"color":"#B33DC6","confianza":"Alta","corr":0.36,"estaciones":40,"familia":"Postprocesamiento","mae":1.27,"modelo":"BC_CLASSIC_AIFS025","n":151,"rating":5.36,"rmse":1.88},{"bias":-0.19,"color":"#E7298A","confianza":"Alta","corr":0.35,"estaciones":40,"familia":"Postprocesamiento","mae":1.31,"modelo":"BC_CLASSIC_GFS05","n":151,"rating":5.3,"rmse":1.91},{"bias":-0.11,"color":"#1B9E77","confianza":"Alta","corr":0.36,"estaciones":40,"familia":"Postprocesamiento","mae":1.31,"modelo":"BC_CLASSIC_IFS025","n":151,"rating":5.29,"rmse":1.92},{"bias":-0.3,"color":"#1F78B4","confianza":"Alta","corr":0.42,"estaciones":40,"familia":"Postprocesamiento","mae":1.3,"modelo":"QM_METEOBLUE","n":151,"rating":5.27,"rmse":1.91},{"bias":-0.45,"color":"#8A2BE2","confianza":"Alta","corr":0.39,"estaciones":40,"familia":"Postprocesamiento","mae":1.43,"modelo":"ENS_MEAN","n":141,"rating":5.08,"rmse":1.96},{"bias":-0.4,"color":"#17A398","confianza":"Alta","corr":0.39,"estaciones":40,"familia":"Postprocesamiento","mae":1.42,"modelo":"ENS_MEDIAN","n":141,"rating":5.08,"rmse":1.99},{"bias":-0.19,"color":"#A6761D","confianza":"Alta","corr":0.3,"estaciones":40,"familia":"Postprocesamiento","mae":1.37,"modelo":"EMOS_GAUSS","n":151,"rating":5.04,"rmse":1.95},{"bias":-0.13,"color":"#CC79A7","confianza":"Alta","corr":0.39,"estaciones":40,"familia":"Postprocesamiento","mae":1.39,"modelo":"QM_IFSHRES","n":151,"rating":4.99,"rmse":1.99},{"bias":-0.17,"color":"#009E73","confianza":"Alta","corr":0.37,"estaciones":40,"familia":"Postprocesamiento","mae":1.56,"modelo":"QM_AIFS025","n":151,"rating":4.91,"rmse":2.11},{"bias":-0.22,"color":"#FB9A99","confianza":"Alta","corr":0.38,"estaciones":40,"familia":"Postprocesamiento","mae":1.54,"modelo":"QM_ICON","n":151,"rating":4.9,"rmse":2.1},{"bias":-0.17,"color":"#B2DF8A","confianza":"Alta","corr":0.35,"estaciones":40,"familia":"Postprocesamiento","mae":1.63,"modelo":"QM_IFS025","n":151,"rating":4.71,"rmse":2.19},{"bias":-0.34,"color":"#FDBF6F","confianza":"Alta","corr":0.32,"estaciones":40,"familia":"Postprocesamiento","mae":1.65,"modelo":"QM_GFS05","n":151,"rating":4.69,"rmse":2.19},{"bias":0.4,"color":"#DC267F","confianza":"Media","corr":0.08,"estaciones":40,"familia":"Postprocesamiento","mae":5.89,"modelo":"NGR","n":29,"rating":2.24,"rmse":6.11}],"sintesis_region":[{"modelo":"CONSENSO_OP_TOP5","region":"Amazonia"},{"modelo":"CONSENSO_OP_TOP5","region":"Insular"},{"modelo":"BEST_OP_CV","region":"Interandina"},{"modelo":"CONSENSO_OP_TOP5","region":"Litoral"}],"ventana":"todo"}
