{"bloque":"tmin","bloques":[{"clave":"precip_det","etiqueta":"Precipitaci\u00f3n: detecci\u00f3n"},{"clave":"precip_cua","etiqueta":"Precipitaci\u00f3n: cuantificaci\u00f3n"},{"clave":"tmax","etiqueta":"Temperatura m\u00e1xima"},{"clave":"tmin","etiqueta":"Temperatura m\u00ednima"}],"estaciones":[{"codigo":"84099","nombre":"El Coca","region":"Amazonia"},{"codigo":"84253","nombre":"Gualaquiza","region":"Amazonia"},{"codigo":"84151","nombre":"Jumandy","region":"Amazonia"},{"codigo":"84063","nombre":"Lago Agrio","region":"Amazonia"},{"codigo":"84217","nombre":"Macas","region":"Amazonia"},{"codigo":"84132","nombre":"N. Rocafu","region":"Amazonia"},{"codigo":"84163","nombre":"Pastaza","region":"Amazonia"},{"codigo":"84179","nombre":"Puyo","region":"Amazonia"},{"codigo":"84001","nombre":"Baltra","region":"Insular"},{"codigo":"84008","nombre":"S. Cristobal","region":"Insular"},{"codigo":"84010","nombre":"S. Cristobal A","region":"Insular"},{"codigo":"84147","nombre":"Ambato","region":"Interandina"},{"codigo":"84226","nombre":"Ca\u00f1ar","region":"Interandina"},{"codigo":"84239","nombre":"Cuenca","region":"Interandina"},{"codigo":"84173","nombre":"ESPOCH","region":"Interandina"},{"codigo":"M1240","nombre":"Ibarra","region":"Interandina"},{"codigo":"84045","nombre":"Inguincho","region":"Interandina"},{"codigo":"84088","nombre":"Izobamba","region":"Interandina"},{"codigo":"M0024","nombre":"I\u00f1aquito","region":"Interandina"},{"codigo":"84076","nombre":"La Tola","region":"Interandina"},{"codigo":"84265","nombre":"La Toma","region":"Interandina"},{"codigo":"84123","nombre":"Latacunga","region":"Interandina"},{"codigo":"84270","nombre":"Loja Argelia","region":"Interandina"},{"codigo":"84160","nombre":"Querochaca","region":"Interandina"},{"codigo":"84176","nombre":"Riobamba","region":"Interandina"},{"codigo":"84143","nombre":"Rumipamba","region":"Interandina"},{"codigo":"84036","nombre":"S. Gabriel","region":"Interandina"},{"codigo":"84075","nombre":"Tababela","region":"Interandina"},{"codigo":"84056","nombre":"Tomal\u00f3n","region":"Interandina"},{"codigo":"84027","nombre":"Tulc\u00e1n","region":"Interandina"},{"codigo":"84018","nombre":"Esmeraldas","region":"Litoral"},{"codigo":"84203","nombre":"Guayaquil","region":"Litoral"},{"codigo":"84050","nombre":"La Concordia","region":"Litoral"},{"codigo":"84117","nombre":"Manta","region":"Litoral"},{"codigo":"M0037","nombre":"Milagro","region":"Litoral"},{"codigo":"84140","nombre":"Pichilingue","region":"Litoral"},{"codigo":"84135","nombre":"Portoviejo","region":"Litoral"},{"codigo":"84105","nombre":"Puerto Ila","region":"Litoral"},{"codigo":"84200","nombre":"Salinas","region":"Litoral"},{"codigo":"84252","nombre":"Sta. Rosa","region":"Litoral"}],"familia":"Mejor desempe\u00f1o","ganadores":[{"bias":0.14,"codigo":"84200","color":"#FE6100","confianza":"Media","corr":0.68,"familia":"ML","lat":-2.2,"lon":-80.98972,"mae":0.25,"modelo":"ML_HGB","n":15,"nombre":"Salinas","rating":8.46,"region":"Litoral","rmse":0.31},{"bias":0.05,"codigo":"84132","color":"#111111","confianza":"Media","corr":0.59,"familia":"Postprocesamiento","lat":-0.92003,"lon":-75.40303,"mae":0.29,"modelo":"BEST_OP_CV","n":15,"nombre":"N. Rocafu","rating":8.26,"region":"Amazonia","rmse":0.46},{"bias":0.06,"codigo":"84163","color":"#E69F00","confianza":"Media","corr":0.62,"familia":"ML","lat":-1.5,"lon":-78.06667,"mae":0.34,"modelo":"ML_RF","n":15,"nombre":"Pastaza","rating":8.16,"region":"Amazonia","rmse":0.46},{"bias":0.03,"codigo":"84203","color":"#984EA3","confianza":"Media","corr":0.35,"familia":"ML","lat":-2.15333,"lon":-79.88333,"mae":0.3,"modelo":"ML_HUBER","n":15,"nombre":"Guayaquil","rating":8.16,"region":"Litoral","rmse":0.38},{"bias":-0.01,"codigo":"84151","color":"#111111","confianza":"Media","corr":0.42,"familia":"Postprocesamiento","lat":-1.057,"lon":-77.584,"mae":0.34,"modelo":"BEST_OP_CV","n":15,"nombre":"Jumandy","rating":8.1,"region":"Amazonia","rmse":0.43},{"bias":0.08,"codigo":"84010","color":"#984EA3","confianza":"Media","corr":0.2,"familia":"ML","lat":-0.909,"lon":-89.617,"mae":0.25,"modelo":"ML_HUBER","n":15,"nombre":"S. Cristobal A","rating":8.09,"region":"Insular","rmse":0.34},{"bias":-0.16,"codigo":"84001","color":"#377EB8","confianza":"Media","corr":0.72,"familia":"ML","lat":-0.445,"lon":-90.269,"mae":0.36,"modelo":"ML_ET","n":15,"nombre":"Baltra","rating":8.03,"region":"Insular","rmse":0.48},{"bias":0.29,"codigo":"84117","color":"#111111","confianza":"Media","corr":0.78,"familia":"Postprocesamiento","lat":-0.95,"lon":-80.68333,"mae":0.4,"modelo":"BEST_OP_CV","n":15,"nombre":"Manta","rating":7.79,"region":"Litoral","rmse":0.54},{"bias":0.19,"codigo":"84140","color":"#111111","confianza":"Media","corr":0.68,"familia":"Postprocesamiento","lat":-1.07434,"lon":-79.4929,"mae":0.43,"modelo":"BEST_OP_CV","n":15,"nombre":"Pichilingue","rating":7.74,"region":"Litoral","rmse":0.57},{"bias":0.0,"codigo":"84008","color":"#0B6E4F","confianza":"Media","corr":0.22,"familia":"Postprocesamiento","lat":-0.90406,"lon":-89.61431,"mae":0.42,"modelo":"CONSENSO_OP_TOP5","n":15,"nombre":"S. Cristobal","rating":7.68,"region":"Insular","rmse":0.52},{"bias":-0.15,"codigo":"84135","color":"#648FFF","confianza":"Media","corr":0.87,"familia":"ML","lat":-1.17343,"lon":-80.38736,"mae":0.54,"modelo":"RIDGE_RICH","n":15,"nombre":"Portoviejo","rating":7.68,"region":"Litoral","rmse":0.66},{"bias":-0.1,"codigo":"84050","color":"#648FFF","confianza":"Media","corr":0.8,"familia":"ML","lat":-0.02478,"lon":-79.38028,"mae":0.54,"modelo":"RIDGE_RICH","n":15,"nombre":"La Concordia","rating":7.64,"region":"Litoral","rmse":0.7},{"bias":0.12,"codigo":"84252","color":"#111111","confianza":"Media","corr":0.73,"familia":"Postprocesamiento","lat":-3.43583,"lon":-79.98333,"mae":0.63,"modelo":"BEST_OP_CV","n":15,"nombre":"Sta. Rosa","rating":7.36,"region":"Litoral","rmse":0.74},{"bias":-0.06,"codigo":"84105","color":"#377EB8","confianza":"Media","corr":-0.15,"familia":"ML","lat":-0.493,"lon":-79.34892,"mae":0.44,"modelo":"ML_ET","n":15,"nombre":"Puerto Ila","rating":7.18,"region":"Litoral","rmse":0.53},{"bias":-0.35,"codigo":"84063","color":"#648FFF","confianza":"Media","corr":0.62,"familia":"ML","lat":0.0925,"lon":-76.86944,"mae":0.58,"modelo":"RIDGE_RICH","n":15,"nombre":"Lago Agrio","rating":7.03,"region":"Amazonia","rmse":0.76},{"bias":-0.12,"codigo":"84036","color":"#648FFF","confianza":"Media","corr":0.67,"familia":"ML","lat":0.60417,"lon":-77.81944,"mae":0.78,"modelo":"RIDGE_RICH","n":15,"nombre":"S. Gabriel","rating":6.95,"region":"Interandina","rmse":0.86},{"bias":0.27,"codigo":"84075","color":"#111111","confianza":"Media","corr":0.78,"familia":"Postprocesamiento","lat":-0.14083,"lon":-78.353,"mae":0.72,"modelo":"BEST_OP_CV","n":15,"nombre":"Tababela","rating":6.87,"region":"Interandina","rmse":0.95},{"bias":0.34,"codigo":"84179","color":"#648FFF","confianza":"Media","corr":0.64,"familia":"ML","lat":-1.5057,"lon":-77.956,"mae":0.65,"modelo":"RIDGE_RICH","n":15,"nombre":"Puyo","rating":6.85,"region":"Amazonia","rmse":0.88},{"bias":-0.02,"codigo":"84099","color":"#DC267F","confianza":"Media","corr":0.19,"familia":"ML","lat":-0.46056,"lon":-76.98806,"mae":0.68,"modelo":"ML_XGB","n":15,"nombre":"El Coca","rating":6.84,"region":"Amazonia","rmse":0.86},{"bias":-0.07,"codigo":"84088","color":"#FE6100","confianza":"Media","corr":0.72,"familia":"ML","lat":-0.36593,"lon":-78.55513,"mae":0.84,"modelo":"ML_HGB","n":15,"nombre":"Izobamba","rating":6.83,"region":"Interandina","rmse":1.09},{"bias":-0.05,"codigo":"84217","color":"#377EB8","confianza":"Media","corr":0.22,"familia":"ML","lat":-2.29861,"lon":-78.12056,"mae":0.72,"modelo":"ML_ET","n":15,"nombre":"Macas","rating":6.69,"region":"Amazonia","rmse":0.95},{"bias":-0.09,"codigo":"84253","color":"#648FFF","confianza":"Media","corr":0.34,"familia":"ML","lat":-3.42333,"lon":-78.56694,"mae":0.73,"modelo":"RIDGE_RICH","n":15,"nombre":"Gualaquiza","rating":6.67,"region":"Amazonia","rmse":0.98},{"bias":-0.22,"codigo":"84147","color":"#648FFF","confianza":"Baja","corr":0.41,"familia":"ML","lat":-1.21413,"lon":-78.57455,"mae":0.74,"modelo":"RIDGE_RICH","n":13,"nombre":"Ambato","rating":6.64,"region":"Interandina","rmse":0.87},{"bias":0.23,"codigo":"M0037","color":"#648FFF","confianza":"Media","corr":0.21,"familia":"ML","lat":-2.11805,"lon":-79.60038,"mae":0.6,"modelo":"RIDGE_RICH","n":15,"nombre":"Milagro","rating":6.61,"region":"Litoral","rmse":0.95},{"bias":-0.49,"codigo":"84018","color":"#648FFF","confianza":"Media","corr":0.62,"familia":"ML","lat":0.97917,"lon":-79.62444,"mae":0.72,"modelo":"RIDGE_RICH","n":15,"nombre":"Esmeraldas","rating":6.59,"region":"Litoral","rmse":0.85},{"bias":-0.31,"codigo":"M0024","color":"#648FFF","confianza":"Media","corr":0.19,"familia":"ML","lat":-0.1783,"lon":-78.48773,"mae":0.67,"modelo":"RIDGE_RICH","n":15,"nombre":"I\u00f1aquito","rating":6.49,"region":"Interandina","rmse":0.81},{"bias":-0.24,"codigo":"84045","color":"#377EB8","confianza":"Media","corr":-0.0,"familia":"ML","lat":0.25694,"lon":-78.40524,"mae":0.63,"modelo":"ML_ET","n":15,"nombre":"Inguincho","rating":6.48,"region":"Interandina","rmse":0.82},{"bias":-0.14,"codigo":"M1240","color":"#111111","confianza":"Media","corr":0.65,"familia":"Postprocesamiento","lat":0.32978,"lon":-78.1322,"mae":1.04,"modelo":"BEST_OP_CV","n":15,"nombre":"Ibarra","rating":6.29,"region":"Interandina","rmse":1.24},{"bias":0.05,"codigo":"84027","color":"#0B6E4F","confianza":"Media","corr":0.61,"familia":"Postprocesamiento","lat":0.81667,"lon":-77.7,"mae":1.05,"modelo":"CONSENSO_OP_TOP5","n":15,"nombre":"Tulc\u00e1n","rating":6.24,"region":"Interandina","rmse":1.42},{"bias":0.04,"codigo":"84143","color":"#0B6E4F","confianza":"Media","corr":0.48,"familia":"Postprocesamiento","lat":-1.01998,"lon":-78.59456,"mae":1.04,"modelo":"CONSENSO_OP_TOP5","n":15,"nombre":"Rumipamba","rating":6.2,"region":"Interandina","rmse":1.35},{"bias":-0.05,"codigo":"84239","color":"#111111","confianza":"Media","corr":0.56,"familia":"Postprocesamiento","lat":-2.88917,"lon":-78.98417,"mae":1.08,"modelo":"BEST_OP_CV","n":15,"nombre":"Cuenca","rating":6.19,"region":"Interandina","rmse":1.37},{"bias":-0.19,"codigo":"84173","color":"#111111","confianza":"Media","corr":0.38,"familia":"Postprocesamiento","lat":-1.65083,"lon":-78.68521,"mae":1.0,"modelo":"BEST_OP_CV","n":15,"nombre":"ESPOCH","rating":6.05,"region":"Interandina","rmse":1.2},{"bias":0.04,"codigo":"84123","color":"#984EA3","confianza":"Media","corr":0.53,"familia":"ML","lat":-0.91333,"lon":-78.61556,"mae":1.23,"modelo":"ML_HUBER","n":15,"nombre":"Latacunga","rating":5.93,"region":"Interandina","rmse":1.52},{"bias":-0.38,"codigo":"84270","color":"#377EB8","confianza":"Media","corr":0.63,"familia":"ML","lat":-4.0375,"lon":-79.2034,"mae":1.14,"modelo":"ML_ET","n":15,"nombre":"Loja Argelia","rating":5.72,"region":"Interandina","rmse":1.44},{"bias":0.21,"codigo":"84160","color":"#648FFF","confianza":"Media","corr":0.4,"familia":"ML","lat":-1.3671,"lon":-78.60554,"mae":1.13,"modelo":"RIDGE_RICH","n":15,"nombre":"Querochaca","rating":5.7,"region":"Interandina","rmse":1.48},{"bias":-0.48,"codigo":"84226","color":"#0B6E4F","confianza":"Media","corr":0.43,"familia":"Postprocesamiento","lat":-2.55221,"lon":-78.94519,"mae":1.01,"modelo":"CONSENSO_OP_TOP5","n":15,"nombre":"Ca\u00f1ar","rating":5.68,"region":"Interandina","rmse":1.3},{"bias":0.0,"codigo":"84076","color":"#377EB8","confianza":"Media","corr":0.41,"familia":"ML","lat":-0.23179,"lon":-78.37043,"mae":1.43,"modelo":"ML_ET","n":15,"nombre":"La Tola","rating":5.43,"region":"Interandina","rmse":2.07},{"bias":-0.01,"codigo":"84056","color":"#0B6E4F","confianza":"Media","corr":0.66,"familia":"Postprocesamiento","lat":0.01116,"lon":-78.25505,"mae":1.82,"modelo":"CONSENSO_OP_TOP5","n":15,"nombre":"Tomal\u00f3n","rating":5.25,"region":"Interandina","rmse":2.33},{"bias":-0.68,"codigo":"84176","color":"#648FFF","confianza":"Media","corr":0.7,"familia":"ML","lat":-1.65333,"lon":-78.54889,"mae":1.37,"modelo":"RIDGE_RICH","n":15,"nombre":"Riobamba","rating":5.14,"region":"Interandina","rmse":1.7},{"bias":-0.14,"codigo":"84265","color":"#111111","confianza":"Media","corr":0.66,"familia":"Postprocesamiento","lat":-3.99556,"lon":-79.37167,"mae":1.82,"modelo":"BEST_OP_CV","n":15,"nombre":"La Toma","rating":5.1,"region":"Interandina","rmse":2.17}],"metricas":{"calif_media":6.8,"estaciones":40,"mas_ganador":"RIDGE_RICH"},"modo":"continuous","ranking":[{"bias":-0.0,"color":"#377EB8","confianza":"Media","corr":0.33,"estaciones":39,"familia":"ML","mae":0.89,"modelo":"ML_ET","n":15,"rating":6.35,"rmse":1.13},{"bias":-0.12,"color":"#0B6E4F","confianza":"Media","corr":0.39,"estaciones":40,"familia":"Postprocesamiento","mae":0.9,"modelo":"CONSENSO_OP_TOP5","n":15,"rating":6.35,"rmse":1.15},{"bias":-0.16,"color":"#111111","confianza":"Media","corr":0.45,"estaciones":40,"familia":"Postprocesamiento","mae":0.91,"modelo":"BEST_OP_CV","n":15,"rating":6.31,"rmse":1.17},{"bias":-0.05,"color":"#E69F00","confianza":"Media","corr":0.31,"estaciones":39,"familia":"ML","mae":0.91,"modelo":"ML_RF","n":15,"rating":6.26,"rmse":1.16},{"bias":0.08,"color":"#FE6100","confianza":"Media","corr":0.28,"estaciones":39,"familia":"ML","mae":0.92,"modelo":"ML_HGB","n":15,"rating":6.21,"rmse":1.19},{"bias":-0.03,"color":"#648FFF","confianza":"Media","corr":0.4,"estaciones":40,"familia":"ML","mae":0.89,"modelo":"RIDGE_RICH","n":15,"rating":6.19,"rmse":1.13},{"bias":-0.0,"color":"#DC267F","confianza":"Media","corr":0.31,"estaciones":40,"familia":"ML","mae":0.93,"modelo":"ML_XGB","n":15,"rating":6.17,"rmse":1.2},{"bias":-0.13,"color":"#984EA3","confianza":"Media","corr":0.28,"estaciones":40,"familia":"ML","mae":0.97,"modelo":"ML_HUBER","n":15,"rating":6.15,"rmse":1.21}],"sintesis_region":[{"modelo":"RIDGE_RICH","region":"Amazonia"},{"modelo":"ML_HUBER","region":"Insular"},{"modelo":"RIDGE_RICH","region":"Interandina"},{"modelo":"RIDGE_RICH","region":"Litoral"}],"ventana":"15"}
