{"aviso":null,"bloque":"tmax","bloques":[{"clave":"precip_det","etiqueta":"Precipitaci\u00f3n: detecci\u00f3n"},{"clave":"precip_cua","etiqueta":"Precipitaci\u00f3n: cuantificaci\u00f3n"},{"clave":"tmax","etiqueta":"Temperatura m\u00e1xima"},{"clave":"tmin","etiqueta":"Temperatura m\u00ednima"}],"estaciones":[{"codigo":"84099","nombre":"El Coca","region":"Amazonia"},{"codigo":"84253","nombre":"Gualaquiza","region":"Amazonia"},{"codigo":"84151","nombre":"Jumandy","region":"Amazonia"},{"codigo":"84063","nombre":"Lago Agrio","region":"Amazonia"},{"codigo":"84217","nombre":"Macas","region":"Amazonia"},{"codigo":"84132","nombre":"N. Rocafu","region":"Amazonia"},{"codigo":"84163","nombre":"Pastaza","region":"Amazonia"},{"codigo":"84179","nombre":"Puyo","region":"Amazonia"},{"codigo":"84001","nombre":"Baltra","region":"Insular"},{"codigo":"84008","nombre":"S. Cristobal","region":"Insular"},{"codigo":"84010","nombre":"S. Cristobal A","region":"Insular"},{"codigo":"84147","nombre":"Ambato","region":"Interandina"},{"codigo":"84226","nombre":"Ca\u00f1ar","region":"Interandina"},{"codigo":"84239","nombre":"Cuenca","region":"Interandina"},{"codigo":"84173","nombre":"ESPOCH","region":"Interandina"},{"codigo":"M1240","nombre":"Ibarra","region":"Interandina"},{"codigo":"84045","nombre":"Inguincho","region":"Interandina"},{"codigo":"84088","nombre":"Izobamba","region":"Interandina"},{"codigo":"M0024","nombre":"I\u00f1aquito","region":"Interandina"},{"codigo":"84076","nombre":"La Tola","region":"Interandina"},{"codigo":"84265","nombre":"La Toma","region":"Interandina"},{"codigo":"84123","nombre":"Latacunga","region":"Interandina"},{"codigo":"84270","nombre":"Loja Argelia","region":"Interandina"},{"codigo":"84160","nombre":"Querochaca","region":"Interandina"},{"codigo":"84176","nombre":"Riobamba","region":"Interandina"},{"codigo":"84143","nombre":"Rumipamba","region":"Interandina"},{"codigo":"84036","nombre":"S. Gabriel","region":"Interandina"},{"codigo":"84075","nombre":"Tababela","region":"Interandina"},{"codigo":"84056","nombre":"Tomal\u00f3n","region":"Interandina"},{"codigo":"84027","nombre":"Tulc\u00e1n","region":"Interandina"},{"codigo":"84018","nombre":"Esmeraldas","region":"Litoral"},{"codigo":"84203","nombre":"Guayaquil","region":"Litoral"},{"codigo":"84050","nombre":"La Concordia","region":"Litoral"},{"codigo":"84117","nombre":"Manta","region":"Litoral"},{"codigo":"M0037","nombre":"Milagro","region":"Litoral"},{"codigo":"84140","nombre":"Pichilingue","region":"Litoral"},{"codigo":"84135","nombre":"Portoviejo","region":"Litoral"},{"codigo":"84105","nombre":"Puerto Ila","region":"Litoral"},{"codigo":"84200","nombre":"Salinas","region":"Litoral"},{"codigo":"84252","nombre":"Sta. Rosa","region":"Litoral"}],"familia":"No convencionales","ganadores":[{"bias":-0.06,"codigo":"84203","color":"#785EF0","confianza":"Baja","corr":0.87,"familia":"No convencionales","lat":-2.15333,"lon":-79.88333,"mae":0.51,"modelo":"MFGLOBAL","n":7,"nombre":"Guayaquil","rating":7.87,"region":"Litoral","rmse":0.66},{"bias":0.13,"codigo":"84088","color":"#FF7F00","confianza":"Baja","corr":0.7,"familia":"No convencionales","lat":-0.36593,"lon":-78.55513,"mae":0.52,"modelo":"NEMSGLOBAL_E","n":7,"nombre":"Izobamba","rating":7.54,"region":"Interandina","rmse":0.71},{"bias":0.01,"codigo":"84045","color":"#A6761D","confianza":"Baja","corr":0.57,"familia":"No convencionales","lat":0.25694,"lon":-78.40524,"mae":0.61,"modelo":"NEMSSA","n":7,"nombre":"Inguincho","rating":7.48,"region":"Interandina","rmse":0.69},{"bias":-0.51,"codigo":"84200","color":"#D55E00","confianza":"Baja","corr":0.47,"familia":"No convencionales","lat":-2.2,"lon":-80.98972,"mae":0.51,"modelo":"METEOBLUE","n":7,"nombre":"Salinas","rating":7.01,"region":"Litoral","rmse":0.61},{"bias":-0.64,"codigo":"84099","color":"#D55E00","confianza":"Baja","corr":0.93,"familia":"No convencionales","lat":-0.46056,"lon":-76.98806,"mae":0.77,"modelo":"METEOBLUE","n":7,"nombre":"El Coca","rating":6.65,"region":"Amazonia","rmse":0.86},{"bias":0.68,"codigo":"84147","color":"#A6761D","confianza":"Baja","corr":0.91,"familia":"No convencionales","lat":-1.21413,"lon":-78.57455,"mae":0.69,"modelo":"NEMSSA","n":7,"nombre":"Ambato","rating":6.64,"region":"Interandina","rmse":0.98},{"bias":0.11,"codigo":"84117","color":"#A6761D","confianza":"Baja","corr":0.05,"familia":"No convencionales","lat":-0.95,"lon":-80.68333,"mae":0.68,"modelo":"NEMSSA","n":7,"nombre":"Manta","rating":6.61,"region":"Litoral","rmse":0.83},{"bias":-0.67,"codigo":"84160","color":"#A6761D","confianza":"Baja","corr":0.86,"familia":"No convencionales","lat":-1.3671,"lon":-78.60554,"mae":0.73,"modelo":"NEMSSA","n":7,"nombre":"Querochaca","rating":6.54,"region":"Interandina","rmse":0.98},{"bias":-0.16,"codigo":"84252","color":"#D55E00","confianza":"Baja","corr":0.69,"familia":"No convencionales","lat":-3.43583,"lon":-79.98333,"mae":1.05,"modelo":"METEOBLUE","n":7,"nombre":"Sta. Rosa","rating":6.16,"region":"Litoral","rmse":1.4},{"bias":-0.42,"codigo":"84027","color":"#785EF0","confianza":"Baja","corr":0.35,"familia":"No convencionales","lat":0.81667,"lon":-77.7,"mae":0.85,"modelo":"MFGLOBAL","n":7,"nombre":"Tulc\u00e1n","rating":6.13,"region":"Interandina","rmse":0.97},{"bias":0.23,"codigo":"84179","color":"#CC79A7","confianza":"Baja","corr":0.82,"familia":"No convencionales","lat":-1.5057,"lon":-77.956,"mae":1.16,"modelo":"GEM15","n":7,"nombre":"Puyo","rating":6.06,"region":"Amazonia","rmse":1.39},{"bias":-0.49,"codigo":"84135","color":"#CC79A7","confianza":"Baja","corr":0.67,"familia":"No convencionales","lat":-1.17343,"lon":-80.38736,"mae":1.01,"modelo":"GEM15","n":7,"nombre":"Portoviejo","rating":6.01,"region":"Litoral","rmse":1.13},{"bias":0.86,"codigo":"M1240","color":"#648FFF","confianza":"Baja","corr":0.69,"familia":"No convencionales","lat":0.32978,"lon":-78.1322,"mae":0.86,"modelo":"UMGLOBAL10","n":7,"nombre":"Ibarra","rating":6.0,"region":"Interandina","rmse":1.05},{"bias":-0.32,"codigo":"84140","color":"#D55E00","confianza":"Baja","corr":0.47,"familia":"No convencionales","lat":-1.07434,"lon":-79.4929,"mae":0.99,"modelo":"METEOBLUE","n":7,"nombre":"Pichilingue","rating":5.94,"region":"Litoral","rmse":1.25},{"bias":-0.64,"codigo":"84265","color":"#D55E00","confianza":"Baja","corr":0.8,"familia":"No convencionales","lat":-3.99556,"lon":-79.37167,"mae":1.08,"modelo":"METEOBLUE","n":7,"nombre":"La Toma","rating":5.92,"region":"Interandina","rmse":1.13},{"bias":-0.43,"codigo":"84143","color":"#A6761D","confianza":"Baja","corr":0.46,"familia":"No convencionales","lat":-1.01998,"lon":-78.59456,"mae":0.9,"modelo":"NEMSSA","n":7,"nombre":"Rumipamba","rating":5.87,"region":"Interandina","rmse":1.33},{"bias":0.67,"codigo":"M0037","color":"#FF7F00","confianza":"Baja","corr":0.82,"familia":"No convencionales","lat":-2.11805,"lon":-79.60038,"mae":1.03,"modelo":"NEMSGLOBAL_E","n":7,"nombre":"Milagro","rating":5.72,"region":"Litoral","rmse":1.52},{"bias":-0.87,"codigo":"84163","color":"#D55E00","confianza":"Baja","corr":0.86,"familia":"No convencionales","lat":-1.5,"lon":-78.06667,"mae":1.11,"modelo":"METEOBLUE","n":7,"nombre":"Pastaza","rating":5.64,"region":"Amazonia","rmse":1.35},{"bias":0.37,"codigo":"84217","color":"#CC79A7","confianza":"Baja","corr":0.74,"familia":"No convencionales","lat":-2.29861,"lon":-78.12056,"mae":1.23,"modelo":"GEM15","n":7,"nombre":"Macas","rating":5.64,"region":"Amazonia","rmse":1.6},{"bias":-0.36,"codigo":"84076","color":"#D55E00","confianza":"Baja","corr":0.14,"familia":"No convencionales","lat":-0.23179,"lon":-78.37043,"mae":1.02,"modelo":"METEOBLUE","n":7,"nombre":"La Tola","rating":5.61,"region":"Interandina","rmse":1.17},{"bias":-1.15,"codigo":"84226","color":"#00A9A5","confianza":"Baja","corr":0.94,"familia":"No convencionales","lat":-2.55221,"lon":-78.94519,"mae":1.15,"modelo":"NEMSGLOBAL","n":7,"nombre":"Ca\u00f1ar","rating":5.55,"region":"Interandina","rmse":1.3},{"bias":0.57,"codigo":"84270","color":"#648FFF","confianza":"Baja","corr":0.56,"familia":"No convencionales","lat":-4.0375,"lon":-79.2034,"mae":1.25,"modelo":"UMGLOBAL10","n":7,"nombre":"Loja Argelia","rating":5.31,"region":"Interandina","rmse":1.52},{"bias":-1.05,"codigo":"84123","color":"#D55E00","confianza":"Baja","corr":0.34,"familia":"No convencionales","lat":-0.91333,"lon":-78.61556,"mae":1.05,"modelo":"METEOBLUE","n":7,"nombre":"Latacunga","rating":5.19,"region":"Interandina","rmse":1.27},{"bias":-0.88,"codigo":"84151","color":"#D55E00","confianza":"Baja","corr":0.39,"familia":"No convencionales","lat":-1.057,"lon":-77.584,"mae":1.31,"modelo":"METEOBLUE","n":7,"nombre":"Jumandy","rating":4.97,"region":"Amazonia","rmse":1.41},{"bias":-0.77,"codigo":"M0024","color":"#CC79A7","confianza":"Baja","corr":0.15,"familia":"No convencionales","lat":-0.1783,"lon":-78.48773,"mae":1.17,"modelo":"GEM15","n":7,"nombre":"I\u00f1aquito","rating":4.84,"region":"Interandina","rmse":1.6},{"bias":-1.33,"codigo":"84018","color":"#D55E00","confianza":"Baja","corr":0.46,"familia":"No convencionales","lat":0.97917,"lon":-79.62444,"mae":1.33,"modelo":"METEOBLUE","n":7,"nombre":"Esmeraldas","rating":4.67,"region":"Litoral","rmse":1.65},{"bias":-1.22,"codigo":"84010","color":"#D55E00","confianza":"Baja","corr":0.13,"familia":"No convencionales","lat":-0.909,"lon":-89.617,"mae":1.22,"modelo":"METEOBLUE","n":7,"nombre":"S. Cristobal A","rating":4.55,"region":"Insular","rmse":1.59},{"bias":-1.51,"codigo":"84239","color":"#D55E00","confianza":"Baja","corr":0.71,"familia":"No convencionales","lat":-2.88917,"lon":-78.98417,"mae":1.51,"modelo":"METEOBLUE","n":7,"nombre":"Cuenca","rating":4.53,"region":"Interandina","rmse":1.94},{"bias":-1.69,"codigo":"84075","color":"#D55E00","confianza":"Baja","corr":0.84,"familia":"No convencionales","lat":-0.14083,"lon":-78.353,"mae":1.69,"modelo":"METEOBLUE","n":7,"nombre":"Tababela","rating":4.51,"region":"Interandina","rmse":1.86},{"bias":-0.64,"codigo":"84105","color":"#D55E00","confianza":"Baja","corr":-0.24,"familia":"No convencionales","lat":-0.493,"lon":-79.34892,"mae":1.35,"modelo":"METEOBLUE","n":7,"nombre":"Puerto Ila","rating":4.36,"region":"Litoral","rmse":1.66},{"bias":-1.87,"codigo":"84001","color":"#D55E00","confianza":"Baja","corr":0.99,"familia":"No convencionales","lat":-0.445,"lon":-90.269,"mae":1.87,"modelo":"METEOBLUE","n":7,"nombre":"Baltra","rating":4.31,"region":"Insular","rmse":2.31},{"bias":-1.82,"codigo":"84036","color":"#CC79A7","confianza":"Baja","corr":0.77,"familia":"No convencionales","lat":0.60417,"lon":-77.81944,"mae":1.82,"modelo":"GEM15","n":7,"nombre":"S. Gabriel","rating":4.3,"region":"Interandina","rmse":1.98},{"bias":-1.16,"codigo":"84132","color":"#CC79A7","confianza":"Baja","corr":0.34,"familia":"No convencionales","lat":-0.92003,"lon":-75.40303,"mae":1.62,"modelo":"GEM15","n":7,"nombre":"N. Rocafu","rating":4.22,"region":"Amazonia","rmse":1.99},{"bias":-1.46,"codigo":"84050","color":"#785EF0","confianza":"Baja","corr":0.12,"familia":"No convencionales","lat":-0.02478,"lon":-79.38028,"mae":1.55,"modelo":"MFGLOBAL","n":7,"nombre":"La Concordia","rating":3.99,"region":"Litoral","rmse":1.93},{"bias":-1.65,"codigo":"84063","color":"#D55E00","confianza":"Baja","corr":0.26,"familia":"No convencionales","lat":0.0925,"lon":-76.86944,"mae":1.68,"modelo":"METEOBLUE","n":7,"nombre":"Lago Agrio","rating":3.87,"region":"Amazonia","rmse":2.2},{"bias":-2.39,"codigo":"84253","color":"#CC79A7","confianza":"Baja","corr":0.85,"familia":"No convencionales","lat":-3.42333,"lon":-78.56694,"mae":2.39,"modelo":"GEM15","n":7,"nombre":"Gualaquiza","rating":3.71,"region":"Amazonia","rmse":2.8},{"bias":-2.04,"codigo":"84008","color":"#D55E00","confianza":"Baja","corr":0.44,"familia":"No convencionales","lat":-0.90406,"lon":-89.61431,"mae":2.04,"modelo":"METEOBLUE","n":7,"nombre":"S. Cristobal","rating":3.7,"region":"Insular","rmse":2.32},{"bias":-2.53,"codigo":"84056","color":"#A6761D","confianza":"Baja","corr":0.63,"familia":"No convencionales","lat":0.01116,"lon":-78.25505,"mae":2.53,"modelo":"NEMSSA","n":7,"nombre":"Tomal\u00f3n","rating":3.41,"region":"Interandina","rmse":2.93},{"bias":-3.34,"codigo":"84176","color":"#FF7F00","confianza":"Baja","corr":0.64,"familia":"No convencionales","lat":-1.65333,"lon":-78.54889,"mae":3.34,"modelo":"NEMSGLOBAL_E","n":7,"nombre":"Riobamba","rating":3.08,"region":"Interandina","rmse":3.37},{"bias":-3.84,"codigo":"84173","color":"#785EF0","confianza":"Baja","corr":0.54,"familia":"No convencionales","lat":-1.65083,"lon":-78.68521,"mae":3.84,"modelo":"MFGLOBAL","n":7,"nombre":"ESPOCH","rating":2.81,"region":"Interandina","rmse":3.93}],"metricas":{"calif_media":5.3,"estaciones":40,"mas_ganador":"METEOBLUE"},"modo":"continuous","ranking":[{"bias":-1.63,"color":"#D55E00","confianza":"Baja","corr":0.5,"estaciones":40,"familia":"No convencionales","mae":1.91,"modelo":"METEOBLUE","n":7,"rating":4.41,"rmse":2.18},{"bias":-2.42,"color":"#A6761D","confianza":"Baja","corr":0.41,"estaciones":37,"familia":"No convencionales","mae":2.79,"modelo":"NEMSSA","n":7,"rating":3.7,"rmse":3.1},{"bias":-2.06,"color":"#CC79A7","confianza":"Baja","corr":0.43,"estaciones":40,"familia":"No convencionales","mae":2.72,"modelo":"GEM15","n":7,"rating":3.69,"rmse":2.93},{"bias":-2.6,"color":"#785EF0","confianza":"Baja","corr":0.32,"estaciones":40,"familia":"No convencionales","mae":3.02,"modelo":"MFGLOBAL","n":7,"rating":3.42,"rmse":3.24},{"bias":-2.32,"color":"#00A9A5","confianza":"Baja","corr":0.36,"estaciones":40,"familia":"No convencionales","mae":2.93,"modelo":"NEMSGLOBAL","n":7,"rating":3.4,"rmse":3.2},{"bias":-2.45,"color":"#FF7F00","confianza":"Baja","corr":0.34,"estaciones":40,"familia":"No convencionales","mae":3.01,"modelo":"NEMSGLOBAL_E","n":7,"rating":3.39,"rmse":3.27},{"bias":-3.27,"color":"#648FFF","confianza":"Baja","corr":0.27,"estaciones":40,"familia":"No convencionales","mae":3.54,"modelo":"UMGLOBAL10","n":7,"rating":3.29,"rmse":3.77},{"bias":-3.96,"color":"#B33DC6","confianza":"Baja","corr":0.27,"estaciones":36,"familia":"No convencionales","mae":4.36,"modelo":"SA01","n":7,"rating":3.1,"rmse":4.67}],"sintesis_region":[{"modelo":"METEOBLUE","region":"Amazonia"},{"modelo":"METEOBLUE","region":"Insular"},{"modelo":"NEMSSA","region":"Interandina"},{"modelo":"METEOBLUE","region":"Litoral"}],"ventana":"7"}
