{"bloque":"precip_cua","bloques":[{"clave":"precip_det","etiqueta":"Precipitaci\u00f3n: detecci\u00f3n"},{"clave":"precip_cua","etiqueta":"Precipitaci\u00f3n: cuantificaci\u00f3n"},{"clave":"tmax","etiqueta":"Temperatura m\u00e1xima"},{"clave":"tmin","etiqueta":"Temperatura m\u00ednima"}],"estaciones":[{"codigo":"M5190","nombre":"Captaci\u00f3n Central","region":"Amazonia"},{"codigo":"M5187","nombre":"El Chaco 1","region":"Amazonia"},{"codigo":"M5189","nombre":"El Chaco 2","region":"Amazonia"},{"codigo":"84099","nombre":"El Coca","region":"Amazonia"},{"codigo":"84253","nombre":"Gualaquiza","region":"Amazonia"},{"codigo":"CP03","nombre":"Guarumales","region":"Amazonia"},{"codigo":"84151","nombre":"Jumandy","region":"Amazonia"},{"codigo":"84063","nombre":"Lago Agrio","region":"Amazonia"},{"codigo":"84217","nombre":"Macas","region":"Amazonia"},{"codigo":"M1040","nombre":"Macas INA","region":"Amazonia"},{"codigo":"84132","nombre":"N. Rocafu","region":"Amazonia"},{"codigo":"M0188","nombre":"Papallacta","region":"Amazonia"},{"codigo":"84163","nombre":"Pastaza","region":"Amazonia"},{"codigo":"84179","nombre":"Puyo","region":"Amazonia"},{"codigo":"M5008","nombre":"Quijos-Cosan","region":"Amazonia"},{"codigo":"M5254","nombre":"Salve Faccha","region":"Amazonia"},{"codigo":"M1124","nombre":"Sierra Azul","region":"Amazonia"},{"codigo":"M1219","nombre":"Tena Hda","region":"Amazonia"},{"codigo":"M5021","nombre":"Yura Faccha Oyacachi","region":"Amazonia"},{"codigo":"84001","nombre":"Baltra","region":"Insular"},{"codigo":"84008","nombre":"S. Cristobal","region":"Insular"},{"codigo":"84010","nombre":"S. Cristobal A","region":"Insular"},{"codigo":"84147","nombre":"Ambato","region":"Interandina"},{"codigo":"CP01","nombre":"Arenales","region":"Interandina"},{"codigo":"M0055","nombre":"Bicenten","region":"Interandina"},{"codigo":"M5101","nombre":"Calder\u00f3n","region":"Interandina"},{"codigo":"84226","nombre":"Ca\u00f1ar","region":"Interandina"},{"codigo":"CP02","nombre":"Celec Cuenca","region":"Interandina"},{"codigo":"84239","nombre":"Cuenca","region":"Interandina"},{"codigo":"84173","nombre":"ESPOCH","region":"Interandina"},{"codigo":"M0102","nombre":"El \u00c1ngel","region":"Interandina"},{"codigo":"HN03","nombre":"Guayacan","region":"Interandina"},{"codigo":"M1240","nombre":"Ibarra","region":"Interandina"},{"codigo":"84045","nombre":"Inguincho","region":"Interandina"},{"codigo":"84088","nombre":"Izobamba","region":"Interandina"},{"codigo":"M0024","nombre":"I\u00f1aquito","region":"Interandina"},{"codigo":"HN04","nombre":"La Cocha","region":"Interandina"},{"codigo":"M0124","nombre":"La Man\u00e1","region":"Interandina"},{"codigo":"84076","nombre":"La Tola","region":"Interandina"},{"codigo":"84265","nombre":"La Toma","region":"Interandina"},{"codigo":"84123","nombre":"Latacunga","region":"Interandina"},{"codigo":"84270","nombre":"Loja Argelia","region":"Interandina"},{"codigo":"M0105","nombre":"Otavalo","region":"Interandina"},{"codigo":"M0391","nombre":"Pallatanga","region":"Interandina"},{"codigo":"84160","nombre":"Querochaca","region":"Interandina"},{"codigo":"84176","nombre":"Riobamba","region":"Interandina"},{"codigo":"84143","nombre":"Rumipamba","region":"Interandina"},{"codigo":"84036","nombre":"S. Gabriel","region":"Interandina"},{"codigo":"M1274","nombre":"Salesiana","region":"Interandina"},{"codigo":"CP04","nombre":"Sevilla","region":"Interandina"},{"codigo":"CP05","nombre":"Sta.B\u00e1rbara","region":"Interandina"},{"codigo":"84075","nombre":"Tababela","region":"Interandina"},{"codigo":"84056","nombre":"Tomal\u00f3n","region":"Interandina"},{"codigo":"84027","nombre":"Tulc\u00e1n","region":"Interandina"},{"codigo":"HN11","nombre":"Cerradora","region":"Litoral"},{"codigo":"M0162","nombre":"Chone","region":"Litoral"},{"codigo":"HN12","nombre":"DJ Colimes","region":"Litoral"},{"codigo":"HM002","nombre":"Daule","region":"Litoral"},{"codigo":"HN01","nombre":"Dique 1","region":"Litoral"},{"codigo":"84018","nombre":"Esmeraldas","region":"Litoral"},{"codigo":"HN13","nombre":"Flavio Alfaro","region":"Litoral"},{"codigo":"HN02","nombre":"Gualipe","region":"Litoral"},{"codigo":"84203","nombre":"Guayaquil","region":"Litoral"},{"codigo":"M1271","nombre":"Gye(Facult)","region":"Litoral"},{"codigo":"M5135","nombre":"Huaquillas","region":"Litoral"},{"codigo":"HN14","nombre":"La Cancha","region":"Litoral"},{"codigo":"HN15","nombre":"La Capilla","region":"Litoral"},{"codigo":"84050","nombre":"La Concordia","region":"Litoral"},{"codigo":"M1170","nombre":"La Libertad","region":"Litoral"},{"codigo":"HN16","nombre":"La Palizada","region":"Litoral"},{"codigo":"HN22","nombre":"La Presa","region":"Litoral"},{"codigo":"M5090","nombre":"La Troncal","region":"Litoral"},{"codigo":"84117","nombre":"Manta","region":"Litoral"},{"codigo":"HN05","nombre":"Met. Baba","region":"Litoral"},{"codigo":"HN06","nombre":"Met. Chaune","region":"Litoral"},{"codigo":"HN07","nombre":"Met. Toachi","region":"Litoral"},{"codigo":"M0037","nombre":"Milagro","region":"Litoral"},{"codigo":"HN17","nombre":"Murucumba","region":"Litoral"},{"codigo":"M1207","nombre":"Nobol","region":"Litoral"},{"codigo":"HN18","nombre":"Olmedo","region":"Litoral"},{"codigo":"M1253","nombre":"P. Hondo","region":"Litoral"},{"codigo":"HN19","nombre":"Pajan","region":"Litoral"},{"codigo":"HN20","nombre":"Palestina","region":"Litoral"},{"codigo":"84140","nombre":"Pichilingue","region":"Litoral"},{"codigo":"HN21","nombre":"Pichincha","region":"Litoral"},{"codigo":"84135","nombre":"Portoviejo","region":"Litoral"},{"codigo":"HN23","nombre":"Pto. Lim\u00f3n","region":"Litoral"},{"codigo":"HN24","nombre":"Puca","region":"Litoral"},{"codigo":"84105","nombre":"Puerto Ila","region":"Litoral"},{"codigo":"HN08","nombre":"Q. AJ Lulu","region":"Litoral"},{"codigo":"M0156","nombre":"Quinind\u00e9","region":"Litoral"},{"codigo":"HN25","nombre":"Rio Colimes","region":"Litoral"},{"codigo":"HN26","nombre":"Rio Congo","region":"Litoral"},{"codigo":"84200","nombre":"Salinas","region":"Litoral"},{"codigo":"HN09","nombre":"San Miguel","region":"Litoral"},{"codigo":"HN10","nombre":"San Pablo","region":"Litoral"},{"codigo":"HN27","nombre":"San Pedro De Oro","region":"Litoral"},{"codigo":"HN28","nombre":"Santa Lucia","region":"Litoral"},{"codigo":"84252","nombre":"Sta. Rosa","region":"Litoral"},{"codigo":"HN29","nombre":"Union 71","region":"Litoral"}],"familia":"Todos","ganadores":[{"bias":-0.01,"codigo":"M1271","color":"#377EB8","confianza":"Media","corr":1.0,"familia":"Postprocesamiento","lat":-2.14646,"lon":-79.91734,"mae":0.01,"modelo":"QM_AIFS025","n":15,"nombre":"Gye(Facult)","rating":9.94,"region":"Litoral","rmse":0.03},{"bias":0.01,"codigo":"84076","color":"#00A9A5","confianza":"Media","corr":1.0,"familia":"No convencionales","lat":-0.23179,"lon":-78.37043,"mae":0.01,"modelo":"NEMSGLOBAL","n":15,"nombre":"La Tola","rating":9.94,"region":"Interandina","rmse":0.03},{"bias":0.01,"codigo":"M0055","color":"#1B9E77","confianza":"Media","corr":0.89,"familia":"Postprocesamiento","lat":-0.14111,"lon":-78.48714,"mae":0.01,"modelo":"BC_CLASSIC_IFS025","n":15,"nombre":"Bicenten","rating":9.89,"region":"Interandina","rmse":0.03},{"bias":0.05,"codigo":"84088","color":"#377EB8","confianza":"Media","corr":0.97,"familia":"Postprocesamiento","lat":-0.36593,"lon":-78.55513,"mae":0.05,"modelo":"QM_AIFS025","n":15,"nombre":"Izobamba","rating":9.88,"region":"Interandina","rmse":0.17},{"bias":-0.07,"codigo":"84173","color":"#4DAF4A","confianza":"Media","corr":0.99,"familia":"Postprocesamiento","lat":-1.65083,"lon":-78.68521,"mae":0.07,"modelo":"BC_CLASSIC_AIFS025","n":15,"nombre":"ESPOCH","rating":9.88,"region":"Interandina","rmse":0.22},{"bias":-0.03,"codigo":"HM002","color":"#6A1B9A","confianza":"Media","corr":0.94,"familia":"Postprocesamiento","lat":-1.85449,"lon":-79.98518,"mae":0.05,"modelo":"CONSENSO_OP_CAL","n":15,"nombre":"Daule","rating":9.88,"region":"Litoral","rmse":0.13},{"bias":-0.09,"codigo":"84203","color":"#D55E00","confianza":"Media","corr":0.98,"familia":"No convencionales","lat":-2.15333,"lon":-79.88333,"mae":0.1,"modelo":"METEOBLUE","n":15,"nombre":"Guayaquil","rating":9.8,"region":"Litoral","rmse":0.38},{"bias":-0.08,"codigo":"84143","color":"#00A9A5","confianza":"Media","corr":0.99,"familia":"No convencionales","lat":-1.01998,"lon":-78.59456,"mae":0.15,"modelo":"NEMSGLOBAL","n":15,"nombre":"Rumipamba","rating":9.8,"region":"Interandina","rmse":0.29},{"bias":0.18,"codigo":"84045","color":"#6A1B9A","confianza":"Media","corr":1.0,"familia":"Postprocesamiento","lat":0.25694,"lon":-78.40524,"mae":0.18,"modelo":"CONSENSO_OP_CAL","n":15,"nombre":"Inguincho","rating":9.69,"region":"Interandina","rmse":0.57},{"bias":0.23,"codigo":"84123","color":"#CC79A7","confianza":"Media","corr":0.96,"familia":"No convencionales","lat":-0.91333,"lon":-78.61556,"mae":0.23,"modelo":"GEM15","n":15,"nombre":"Latacunga","rating":9.63,"region":"Interandina","rmse":0.51},{"bias":0.23,"codigo":"84075","color":"#6A1B9A","confianza":"Media","corr":0.99,"familia":"Postprocesamiento","lat":-0.14083,"lon":-78.353,"mae":0.23,"modelo":"CONSENSO_OP_CAL","n":15,"nombre":"Tababela","rating":9.62,"region":"Interandina","rmse":0.65},{"bias":0.02,"codigo":"84239","color":"#785EF0","confianza":"Media","corr":0.82,"familia":"No convencionales","lat":-2.88917,"lon":-78.98417,"mae":0.2,"modelo":"MFGLOBAL","n":15,"nombre":"Cuenca","rating":9.62,"region":"Interandina","rmse":0.33},{"bias":0.03,"codigo":"M0105","color":"#6A1B9A","confianza":"Media","corr":0.64,"familia":"Postprocesamiento","lat":0.24342,"lon":-78.25006,"mae":0.09,"modelo":"CONSENSO_OP_CAL","n":15,"nombre":"Otavalo","rating":9.57,"region":"Interandina","rmse":0.17},{"bias":0.02,"codigo":"84265","color":"#E7298A","confianza":"Media","corr":0.56,"familia":"Postprocesamiento","lat":-3.99556,"lon":-79.37167,"mae":0.03,"modelo":"BC_CLASSIC_GFS05","n":15,"nombre":"La Toma","rating":9.56,"region":"Interandina","rmse":0.07},{"bias":-0.0,"codigo":"84147","color":"#785EF0","confianza":"Media","corr":0.94,"familia":"No convencionales","lat":-1.21413,"lon":-78.57455,"mae":0.33,"modelo":"MFGLOBAL","n":15,"nombre":"Ambato","rating":9.55,"region":"Interandina","rmse":0.74},{"bias":0.21,"codigo":"84176","color":"#A6761D","confianza":"Media","corr":0.99,"familia":"No convencionales","lat":-1.65333,"lon":-78.54889,"mae":0.29,"modelo":"NEMSSA","n":15,"nombre":"Riobamba","rating":9.55,"region":"Interandina","rmse":0.82},{"bias":-0.25,"codigo":"M1207","color":"#4DAF4A","confianza":"Media","corr":0.81,"familia":"Postprocesamiento","lat":-1.92154,"lon":-80.06279,"mae":0.35,"modelo":"BC_CLASSIC_AIFS025","n":15,"nombre":"Nobol","rating":9.42,"region":"Litoral","rmse":0.49},{"bias":0.15,"codigo":"M1240","color":"#FE6100","confianza":"Media","corr":0.55,"familia":"ML","lat":0.32978,"lon":-78.1322,"mae":0.18,"modelo":"HURDLE_LGBM","n":15,"nombre":"Ibarra","rating":9.38,"region":"Interandina","rmse":0.21},{"bias":0.03,"codigo":"HN18","color":"#6A1B9A","confianza":"Media","corr":0.79,"familia":"Postprocesamiento","lat":-1.3932,"lon":-80.21461,"mae":0.46,"modelo":"CONSENSO_OP_CAL","n":15,"nombre":"Olmedo","rating":9.32,"region":"Litoral","rmse":0.79},{"bias":-0.14,"codigo":"84140","color":"#1B9E77","confianza":"Media","corr":0.95,"familia":"Postprocesamiento","lat":-1.07434,"lon":-79.4929,"mae":0.58,"modelo":"BC_CLASSIC_IFS025","n":15,"nombre":"Pichilingue","rating":9.29,"region":"Litoral","rmse":1.08},{"bias":0.13,"codigo":"M0102","color":"#648FFF","confianza":"Media","corr":0.56,"familia":"ML","lat":0.619,"lon":-77.94496,"mae":0.4,"modelo":"ML_ET","n":15,"nombre":"El \u00c1ngel","rating":9.16,"region":"Interandina","rmse":0.61},{"bias":0.1,"codigo":"84036","color":"#4DAF4A","confianza":"Media","corr":0.78,"familia":"ML","lat":0.60417,"lon":-77.81944,"mae":0.81,"modelo":"ML_LGBM","n":15,"nombre":"S. Gabriel","rating":9.02,"region":"Interandina","rmse":1.08},{"bias":0.01,"codigo":"M1253","color":"#377EB8","confianza":"Media","corr":-0.07,"familia":"Postprocesamiento","lat":-2.1925,"lon":-80.02417,"mae":0.02,"modelo":"QM_AIFS025","n":15,"nombre":"P. Hondo","rating":9.01,"region":"Litoral","rmse":0.06},{"bias":0.52,"codigo":"84226","color":"#6A1B9A","confianza":"Media","corr":0.94,"familia":"Postprocesamiento","lat":-2.55221,"lon":-78.94519,"mae":0.65,"modelo":"CONSENSO_OP_CAL","n":15,"nombre":"Ca\u00f1ar","rating":9.0,"region":"Interandina","rmse":1.81},{"bias":-0.11,"codigo":"84252","color":"#009E73","confianza":"Media","corr":0.39,"familia":"ML","lat":-3.43583,"lon":-79.98333,"mae":0.35,"modelo":"ML_HGB","n":15,"nombre":"Sta. Rosa","rating":8.99,"region":"Litoral","rmse":0.84},{"bias":0.35,"codigo":"HN24","color":"#A65628","confianza":"Media","corr":0.65,"familia":"Postprocesamiento","lat":-1.37354,"lon":-79.97472,"mae":0.7,"modelo":"BC_CLASSIC_METEOBLUE","n":15,"nombre":"Puca","rating":8.88,"region":"Litoral","rmse":1.2},{"bias":0.19,"codigo":"84027","color":"#648FFF","confianza":"Media","corr":0.72,"familia":"ML","lat":0.81667,"lon":-77.7,"mae":0.87,"modelo":"ML_ET","n":15,"nombre":"Tulc\u00e1n","rating":8.86,"region":"Interandina","rmse":1.29},{"bias":-0.0,"codigo":"M0162","color":"#785EF0","confianza":"Media","corr":0.8,"familia":"No convencionales","lat":-0.6308,"lon":-80.03651,"mae":1.08,"modelo":"MFGLOBAL","n":15,"nombre":"Chone","rating":8.8,"region":"Litoral","rmse":1.56},{"bias":0.1,"codigo":"CP05","color":"#E7298A","confianza":"Media","corr":0.79,"familia":"Postprocesamiento","lat":-2.86493,"lon":-78.77274,"mae":1.0,"modelo":"BC_CLASSIC_GFS05","n":15,"nombre":"Sta.B\u00e1rbara","rating":8.78,"region":"Interandina","rmse":1.71},{"bias":0.09,"codigo":"CP02","color":"#CC79A7","confianza":"Media","corr":0.29,"familia":"ML","lat":-2.85926,"lon":-78.93337,"mae":0.6,"modelo":"ML_GBR","n":15,"nombre":"Celec Cuenca","rating":8.71,"region":"Interandina","rmse":1.01},{"bias":0.64,"codigo":"HN25","color":"#1F78B4","confianza":"Media","corr":0.81,"familia":"Postprocesamiento","lat":-1.53925,"lon":-80.02371,"mae":1.04,"modelo":"QM_METEOBLUE","n":15,"nombre":"Rio Colimes","rating":8.65,"region":"Litoral","rmse":1.63},{"bias":0.49,"codigo":"HN20","color":"#1F78B4","confianza":"Media","corr":0.75,"familia":"Postprocesamiento","lat":-1.62349,"lon":-79.98158,"mae":1.06,"modelo":"QM_METEOBLUE","n":15,"nombre":"Palestina","rating":8.6,"region":"Litoral","rmse":1.78},{"bias":0.82,"codigo":"HN15","color":"#FF7F00","confianza":"Media","corr":0.63,"familia":"ML","lat":-1.69924,"lon":-79.99773,"mae":0.83,"modelo":"HURDLE_LOGIT_RIDGE","n":15,"nombre":"La Capilla","rating":8.59,"region":"Litoral","rmse":1.55},{"bias":0.83,"codigo":"HN28","color":"#FF7F00","confianza":"Media","corr":0.63,"familia":"ML","lat":-1.71536,"lon":-79.99002,"mae":0.83,"modelo":"HURDLE_LOGIT_RIDGE","n":15,"nombre":"Santa Lucia","rating":8.59,"region":"Litoral","rmse":1.56},{"bias":0.5,"codigo":"HN12","color":"#1F78B4","confianza":"Media","corr":0.73,"familia":"Postprocesamiento","lat":-1.55262,"lon":-79.99809,"mae":1.07,"modelo":"QM_METEOBLUE","n":15,"nombre":"DJ Colimes","rating":8.57,"region":"Litoral","rmse":1.81},{"bias":-0.18,"codigo":"84001","color":"#785EF0","confianza":"Media","corr":-0.09,"familia":"No convencionales","lat":-0.445,"lon":-90.269,"mae":0.31,"modelo":"MFGLOBAL","n":15,"nombre":"Baltra","rating":8.54,"region":"Insular","rmse":0.98},{"bias":0.83,"codigo":"CP04","color":"#A65628","confianza":"Media","corr":0.88,"familia":"Postprocesamiento","lat":-2.79976,"lon":-78.65003,"mae":1.25,"modelo":"BC_CLASSIC_METEOBLUE","n":15,"nombre":"Sevilla","rating":8.53,"region":"Interandina","rmse":1.77},{"bias":1.19,"codigo":"84135","color":"#785EF0","confianza":"Media","corr":0.97,"familia":"No convencionales","lat":-1.17343,"lon":-80.38736,"mae":1.19,"modelo":"MFGLOBAL","n":15,"nombre":"Portoviejo","rating":8.53,"region":"Litoral","rmse":1.96},{"bias":0.26,"codigo":"M0024","color":"#785EF0","confianza":"Media","corr":0.08,"familia":"No convencionales","lat":-0.1783,"lon":-78.48773,"mae":0.49,"modelo":"MFGLOBAL","n":15,"nombre":"I\u00f1aquito","rating":8.5,"region":"Interandina","rmse":1.24},{"bias":-0.21,"codigo":"HN19","color":"#E7298A","confianza":"Media","corr":0.7,"familia":"Postprocesamiento","lat":-1.55707,"lon":-80.43704,"mae":1.16,"modelo":"BC_CLASSIC_GFS05","n":15,"nombre":"Pajan","rating":8.48,"region":"Litoral","rmse":2.22},{"bias":-0.87,"codigo":"84018","color":"#7570B3","confianza":"Media","corr":0.79,"familia":"Postprocesamiento","lat":0.97917,"lon":-79.62444,"mae":0.96,"modelo":"BC_CLASSIC_ICON","n":15,"nombre":"Esmeraldas","rating":8.47,"region":"Litoral","rmse":2.44},{"bias":0.13,"codigo":"84008","color":"#A65628","confianza":"Media","corr":0.79,"familia":"Postprocesamiento","lat":-0.90406,"lon":-89.61431,"mae":1.57,"modelo":"BC_CLASSIC_METEOBLUE","n":15,"nombre":"S. Cristobal","rating":8.44,"region":"Insular","rmse":1.86},{"bias":-0.01,"codigo":"84270","color":"#56B4E9","confianza":"Media","corr":0.67,"familia":"Convencionales","lat":-4.0375,"lon":-79.2034,"mae":1.35,"modelo":"AIFS025","n":15,"nombre":"Loja Argelia","rating":8.43,"region":"Interandina","rmse":2.11},{"bias":-0.64,"codigo":"84160","color":"#111111","confianza":"Media","corr":0.41,"familia":"Postprocesamiento","lat":-1.3671,"lon":-78.60554,"mae":1.05,"modelo":"BEST_OP_CV","n":15,"nombre":"Querochaca","rating":8.26,"region":"Interandina","rmse":1.77},{"bias":0.0,"codigo":"84200","color":"#4DAF4A","confianza":"Media","corr":null,"familia":"Postprocesamiento","lat":-2.2,"lon":-80.98972,"mae":0.0,"modelo":"BC_CLASSIC_AIFS025","n":15,"nombre":"Salinas","rating":8.2,"region":"Litoral","rmse":0.0},{"bias":0.0,"codigo":"M1170","color":"#6A1B9A","confianza":"Media","corr":null,"familia":"Postprocesamiento","lat":-2.23358,"lon":-80.87507,"mae":0.0,"modelo":"CONSENSO_OP_CAL","n":15,"nombre":"La Libertad","rating":8.2,"region":"Litoral","rmse":0.0},{"bias":0.01,"codigo":"84117","color":"#785EF0","confianza":"Media","corr":null,"familia":"No convencionales","lat":-0.95,"lon":-80.68333,"mae":0.01,"modelo":"MFGLOBAL","n":15,"nombre":"Manta","rating":8.17,"region":"Litoral","rmse":0.05},{"bias":-0.72,"codigo":"M0188","color":"#FDBF6F","confianza":"Media","corr":0.91,"familia":"Postprocesamiento","lat":-0.38062,"lon":-78.1414,"mae":1.9,"modelo":"QM_GFS05","n":15,"nombre":"Papallacta","rating":8.15,"region":"Amazonia","rmse":2.37},{"bias":-0.04,"codigo":"M5135","color":"#00A9A5","confianza":"Media","corr":null,"familia":"No convencionales","lat":-3.48205,"lon":-80.2275,"mae":0.04,"modelo":"NEMSGLOBAL","n":15,"nombre":"Huaquillas","rating":8.12,"region":"Litoral","rmse":0.15},{"bias":0.07,"codigo":"M1274","color":"#377EB8","confianza":"Media","corr":null,"familia":"Postprocesamiento","lat":-0.28192,"lon":-78.55024,"mae":0.07,"modelo":"QM_AIFS025","n":15,"nombre":"Salesiana","rating":8.08,"region":"Interandina","rmse":0.23},{"bias":0.15,"codigo":"84056","color":"#A6761D","confianza":"Media","corr":null,"familia":"No convencionales","lat":0.01116,"lon":-78.25505,"mae":0.15,"modelo":"NEMSSA","n":15,"nombre":"Tomal\u00f3n","rating":7.99,"region":"Interandina","rmse":0.3},{"bias":-0.35,"codigo":"84010","color":"#A65628","confianza":"Media","corr":0.73,"familia":"Postprocesamiento","lat":-0.909,"lon":-89.617,"mae":2.09,"modelo":"BC_CLASSIC_METEOBLUE","n":15,"nombre":"S. Cristobal A","rating":7.92,"region":"Insular","rmse":2.72},{"bias":-0.69,"codigo":"HN26","color":"#FDBF6F","confianza":"Media","corr":0.34,"familia":"Postprocesamiento","lat":-1.03848,"lon":-79.69452,"mae":1.5,"modelo":"QM_GFS05","n":15,"nombre":"Rio Congo","rating":7.88,"region":"Litoral","rmse":2.17},{"bias":0.23,"codigo":"M5090","color":"#984EA3","confianza":"Media","corr":null,"familia":"ML","lat":-2.52865,"lon":-79.50257,"mae":0.23,"modelo":"ML_HUBER","n":15,"nombre":"La Troncal","rating":7.87,"region":"Litoral","rmse":0.48},{"bias":0.11,"codigo":"84132","color":"#1B9E77","confianza":"Media","corr":0.79,"familia":"Postprocesamiento","lat":-0.92003,"lon":-75.40303,"mae":2.34,"modelo":"BC_CLASSIC_IFS025","n":15,"nombre":"N. Rocafu","rating":7.86,"region":"Amazonia","rmse":3.06},{"bias":0.17,"codigo":"84217","color":"#56B4E9","confianza":"Media","corr":0.87,"familia":"ML","lat":-2.29861,"lon":-78.12056,"mae":2.6,"modelo":"ML_RF","n":15,"nombre":"Macas","rating":7.65,"region":"Amazonia","rmse":3.98},{"bias":-0.48,"codigo":"HN13","color":"#4DAF4A","confianza":"Media","corr":0.48,"familia":"Postprocesamiento","lat":-0.45454,"lon":-79.90448,"mae":2.12,"modelo":"BC_CLASSIC_AIFS025","n":15,"nombre":"Flavio Alfaro","rating":7.5,"region":"Litoral","rmse":3.51},{"bias":-0.85,"codigo":"M5021","color":"#E7298A","confianza":"Media","corr":0.9,"familia":"Postprocesamiento","lat":-0.18836,"lon":-78.11066,"mae":3.01,"modelo":"BC_CLASSIC_GFS05","n":15,"nombre":"Yura Faccha Oyacachi","rating":7.41,"region":"Amazonia","rmse":3.6},{"bias":0.33,"codigo":"M5101","color":"#8A2BE2","confianza":"Media","corr":0.72,"familia":"Postprocesamiento","lat":-0.07737,"lon":-78.43295,"mae":2.8,"modelo":"ENS_MEAN","n":15,"nombre":"Calder\u00f3n","rating":7.41,"region":"Interandina","rmse":3.89},{"bias":-0.08,"codigo":"HN08","color":"#009E73","confianza":"Media","corr":0.15,"familia":"ML","lat":-0.89042,"lon":-79.46725,"mae":2.46,"modelo":"ML_HGB","n":15,"nombre":"Q. AJ Lulu","rating":7.06,"region":"Litoral","rmse":4.17},{"bias":-0.89,"codigo":"HN02","color":"#009E73","confianza":"Media","corr":0.45,"familia":"ML","lat":-0.76071,"lon":-79.27486,"mae":2.94,"modelo":"ML_HGB","n":15,"nombre":"Gualipe","rating":7.01,"region":"Litoral","rmse":3.69},{"bias":-0.76,"codigo":"HN01","color":"#A65628","confianza":"Media","corr":0.82,"familia":"Postprocesamiento","lat":-0.67092,"lon":-79.4155,"mae":3.35,"modelo":"BC_CLASSIC_METEOBLUE","n":15,"nombre":"Dique 1","rating":6.96,"region":"Litoral","rmse":5.42},{"bias":-0.48,"codigo":"M1040","color":"#B33DC6","confianza":"Media","corr":0.88,"familia":"Postprocesamiento","lat":-2.22982,"lon":-78.12501,"mae":3.81,"modelo":"QM_IFSHRES","n":15,"nombre":"Macas INA","rating":6.94,"region":"Amazonia","rmse":5.33},{"bias":0.8,"codigo":"HN14","color":"#6A1B9A","confianza":"Media","corr":0.77,"familia":"Postprocesamiento","lat":-0.42911,"lon":-79.55993,"mae":3.68,"modelo":"CONSENSO_OP_CAL","n":15,"nombre":"La Cancha","rating":6.9,"region":"Litoral","rmse":4.7},{"bias":0.15,"codigo":"CP03","color":"#A65628","confianza":"Media","corr":0.75,"familia":"Postprocesamiento","lat":-2.79945,"lon":-78.49954,"mae":4.04,"modelo":"BC_CLASSIC_METEOBLUE","n":15,"nombre":"Guarumales","rating":6.83,"region":"Amazonia","rmse":5.39},{"bias":-0.49,"codigo":"M5254","color":"#A6761D","confianza":"Media","corr":0.46,"familia":"No convencionales","lat":-0.23383,"lon":-78.16968,"mae":3.17,"modelo":"NEMSSA","n":15,"nombre":"Salve Faccha","rating":6.77,"region":"Amazonia","rmse":5.39},{"bias":1.78,"codigo":"HN23","color":"#FB9A99","confianza":"Media","corr":0.96,"familia":"Postprocesamiento","lat":-0.39067,"lon":-79.37231,"mae":3.78,"modelo":"QM_ICON","n":15,"nombre":"Pto. Lim\u00f3n","rating":6.76,"region":"Litoral","rmse":5.24},{"bias":-0.01,"codigo":"HN05","color":"#6A1B9A","confianza":"Media","corr":-0.07,"familia":"Postprocesamiento","lat":-0.44903,"lon":-79.18796,"mae":3.12,"modelo":"CONSENSO_OP_CAL","n":15,"nombre":"Met. Baba","rating":6.72,"region":"Litoral","rmse":3.57},{"bias":-1.69,"codigo":"HN06","color":"#A65628","confianza":"Media","corr":0.82,"familia":"Postprocesamiento","lat":-0.67212,"lon":-79.46899,"mae":3.58,"modelo":"BC_CLASSIC_METEOBLUE","n":15,"nombre":"Met. Chaune","rating":6.65,"region":"Litoral","rmse":5.65},{"bias":0.21,"codigo":"M0037","color":"#009E73","confianza":"Media","corr":0.78,"familia":"Convencionales","lat":-2.11805,"lon":-79.60038,"mae":3.61,"modelo":"ICON","n":15,"nombre":"Milagro","rating":6.58,"region":"Litoral","rmse":8.66},{"bias":-0.95,"codigo":"HN07","color":"#4DAF4A","confianza":"Media","corr":0.31,"familia":"ML","lat":-0.60921,"lon":-79.19896,"mae":3.36,"modelo":"ML_LGBM","n":15,"nombre":"Met. Toachi","rating":6.56,"region":"Litoral","rmse":4.68},{"bias":0.47,"codigo":"HN04","color":"#E7298A","confianza":"Media","corr":0.01,"familia":"Postprocesamiento","lat":-0.57889,"lon":-79.02222,"mae":3.1,"modelo":"BC_CLASSIC_GFS05","n":15,"nombre":"La Cocha","rating":6.4,"region":"Interandina","rmse":5.38},{"bias":-1.04,"codigo":"M5190","color":"#F781BF","confianza":"Media","corr":0.75,"familia":"Postprocesamiento","lat":-0.19886,"lon":-77.68304,"mae":4.7,"modelo":"BC_CLASSIC_IFSHRES","n":15,"nombre":"Captaci\u00f3n Central","rating":6.39,"region":"Amazonia","rmse":5.62},{"bias":-0.15,"codigo":"84151","color":"#0072B2","confianza":"Media","corr":0.57,"familia":"Convencionales","lat":-1.057,"lon":-77.584,"mae":4.87,"modelo":"IFS025","n":15,"nombre":"Jumandy","rating":6.21,"region":"Amazonia","rmse":7.08},{"bias":-0.77,"codigo":"HN27","color":"#A65628","confianza":"Media","corr":0.21,"familia":"Postprocesamiento","lat":-0.61648,"lon":-79.72021,"mae":3.78,"modelo":"BC_CLASSIC_METEOBLUE","n":15,"nombre":"San Pedro De Oro","rating":6.16,"region":"Litoral","rmse":6.21},{"bias":-0.97,"codigo":"HN10","color":"#FB9A99","confianza":"Media","corr":0.42,"familia":"Postprocesamiento","lat":-0.94816,"lon":-79.42562,"mae":3.91,"modelo":"QM_ICON","n":15,"nombre":"San Pablo","rating":6.1,"region":"Litoral","rmse":7.6},{"bias":-1.29,"codigo":"M0124","color":"#CC79A7","confianza":"Media","corr":0.4,"familia":"No convencionales","lat":-0.90903,"lon":-79.25367,"mae":4.47,"modelo":"GEM15","n":15,"nombre":"La Man\u00e1","rating":5.98,"region":"Interandina","rmse":6.4},{"bias":-0.46,"codigo":"HN21","color":"#1B3A6B","confianza":"Media","corr":0.43,"familia":"Postprocesamiento","lat":-1.0494,"lon":-79.81367,"mae":4.69,"modelo":"CONSENSO_OP_TOP10","n":15,"nombre":"Pichincha","rating":5.98,"region":"Litoral","rmse":7.71},{"bias":-1.12,"codigo":"84163","color":"#56B4E9","confianza":"Media","corr":0.78,"familia":"Convencionales","lat":-1.5,"lon":-78.06667,"mae":6.29,"modelo":"AIFS025","n":15,"nombre":"Pastaza","rating":5.73,"region":"Amazonia","rmse":8.19},{"bias":-0.45,"codigo":"M1219","color":"#1B9E77","confianza":"Media","corr":0.42,"familia":"Postprocesamiento","lat":-0.91685,"lon":-77.81907,"mae":5.45,"modelo":"BC_CLASSIC_IFS025","n":15,"nombre":"Tena Hda","rating":5.71,"region":"Amazonia","rmse":8.47},{"bias":-0.6,"codigo":"HN11","color":"#1B3A6B","confianza":"Media","corr":0.4,"familia":"Postprocesamiento","lat":-0.76374,"lon":-79.80413,"mae":5.67,"modelo":"CONSENSO_OP_TOP10","n":15,"nombre":"Cerradora","rating":5.65,"region":"Litoral","rmse":7.97},{"bias":0.1,"codigo":"M5008","color":"#6A1B9A","confianza":"Media","corr":0.52,"familia":"Postprocesamiento","lat":-0.57833,"lon":-77.86833,"mae":6.58,"modelo":"CONSENSO_OP_CAL","n":15,"nombre":"Quijos-Cosan","rating":5.57,"region":"Amazonia","rmse":9.25},{"bias":-0.84,"codigo":"84099","color":"#0072B2","confianza":"Media","corr":0.73,"familia":"Convencionales","lat":-0.46056,"lon":-76.98806,"mae":7.33,"modelo":"IFS025","n":15,"nombre":"El Coca","rating":5.48,"region":"Amazonia","rmse":8.99},{"bias":-0.16,"codigo":"HN29","color":"#7570B3","confianza":"Media","corr":0.34,"familia":"Postprocesamiento","lat":-0.55975,"lon":-79.48669,"mae":6.47,"modelo":"BC_CLASSIC_ICON","n":15,"nombre":"Union 71","rating":5.47,"region":"Litoral","rmse":8.72},{"bias":-4.71,"codigo":"84253","color":"#B33DC6","confianza":"Media","corr":0.88,"familia":"No convencionales","lat":-3.42333,"lon":-78.56694,"mae":4.81,"modelo":"SA01","n":15,"nombre":"Gualaquiza","rating":5.45,"region":"Amazonia","rmse":9.68},{"bias":0.46,"codigo":"CP01","color":"#6A1B9A","confianza":"Media","corr":0.8,"familia":"Postprocesamiento","lat":-2.56545,"lon":-78.56733,"mae":8.16,"modelo":"CONSENSO_OP_CAL","n":15,"nombre":"Arenales","rating":5.37,"region":"Interandina","rmse":10.5},{"bias":1.32,"codigo":"84179","color":"#111111","confianza":"Media","corr":0.8,"familia":"Postprocesamiento","lat":-1.5057,"lon":-77.956,"mae":7.9,"modelo":"BEST_OP_CV","n":15,"nombre":"Puyo","rating":5.35,"region":"Amazonia","rmse":8.92},{"bias":-0.64,"codigo":"M1124","color":"#F781BF","confianza":"Media","corr":0.76,"familia":"Postprocesamiento","lat":-0.67418,"lon":-77.91936,"mae":8.69,"modelo":"BC_CLASSIC_IFSHRES","n":15,"nombre":"Sierra Azul","rating":5.13,"region":"Amazonia","rmse":11.63},{"bias":-3.38,"codigo":"HN03","color":"#8A2BE2","confianza":"Media","corr":0.55,"familia":"Postprocesamiento","lat":-0.88892,"lon":-79.16079,"mae":6.28,"modelo":"ENS_MEAN","n":15,"nombre":"Guayacan","rating":5.11,"region":"Interandina","rmse":8.29},{"bias":-2.82,"codigo":"HN16","color":"#B2DF8A","confianza":"Media","corr":0.39,"familia":"Postprocesamiento","lat":-0.54753,"lon":-79.58941,"mae":5.09,"modelo":"QM_IFS025","n":15,"nombre":"La Palizada","rating":5.01,"region":"Litoral","rmse":11.61},{"bias":-0.02,"codigo":"M5187","color":"#56B4E9","confianza":"Media","corr":0.43,"familia":"Convencionales","lat":-0.13741,"lon":-77.47286,"mae":9.15,"modelo":"AIFS025","n":15,"nombre":"El Chaco 1","rating":4.96,"region":"Amazonia","rmse":11.35},{"bias":-3.75,"codigo":"M0156","color":"#785EF0","confianza":"Media","corr":0.08,"familia":"No convencionales","lat":0.31944,"lon":-79.47108,"mae":4.97,"modelo":"MFGLOBAL","n":15,"nombre":"Quinind\u00e9","rating":4.94,"region":"Litoral","rmse":8.18},{"bias":-0.73,"codigo":"84050","color":"#CC79A7","confianza":"Media","corr":0.17,"familia":"No convencionales","lat":-0.02478,"lon":-79.38028,"mae":8.75,"modelo":"GEM15","n":15,"nombre":"La Concordia","rating":4.54,"region":"Litoral","rmse":12.13},{"bias":-0.65,"codigo":"HN17","color":"#8A2BE2","confianza":"Media","corr":0.09,"familia":"Postprocesamiento","lat":-0.9006,"lon":-79.64678,"mae":8.26,"modelo":"ENS_MEAN","n":15,"nombre":"Murucumba","rating":4.53,"region":"Litoral","rmse":12.35},{"bias":-0.99,"codigo":"M0391","color":"#FB9A99","confianza":"Media","corr":0.64,"familia":"Postprocesamiento","lat":-2.00047,"lon":-78.97222,"mae":9.2,"modelo":"QM_ICON","n":15,"nombre":"Pallatanga","rating":4.52,"region":"Interandina","rmse":18.13},{"bias":-3.13,"codigo":"84063","color":"#B33DC6","confianza":"Media","corr":0.55,"familia":"No convencionales","lat":0.0925,"lon":-76.86944,"mae":8.38,"modelo":"SA01","n":15,"nombre":"Lago Agrio","rating":4.49,"region":"Amazonia","rmse":11.92},{"bias":9.0,"codigo":"84105","color":"#648FFF","confianza":"Media","corr":0.92,"familia":"No convencionales","lat":-0.493,"lon":-79.34892,"mae":9.04,"modelo":"UMGLOBAL10","n":15,"nombre":"Puerto Ila","rating":4.33,"region":"Litoral","rmse":10.85},{"bias":-4.17,"codigo":"HN09","color":"#FB9A99","confianza":"Media","corr":0.77,"familia":"Postprocesamiento","lat":-0.32172,"lon":-79.2362,"mae":8.56,"modelo":"QM_ICON","n":15,"nombre":"San Miguel","rating":4.33,"region":"Litoral","rmse":15.31},{"bias":-2.87,"codigo":"HN22","color":"#FB9A99","confianza":"Media","corr":0.22,"familia":"Postprocesamiento","lat":-0.92351,"lon":-79.75054,"mae":7.3,"modelo":"QM_ICON","n":15,"nombre":"La Presa","rating":4.29,"region":"Litoral","rmse":13.3},{"bias":-5.95,"codigo":"M5189","color":"#004E89","confianza":"Media","corr":0.45,"familia":"Convencionales","lat":-0.13094,"lon":-77.45573,"mae":12.06,"modelo":"IFSHRES","n":15,"nombre":"El Chaco 2","rating":3.5,"region":"Amazonia","rmse":16.2}],"metricas":{"calif_media":7.5,"estaciones":100,"mas_ganador":"CONSENSO_OP_CAL"},"modo":"quantification","ranking":[{"bias":-1.38,"color":"#648FFF","confianza":"Media","corr":0.3,"estaciones":93,"familia":"ML","mae":3.09,"modelo":"ML_ET","n":15,"rating":6.9,"rmse":5.12},{"bias":-1.36,"color":"#CC79A7","confianza":"Media","corr":0.25,"estaciones":93,"familia":"ML","mae":3.13,"modelo":"ML_GBR","n":15,"rating":6.86,"rmse":5.13},{"bias":-1.31,"color":"#DC267F","confianza":"Media","corr":0.29,"estaciones":93,"familia":"ML","mae":3.14,"modelo":"HURDLE_RF","n":15,"rating":6.85,"rmse":5.11},{"bias":-1.37,"color":"#56B4E9","confianza":"Media","corr":0.26,"estaciones":93,"familia":"ML","mae":3.16,"modelo":"ML_RF","n":15,"rating":6.82,"rmse":5.16},{"bias":-1.4,"color":"#009E73","confianza":"Media","corr":0.26,"estaciones":93,"familia":"ML","mae":3.18,"modelo":"ML_HGB","n":15,"rating":6.81,"rmse":5.21},{"bias":-1.61,"color":"#E41A1C","confianza":"Media","corr":0.27,"estaciones":100,"familia":"ML","mae":3.36,"modelo":"ML_CAT","n":15,"rating":6.75,"rmse":5.55},{"bias":-1.48,"color":"#999933","confianza":"Media","corr":0.27,"estaciones":100,"familia":"ML","mae":3.39,"modelo":"HURDLE_CAT","n":15,"rating":6.74,"rmse":5.55},{"bias":-1.33,"color":"#FE6100","confianza":"Media","corr":0.28,"estaciones":100,"familia":"ML","mae":3.44,"modelo":"HURDLE_LGBM","n":15,"rating":6.73,"rmse":5.55},{"bias":-1.34,"color":"#F781BF","confianza":"Media","corr":0.27,"estaciones":100,"familia":"ML","mae":3.4,"modelo":"HURDLE_XGB","n":15,"rating":6.73,"rmse":5.53},{"bias":-1.57,"color":"#DC267F","confianza":"Media","corr":0.26,"estaciones":100,"familia":"ML","mae":3.39,"modelo":"ML_XGB","n":15,"rating":6.73,"rmse":5.58},{"bias":-1.58,"color":"#4DAF4A","confianza":"Media","corr":0.26,"estaciones":100,"familia":"ML","mae":3.43,"modelo":"ML_LGBM","n":15,"rating":6.7,"rmse":5.62},{"bias":-1.54,"color":"#FF7F00","confianza":"Media","corr":0.25,"estaciones":100,"familia":"ML","mae":3.47,"modelo":"ML_ELASTICNET","n":15,"rating":6.7,"rmse":5.68},{"bias":-1.38,"color":"#FF7F00","confianza":"Media","corr":0.27,"estaciones":100,"familia":"ML","mae":3.53,"modelo":"HURDLE_LOGIT_RIDGE","n":15,"rating":6.69,"rmse":5.66},{"bias":-1.51,"color":"#377EB8","confianza":"Media","corr":0.25,"estaciones":100,"familia":"ML","mae":3.49,"modelo":"ML_RIDGE","n":15,"rating":6.69,"rmse":5.7},{"bias":-1.6,"color":"#984EA3","confianza":"Media","corr":0.24,"estaciones":100,"familia":"ML","mae":3.49,"modelo":"ML_HUBER","n":15,"rating":6.69,"rmse":5.83},{"bias":-1.27,"color":"#009E73","confianza":"Media","corr":0.31,"estaciones":71,"familia":"Convencionales","mae":3.78,"modelo":"ICON","n":15,"rating":6.58,"rmse":5.99},{"bias":0.52,"color":"#6A1B9A","confianza":"Media","corr":0.42,"estaciones":100,"familia":"Postprocesamiento","mae":4.09,"modelo":"CONSENSO_OP_CAL","n":15,"rating":6.56,"rmse":6.77},{"bias":0.29,"color":"#111111","confianza":"Media","corr":0.34,"estaciones":97,"familia":"Postprocesamiento","mae":4.03,"modelo":"BEST_OP_CV","n":15,"rating":6.51,"rmse":5.92},{"bias":-0.58,"color":"#17A398","confianza":"Media","corr":0.35,"estaciones":100,"familia":"Postprocesamiento","mae":3.8,"modelo":"ENS_MEDIAN","n":15,"rating":6.49,"rmse":5.78},{"bias":0.48,"color":"#1B3A6B","confianza":"Media","corr":0.4,"estaciones":100,"familia":"Postprocesamiento","mae":4.0,"modelo":"CONSENSO_OP_TOP10","n":15,"rating":6.49,"rmse":5.77},{"bias":-1.96,"color":"#A6761D","confianza":"Media","corr":0.24,"estaciones":68,"familia":"No convencionales","mae":4.08,"modelo":"NEMSSA","n":15,"rating":6.43,"rmse":6.58},{"bias":0.4,"color":"#A65628","confianza":"Media","corr":0.35,"estaciones":100,"familia":"Postprocesamiento","mae":4.12,"modelo":"BC_CLASSIC_METEOBLUE","n":15,"rating":6.4,"rmse":6.32},{"bias":0.2,"color":"#E7298A","confianza":"Media","corr":0.22,"estaciones":100,"familia":"Postprocesamiento","mae":4.21,"modelo":"BC_CLASSIC_GFS05","n":15,"rating":6.34,"rmse":6.53},{"bias":-2.3,"color":"#00A9A5","confianza":"Media","corr":0.23,"estaciones":71,"familia":"No convencionales","mae":4.05,"modelo":"NEMSGLOBAL","n":15,"rating":6.33,"rmse":6.51},{"bias":-1.84,"color":"#56B4E9","confianza":"Media","corr":0.2,"estaciones":71,"familia":"No convencionales","mae":4.08,"modelo":"NEMSGLOBAL_E","n":15,"rating":6.32,"rmse":6.48},{"bias":-1.67,"color":"#785EF0","confianza":"Media","corr":0.27,"estaciones":68,"familia":"No convencionales","mae":4.2,"modelo":"MFGLOBAL","n":15,"rating":6.3,"rmse":6.58},{"bias":-0.12,"color":"#1F78B4","confianza":"Media","corr":0.38,"estaciones":100,"familia":"Postprocesamiento","mae":4.26,"modelo":"QM_METEOBLUE","n":15,"rating":6.3,"rmse":7.29},{"bias":0.54,"color":"#4DAF4A","confianza":"Media","corr":0.29,"estaciones":100,"familia":"Postprocesamiento","mae":4.23,"modelo":"BC_CLASSIC_AIFS025","n":15,"rating":6.27,"rmse":6.48},{"bias":-1.19,"color":"#FDBF6F","confianza":"Media","corr":0.2,"estaciones":100,"familia":"Postprocesamiento","mae":4.05,"modelo":"QM_GFS05","n":15,"rating":6.27,"rmse":6.98},{"bias":0.21,"color":"#F781BF","confianza":"Media","corr":0.21,"estaciones":100,"familia":"Postprocesamiento","mae":4.27,"modelo":"BC_CLASSIC_IFSHRES","n":15,"rating":6.26,"rmse":6.7},{"bias":0.06,"color":"#B33DC6","confianza":"Media","corr":0.21,"estaciones":100,"familia":"Postprocesamiento","mae":4.45,"modelo":"QM_IFSHRES","n":15,"rating":6.21,"rmse":7.3},{"bias":-0.52,"color":"#CC79A7","confianza":"Media","corr":0.3,"estaciones":71,"familia":"No convencionales","mae":4.48,"modelo":"GEM15","n":15,"rating":6.18,"rmse":7.08},{"bias":0.95,"color":"#7570B3","confianza":"Media","corr":0.27,"estaciones":100,"familia":"Postprocesamiento","mae":4.59,"modelo":"BC_CLASSIC_ICON","n":15,"rating":6.14,"rmse":6.87},{"bias":0.64,"color":"#D55E00","confianza":"Media","corr":0.45,"estaciones":68,"familia":"No convencionales","mae":4.55,"modelo":"METEOBLUE","n":15,"rating":6.14,"rmse":6.52},{"bias":0.69,"color":"#004E89","confianza":"Media","corr":0.3,"estaciones":71,"familia":"Convencionales","mae":4.51,"modelo":"IFSHRES","n":15,"rating":6.11,"rmse":6.65},{"bias":0.6,"color":"#8A2BE2","confianza":"Media","corr":0.38,"estaciones":100,"familia":"Postprocesamiento","mae":4.48,"modelo":"ENS_MEAN","n":15,"rating":6.08,"rmse":6.25},{"bias":0.48,"color":"#1B9E77","confianza":"Media","corr":0.25,"estaciones":100,"familia":"Postprocesamiento","mae":4.5,"modelo":"BC_CLASSIC_IFS025","n":15,"rating":6.07,"rmse":7.3},{"bias":0.09,"color":"#E69F00","confianza":"Media","corr":0.31,"estaciones":71,"familia":"Convencionales","mae":4.42,"modelo":"GFS05","n":15,"rating":6.07,"rmse":6.59},{"bias":0.45,"color":"#FB9A99","confianza":"Media","corr":0.34,"estaciones":100,"familia":"Postprocesamiento","mae":4.68,"modelo":"QM_ICON","n":15,"rating":6.07,"rmse":7.83},{"bias":0.61,"color":"#377EB8","confianza":"Media","corr":0.31,"estaciones":100,"familia":"Postprocesamiento","mae":5.12,"modelo":"QM_AIFS025","n":15,"rating":6.04,"rmse":8.64},{"bias":0.82,"color":"#B2DF8A","confianza":"Media","corr":0.25,"estaciones":100,"familia":"Postprocesamiento","mae":5.53,"modelo":"QM_IFS025","n":15,"rating":5.88,"rmse":8.98},{"bias":1.42,"color":"#56B4E9","confianza":"Media","corr":0.42,"estaciones":69,"familia":"Convencionales","mae":5.26,"modelo":"AIFS025","n":15,"rating":5.85,"rmse":7.2},{"bias":2.24,"color":"#648FFF","confianza":"Media","corr":0.34,"estaciones":71,"familia":"No convencionales","mae":5.66,"modelo":"UMGLOBAL10","n":15,"rating":5.62,"rmse":8.44},{"bias":-0.59,"color":"#B33DC6","confianza":"Media","corr":0.08,"estaciones":62,"familia":"No convencionales","mae":5.43,"modelo":"SA01","n":15,"rating":5.54,"rmse":8.16},{"bias":2.51,"color":"#0072B2","confianza":"Media","corr":0.33,"estaciones":71,"familia":"Convencionales","mae":6.35,"modelo":"IFS025","n":15,"rating":5.48,"rmse":9.04}],"sintesis_region":[{"modelo":"BC_CLASSIC_IFS025","region":"Amazonia"},{"modelo":"BC_CLASSIC_METEOBLUE","region":"Insular"},{"modelo":"CONSENSO_OP_CAL","region":"Interandina"},{"modelo":"CONSENSO_OP_CAL","region":"Litoral"}],"ventana":"15"}
