{"bloque":"tmin","bloques":[{"clave":"precip_det","etiqueta":"Precipitaci\u00f3n: detecci\u00f3n"},{"clave":"precip_cua","etiqueta":"Precipitaci\u00f3n: cuantificaci\u00f3n"},{"clave":"tmax","etiqueta":"Temperatura m\u00e1xima"},{"clave":"tmin","etiqueta":"Temperatura m\u00ednima"}],"estaciones":[{"codigo":"84099","nombre":"El Coca","region":"Amazonia"},{"codigo":"84253","nombre":"Gualaquiza","region":"Amazonia"},{"codigo":"84151","nombre":"Jumandy","region":"Amazonia"},{"codigo":"84063","nombre":"Lago Agrio","region":"Amazonia"},{"codigo":"84217","nombre":"Macas","region":"Amazonia"},{"codigo":"84132","nombre":"N. Rocafu","region":"Amazonia"},{"codigo":"84163","nombre":"Pastaza","region":"Amazonia"},{"codigo":"84179","nombre":"Puyo","region":"Amazonia"},{"codigo":"84001","nombre":"Baltra","region":"Insular"},{"codigo":"84008","nombre":"S. Cristobal","region":"Insular"},{"codigo":"84010","nombre":"S. Cristobal A","region":"Insular"},{"codigo":"84147","nombre":"Ambato","region":"Interandina"},{"codigo":"84226","nombre":"Ca\u00f1ar","region":"Interandina"},{"codigo":"84239","nombre":"Cuenca","region":"Interandina"},{"codigo":"84173","nombre":"ESPOCH","region":"Interandina"},{"codigo":"M1240","nombre":"Ibarra","region":"Interandina"},{"codigo":"84045","nombre":"Inguincho","region":"Interandina"},{"codigo":"84088","nombre":"Izobamba","region":"Interandina"},{"codigo":"M0024","nombre":"I\u00f1aquito","region":"Interandina"},{"codigo":"84076","nombre":"La Tola","region":"Interandina"},{"codigo":"84265","nombre":"La Toma","region":"Interandina"},{"codigo":"84123","nombre":"Latacunga","region":"Interandina"},{"codigo":"84270","nombre":"Loja Argelia","region":"Interandina"},{"codigo":"84160","nombre":"Querochaca","region":"Interandina"},{"codigo":"84176","nombre":"Riobamba","region":"Interandina"},{"codigo":"84143","nombre":"Rumipamba","region":"Interandina"},{"codigo":"84036","nombre":"S. Gabriel","region":"Interandina"},{"codigo":"84075","nombre":"Tababela","region":"Interandina"},{"codigo":"84056","nombre":"Tomal\u00f3n","region":"Interandina"},{"codigo":"84027","nombre":"Tulc\u00e1n","region":"Interandina"},{"codigo":"84018","nombre":"Esmeraldas","region":"Litoral"},{"codigo":"84203","nombre":"Guayaquil","region":"Litoral"},{"codigo":"84050","nombre":"La Concordia","region":"Litoral"},{"codigo":"84117","nombre":"Manta","region":"Litoral"},{"codigo":"M0037","nombre":"Milagro","region":"Litoral"},{"codigo":"84140","nombre":"Pichilingue","region":"Litoral"},{"codigo":"84135","nombre":"Portoviejo","region":"Litoral"},{"codigo":"84105","nombre":"Puerto Ila","region":"Litoral"},{"codigo":"84200","nombre":"Salinas","region":"Litoral"},{"codigo":"84252","nombre":"Sta. Rosa","region":"Litoral"}],"familia":"ML","ganadores":[{"bias":0.07,"codigo":"84200","color":"#CC79A7","confianza":"Media","corr":0.65,"familia":"ML","lat":-2.2,"lon":-80.98972,"mae":0.23,"modelo":"ML_GBR","n":27,"nombre":"Salinas","rating":8.65,"region":"Litoral","rmse":0.26},{"bias":0.14,"codigo":"84132","color":"#648FFF","confianza":"Media","corr":0.6,"familia":"ML","lat":-0.92003,"lon":-75.40303,"mae":0.3,"modelo":"ML_ET","n":19,"nombre":"N. Rocafu","rating":8.15,"region":"Amazonia","rmse":0.44},{"bias":-0.16,"codigo":"84001","color":"#648FFF","confianza":"Media","corr":0.79,"familia":"ML","lat":-0.445,"lon":-90.269,"mae":0.39,"modelo":"ML_ET","n":27,"nombre":"Baltra","rating":8.03,"region":"Insular","rmse":0.5},{"bias":-0.17,"codigo":"84151","color":"#009E73","confianza":"Media","corr":0.53,"familia":"ML","lat":-1.057,"lon":-77.584,"mae":0.36,"modelo":"ML_HGB","n":16,"nombre":"Jumandy","rating":7.91,"region":"Amazonia","rmse":0.43},{"bias":0.26,"codigo":"84010","color":"#009E73","confianza":"Media","corr":0.58,"familia":"ML","lat":-0.909,"lon":-89.617,"mae":0.35,"modelo":"ML_HGB","n":27,"nombre":"S. Cristobal A","rating":7.89,"region":"Insular","rmse":0.41},{"bias":-0.01,"codigo":"84140","color":"#00A9A5","confianza":"Alta","corr":0.61,"familia":"ML","lat":-1.07434,"lon":-79.4929,"mae":0.45,"modelo":"RIDGE_RICH","n":43,"nombre":"Pichilingue","rating":7.87,"region":"Litoral","rmse":0.6},{"bias":-0.11,"codigo":"84105","color":"#E41A1C","confianza":"Alta","corr":0.82,"familia":"ML","lat":-0.493,"lon":-79.34892,"mae":0.49,"modelo":"ML_CAT","n":176,"nombre":"Puerto Ila","rating":7.84,"region":"Litoral","rmse":0.6},{"bias":0.0,"codigo":"84135","color":"#DC267F","confianza":"Alta","corr":0.74,"familia":"ML","lat":-1.17343,"lon":-80.38736,"mae":0.57,"modelo":"ML_XGB","n":161,"nombre":"Portoviejo","rating":7.68,"region":"Litoral","rmse":0.71},{"bias":0.18,"codigo":"84008","color":"#009E73","confianza":"Media","corr":0.58,"familia":"ML","lat":-0.90406,"lon":-89.61431,"mae":0.43,"modelo":"ML_HGB","n":29,"nombre":"S. Cristobal","rating":7.64,"region":"Insular","rmse":0.58},{"bias":-0.01,"codigo":"84050","color":"#00A9A5","confianza":"Media","corr":0.73,"familia":"ML","lat":-0.02478,"lon":-79.38028,"mae":0.57,"modelo":"RIDGE_RICH","n":19,"nombre":"La Concordia","rating":7.62,"region":"Litoral","rmse":0.74},{"bias":0.0,"codigo":"84252","color":"#DC267F","confianza":"Alta","corr":0.83,"familia":"ML","lat":-3.43583,"lon":-79.98333,"mae":0.67,"modelo":"ML_XGB","n":192,"nombre":"Sta. Rosa","rating":7.45,"region":"Litoral","rmse":0.86},{"bias":-0.1,"codigo":"84203","color":"#56B4E9","confianza":"Media","corr":0.31,"familia":"ML","lat":-2.15333,"lon":-79.88333,"mae":0.43,"modelo":"ML_RF","n":28,"nombre":"Guayaquil","rating":7.43,"region":"Litoral","rmse":0.69},{"bias":-0.05,"codigo":"84099","color":"#984EA3","confianza":"Alta","corr":0.46,"familia":"ML","lat":-0.46056,"lon":-76.98806,"mae":0.66,"modelo":"ML_HUBER","n":181,"nombre":"El Coca","rating":7.08,"region":"Amazonia","rmse":0.82},{"bias":0.14,"codigo":"84163","color":"#00A9A5","confianza":"Alta","corr":0.63,"familia":"ML","lat":-1.5,"lon":-78.06667,"mae":0.64,"modelo":"RIDGE_RICH","n":42,"nombre":"Pastaza","rating":7.05,"region":"Amazonia","rmse":0.93},{"bias":0.11,"codigo":"84063","color":"#4DAF4A","confianza":"Alta","corr":0.43,"familia":"ML","lat":0.0925,"lon":-76.86944,"mae":0.62,"modelo":"ML_LGBM","n":166,"nombre":"Lago Agrio","rating":7.02,"region":"Amazonia","rmse":0.84},{"bias":-0.18,"codigo":"84018","color":"#E41A1C","confianza":"Alta","corr":0.51,"familia":"ML","lat":0.97917,"lon":-79.62444,"mae":0.66,"modelo":"ML_CAT","n":134,"nombre":"Esmeraldas","rating":6.98,"region":"Litoral","rmse":0.8},{"bias":-0.04,"codigo":"M0024","color":"#00A9A5","confianza":"Media","corr":0.22,"familia":"ML","lat":-0.1783,"lon":-78.48773,"mae":0.69,"modelo":"RIDGE_RICH","n":28,"nombre":"I\u00f1aquito","rating":6.77,"region":"Interandina","rmse":0.9},{"bias":0.21,"codigo":"M0037","color":"#00A9A5","confianza":"Media","corr":0.23,"familia":"ML","lat":-2.11805,"lon":-79.60038,"mae":0.56,"modelo":"RIDGE_RICH","n":16,"nombre":"Milagro","rating":6.74,"region":"Litoral","rmse":0.92},{"bias":-0.09,"codigo":"84117","color":"#56B4E9","confianza":"Media","corr":0.07,"familia":"ML","lat":-0.95,"lon":-80.68333,"mae":0.62,"modelo":"ML_RF","n":28,"nombre":"Manta","rating":6.7,"region":"Litoral","rmse":0.88},{"bias":0.03,"codigo":"84253","color":"#00A9A5","confianza":"Media","corr":0.26,"familia":"ML","lat":-3.42333,"lon":-78.56694,"mae":0.76,"modelo":"RIDGE_RICH","n":17,"nombre":"Gualaquiza","rating":6.66,"region":"Amazonia","rmse":0.99},{"bias":-0.22,"codigo":"84147","color":"#00A9A5","confianza":"Baja","corr":0.41,"familia":"ML","lat":-1.21413,"lon":-78.57455,"mae":0.74,"modelo":"RIDGE_RICH","n":13,"nombre":"Ambato","rating":6.64,"region":"Interandina","rmse":0.87},{"bias":-0.15,"codigo":"84217","color":"#648FFF","confianza":"Media","corr":0.21,"familia":"ML","lat":-2.29861,"lon":-78.12056,"mae":0.69,"modelo":"ML_ET","n":28,"nombre":"Macas","rating":6.62,"region":"Amazonia","rmse":0.89},{"bias":-0.05,"codigo":"84088","color":"#00A9A5","confianza":"Media","corr":0.57,"familia":"ML","lat":-0.36593,"lon":-78.55513,"mae":0.9,"modelo":"RIDGE_RICH","n":28,"nombre":"Izobamba","rating":6.61,"region":"Interandina","rmse":1.11},{"bias":0.12,"codigo":"84179","color":"#4DAF4A","confianza":"Alta","corr":0.37,"familia":"ML","lat":-1.5057,"lon":-77.956,"mae":0.78,"modelo":"ML_LGBM","n":161,"nombre":"Puyo","rating":6.55,"region":"Amazonia","rmse":1.03},{"bias":0.01,"codigo":"84226","color":"#4DAF4A","confianza":"Alta","corr":0.58,"familia":"ML","lat":-2.55221,"lon":-78.94519,"mae":1.08,"modelo":"ML_LGBM","n":151,"nombre":"Ca\u00f1ar","rating":6.29,"region":"Interandina","rmse":1.35},{"bias":0.19,"codigo":"84036","color":"#00A9A5","confianza":"Alta","corr":0.6,"familia":"ML","lat":0.60417,"lon":-77.81944,"mae":1.0,"modelo":"RIDGE_RICH","n":36,"nombre":"S. Gabriel","rating":6.19,"region":"Interandina","rmse":1.28},{"bias":0.09,"codigo":"84027","color":"#648FFF","confianza":"Media","corr":0.62,"familia":"ML","lat":0.81667,"lon":-77.7,"mae":1.11,"modelo":"ML_ET","n":20,"nombre":"Tulc\u00e1n","rating":6.13,"region":"Interandina","rmse":1.41},{"bias":0.07,"codigo":"M1240","color":"#F781BF","confianza":"Alta","corr":0.24,"familia":"ML","lat":0.32978,"lon":-78.1322,"mae":1.06,"modelo":"LGBM_REG","n":47,"nombre":"Ibarra","rating":5.97,"region":"Interandina","rmse":1.26},{"bias":0.22,"codigo":"84123","color":"#009E73","confianza":"Media","corr":0.62,"familia":"ML","lat":-0.91333,"lon":-78.61556,"mae":1.2,"modelo":"ML_HGB","n":28,"nombre":"Latacunga","rating":5.83,"region":"Interandina","rmse":1.46},{"bias":0.23,"codigo":"84075","color":"#4DAF4A","confianza":"Alta","corr":0.68,"familia":"ML","lat":-0.14083,"lon":-78.353,"mae":1.21,"modelo":"ML_LGBM","n":172,"nombre":"Tababela","rating":5.79,"region":"Interandina","rmse":1.55},{"bias":0.13,"codigo":"84143","color":"#00A9A5","confianza":"Media","corr":0.68,"familia":"ML","lat":-1.01998,"lon":-78.59456,"mae":1.31,"modelo":"RIDGE_RICH","n":24,"nombre":"Rumipamba","rating":5.78,"region":"Interandina","rmse":1.64},{"bias":-0.07,"codigo":"84265","color":"#F781BF","confianza":"Alta","corr":0.54,"familia":"ML","lat":-3.99556,"lon":-79.37167,"mae":1.3,"modelo":"LGBM_REG","n":30,"nombre":"La Toma","rating":5.67,"region":"Interandina","rmse":1.81},{"bias":0.02,"codigo":"84045","color":"#F781BF","confianza":"Media","corr":-0.07,"familia":"ML","lat":0.25694,"lon":-78.40524,"mae":1.08,"modelo":"LGBM_REG","n":22,"nombre":"Inguincho","rating":5.66,"region":"Interandina","rmse":1.4},{"bias":-0.01,"codigo":"84076","color":"#E41A1C","confianza":"Alta","corr":0.44,"familia":"ML","lat":-0.23179,"lon":-78.37043,"mae":1.37,"modelo":"ML_CAT","n":145,"nombre":"La Tola","rating":5.62,"region":"Interandina","rmse":1.78},{"bias":-0.14,"codigo":"84173","color":"#00A9A5","confianza":"Alta","corr":0.36,"familia":"ML","lat":-1.65083,"lon":-78.68521,"mae":1.2,"modelo":"RIDGE_RICH","n":53,"nombre":"ESPOCH","rating":5.57,"region":"Interandina","rmse":1.68},{"bias":-0.01,"codigo":"84239","color":"#009E73","confianza":"Media","corr":0.33,"familia":"ML","lat":-2.88917,"lon":-78.98417,"mae":1.41,"modelo":"ML_HGB","n":27,"nombre":"Cuenca","rating":5.54,"region":"Interandina","rmse":1.68},{"bias":-0.7,"codigo":"84176","color":"#00A9A5","confianza":"Media","corr":0.71,"familia":"ML","lat":-1.65333,"lon":-78.54889,"mae":1.22,"modelo":"RIDGE_RICH","n":20,"nombre":"Riobamba","rating":5.37,"region":"Interandina","rmse":1.55},{"bias":0.28,"codigo":"84160","color":"#009E73","confianza":"Media","corr":0.5,"familia":"ML","lat":-1.3671,"lon":-78.60554,"mae":1.35,"modelo":"ML_HGB","n":28,"nombre":"Querochaca","rating":5.35,"region":"Interandina","rmse":1.72},{"bias":0.05,"codigo":"84270","color":"#648FFF","confianza":"Media","corr":0.32,"familia":"ML","lat":-4.0375,"lon":-79.2034,"mae":1.51,"modelo":"ML_ET","n":27,"nombre":"Loja Argelia","rating":5.2,"region":"Interandina","rmse":2.08},{"bias":0.45,"codigo":"84056","color":"#FF7F00","confianza":"Alta","corr":0.33,"familia":"ML","lat":0.01116,"lon":-78.25505,"mae":1.58,"modelo":"ML_ELASTICNET","n":188,"nombre":"Tomal\u00f3n","rating":4.7,"region":"Interandina","rmse":1.99}],"metricas":{"calif_media":6.7,"estaciones":40,"mas_ganador":"RIDGE_RICH"},"modo":"continuous","ranking":[{"bias":0.02,"color":"#00A9A5","confianza":"Media","corr":0.47,"estaciones":40,"familia":"ML","mae":0.95,"modelo":"RIDGE_RICH","n":29,"rating":6.24,"rmse":1.24},{"bias":0.02,"color":"#648FFF","confianza":"Media","corr":0.28,"estaciones":39,"familia":"ML","mae":0.95,"modelo":"ML_ET","n":26,"rating":6.14,"rmse":1.27},{"bias":-0.02,"color":"#56B4E9","confianza":"Media","corr":0.28,"estaciones":39,"familia":"ML","mae":0.96,"modelo":"ML_RF","n":26,"rating":6.11,"rmse":1.28},{"bias":0.06,"color":"#009E73","confianza":"Media","corr":0.26,"estaciones":39,"familia":"ML","mae":0.99,"modelo":"ML_HGB","n":26,"rating":6.06,"rmse":1.32},{"bias":-0.15,"color":"#F781BF","confianza":"Media","corr":0.44,"estaciones":40,"familia":"ML","mae":1.02,"modelo":"LGBM_REG","n":29,"rating":6.06,"rmse":1.34},{"bias":0.05,"color":"#CC79A7","confianza":"Media","corr":0.21,"estaciones":39,"familia":"ML","mae":1.01,"modelo":"ML_GBR","n":26,"rating":5.94,"rmse":1.34},{"bias":-0.11,"color":"#DC267F","confianza":"Alta","corr":0.42,"estaciones":40,"familia":"ML","mae":1.15,"modelo":"ML_XGB","n":156,"rating":5.67,"rmse":1.76},{"bias":-0.1,"color":"#4DAF4A","confianza":"Alta","corr":0.42,"estaciones":40,"familia":"ML","mae":1.15,"modelo":"ML_LGBM","n":156,"rating":5.66,"rmse":1.77},{"bias":-0.1,"color":"#E41A1C","confianza":"Alta","corr":0.4,"estaciones":40,"familia":"ML","mae":1.16,"modelo":"ML_CAT","n":156,"rating":5.64,"rmse":1.77},{"bias":-0.18,"color":"#984EA3","confianza":"Alta","corr":0.39,"estaciones":40,"familia":"ML","mae":1.18,"modelo":"ML_HUBER","n":156,"rating":5.57,"rmse":1.79},{"bias":-0.18,"color":"#FF7F00","confianza":"Alta","corr":0.38,"estaciones":40,"familia":"ML","mae":1.19,"modelo":"ML_ELASTICNET","n":156,"rating":5.57,"rmse":1.79},{"bias":-0.19,"color":"#377EB8","confianza":"Alta","corr":0.38,"estaciones":40,"familia":"ML","mae":1.19,"modelo":"ML_RIDGE","n":156,"rating":5.55,"rmse":1.79}],"sintesis_region":[{"modelo":"ML_ET","region":"Amazonia"},{"modelo":"ML_HGB","region":"Insular"},{"modelo":"RIDGE_RICH","region":"Interandina"},{"modelo":"RIDGE_RICH","region":"Litoral"}],"ventana":"todo"}
