{"bloque":"tmin","bloques":[{"clave":"precip_det","etiqueta":"Precipitaci\u00f3n: detecci\u00f3n"},{"clave":"precip_cua","etiqueta":"Precipitaci\u00f3n: cuantificaci\u00f3n"},{"clave":"tmax","etiqueta":"Temperatura m\u00e1xima"},{"clave":"tmin","etiqueta":"Temperatura m\u00ednima"}],"estaciones":[{"codigo":"84099","nombre":"El Coca","region":"Amazonia"},{"codigo":"84253","nombre":"Gualaquiza","region":"Amazonia"},{"codigo":"84151","nombre":"Jumandy","region":"Amazonia"},{"codigo":"84063","nombre":"Lago Agrio","region":"Amazonia"},{"codigo":"84217","nombre":"Macas","region":"Amazonia"},{"codigo":"84132","nombre":"N. Rocafu","region":"Amazonia"},{"codigo":"84163","nombre":"Pastaza","region":"Amazonia"},{"codigo":"84179","nombre":"Puyo","region":"Amazonia"},{"codigo":"84001","nombre":"Baltra","region":"Insular"},{"codigo":"84008","nombre":"S. Cristobal","region":"Insular"},{"codigo":"84010","nombre":"S. Cristobal A","region":"Insular"},{"codigo":"84147","nombre":"Ambato","region":"Interandina"},{"codigo":"84226","nombre":"Ca\u00f1ar","region":"Interandina"},{"codigo":"84239","nombre":"Cuenca","region":"Interandina"},{"codigo":"84173","nombre":"ESPOCH","region":"Interandina"},{"codigo":"M1240","nombre":"Ibarra","region":"Interandina"},{"codigo":"84045","nombre":"Inguincho","region":"Interandina"},{"codigo":"84088","nombre":"Izobamba","region":"Interandina"},{"codigo":"M0024","nombre":"I\u00f1aquito","region":"Interandina"},{"codigo":"84076","nombre":"La Tola","region":"Interandina"},{"codigo":"84265","nombre":"La Toma","region":"Interandina"},{"codigo":"84123","nombre":"Latacunga","region":"Interandina"},{"codigo":"84270","nombre":"Loja Argelia","region":"Interandina"},{"codigo":"84160","nombre":"Querochaca","region":"Interandina"},{"codigo":"84176","nombre":"Riobamba","region":"Interandina"},{"codigo":"84143","nombre":"Rumipamba","region":"Interandina"},{"codigo":"84036","nombre":"S. Gabriel","region":"Interandina"},{"codigo":"84075","nombre":"Tababela","region":"Interandina"},{"codigo":"84056","nombre":"Tomal\u00f3n","region":"Interandina"},{"codigo":"84027","nombre":"Tulc\u00e1n","region":"Interandina"},{"codigo":"84018","nombre":"Esmeraldas","region":"Litoral"},{"codigo":"84203","nombre":"Guayaquil","region":"Litoral"},{"codigo":"84050","nombre":"La Concordia","region":"Litoral"},{"codigo":"84117","nombre":"Manta","region":"Litoral"},{"codigo":"M0037","nombre":"Milagro","region":"Litoral"},{"codigo":"84140","nombre":"Pichilingue","region":"Litoral"},{"codigo":"84135","nombre":"Portoviejo","region":"Litoral"},{"codigo":"84105","nombre":"Puerto Ila","region":"Litoral"},{"codigo":"84200","nombre":"Salinas","region":"Litoral"},{"codigo":"84252","nombre":"Sta. Rosa","region":"Litoral"}],"familia":"No convencionales","ganadores":[{"bias":0.08,"codigo":"84200","color":"#D55E00","confianza":"Alta","corr":0.87,"familia":"No convencionales","lat":-2.2,"lon":-80.98972,"mae":0.29,"modelo":"METEOBLUE","n":106,"nombre":"Salinas","rating":8.59,"region":"Litoral","rmse":0.36},{"bias":0.17,"codigo":"84117","color":"#D55E00","confianza":"Alta","corr":0.91,"familia":"No convencionales","lat":-0.95,"lon":-80.68333,"mae":0.38,"modelo":"METEOBLUE","n":108,"nombre":"Manta","rating":8.16,"region":"Litoral","rmse":0.48},{"bias":0.29,"codigo":"84203","color":"#D55E00","confianza":"Alta","corr":0.84,"familia":"No convencionales","lat":-2.15333,"lon":-79.88333,"mae":0.4,"modelo":"METEOBLUE","n":108,"nombre":"Guayaquil","rating":7.9,"region":"Litoral","rmse":0.48},{"bias":0.06,"codigo":"84132","color":"#D55E00","confianza":"Alta","corr":0.6,"familia":"No convencionales","lat":-0.92003,"lon":-75.40303,"mae":0.47,"modelo":"METEOBLUE","n":74,"nombre":"N. Rocafu","rating":7.71,"region":"Amazonia","rmse":0.65},{"bias":0.03,"codigo":"84001","color":"#CC79A7","confianza":"Alta","corr":0.93,"familia":"No convencionales","lat":-0.445,"lon":-90.269,"mae":0.62,"modelo":"GEM15","n":152,"nombre":"Baltra","rating":7.64,"region":"Insular","rmse":0.8},{"bias":0.13,"codigo":"84151","color":"#D55E00","confianza":"Alta","corr":0.56,"familia":"No convencionales","lat":-1.057,"lon":-77.584,"mae":0.5,"modelo":"METEOBLUE","n":52,"nombre":"Jumandy","rating":7.53,"region":"Amazonia","rmse":0.63},{"bias":0.0,"codigo":"84252","color":"#D55E00","confianza":"Alta","corr":0.5,"familia":"No convencionales","lat":-3.43583,"lon":-79.98333,"mae":0.55,"modelo":"METEOBLUE","n":107,"nombre":"Sta. Rosa","rating":7.52,"region":"Litoral","rmse":0.69},{"bias":0.0,"codigo":"84105","color":"#785EF0","confianza":"Alta","corr":0.19,"familia":"No convencionales","lat":-0.493,"lon":-79.34892,"mae":0.52,"modelo":"MFGLOBAL","n":107,"nombre":"Puerto Ila","rating":7.31,"region":"Litoral","rmse":0.67},{"bias":-0.2,"codigo":"84140","color":"#648FFF","confianza":"Alta","corr":0.74,"familia":"No convencionales","lat":-1.07434,"lon":-79.4929,"mae":0.66,"modelo":"UMGLOBAL10","n":164,"nombre":"Pichilingue","rating":7.16,"region":"Litoral","rmse":0.8},{"bias":0.2,"codigo":"84050","color":"#D55E00","confianza":"Alta","corr":0.34,"familia":"No convencionales","lat":-0.02478,"lon":-79.38028,"mae":0.54,"modelo":"METEOBLUE","n":107,"nombre":"La Concordia","rating":7.11,"region":"Litoral","rmse":0.68},{"bias":0.3,"codigo":"84135","color":"#D55E00","confianza":"Alta","corr":0.54,"familia":"No convencionales","lat":-1.17343,"lon":-80.38736,"mae":0.56,"modelo":"METEOBLUE","n":108,"nombre":"Portoviejo","rating":7.09,"region":"Litoral","rmse":0.72},{"bias":0.01,"codigo":"84018","color":"#785EF0","confianza":"Alta","corr":0.3,"familia":"No convencionales","lat":0.97917,"lon":-79.62444,"mae":0.64,"modelo":"MFGLOBAL","n":98,"nombre":"Esmeraldas","rating":7.09,"region":"Litoral","rmse":0.79},{"bias":-0.19,"codigo":"84239","color":"#D55E00","confianza":"Alta","corr":0.84,"familia":"No convencionales","lat":-2.88917,"lon":-78.98417,"mae":0.72,"modelo":"METEOBLUE","n":107,"nombre":"Cuenca","rating":7.06,"region":"Interandina","rmse":0.92},{"bias":-0.22,"codigo":"84099","color":"#D55E00","confianza":"Alta","corr":0.58,"familia":"No convencionales","lat":-0.46056,"lon":-76.98806,"mae":0.63,"modelo":"METEOBLUE","n":104,"nombre":"El Coca","rating":7.02,"region":"Amazonia","rmse":0.79},{"bias":0.19,"codigo":"84063","color":"#D55E00","confianza":"Alta","corr":0.46,"familia":"No convencionales","lat":0.0925,"lon":-76.86944,"mae":0.68,"modelo":"METEOBLUE","n":107,"nombre":"Lago Agrio","rating":6.83,"region":"Amazonia","rmse":0.86},{"bias":-0.0,"codigo":"84265","color":"#D55E00","confianza":"Alta","corr":0.65,"familia":"No convencionales","lat":-3.99556,"lon":-79.37167,"mae":0.92,"modelo":"METEOBLUE","n":108,"nombre":"La Toma","rating":6.61,"region":"Interandina","rmse":1.29},{"bias":-0.04,"codigo":"84217","color":"#785EF0","confianza":"Alta","corr":0.27,"familia":"No convencionales","lat":-2.29861,"lon":-78.12056,"mae":0.87,"modelo":"MFGLOBAL","n":107,"nombre":"Macas","rating":6.39,"region":"Amazonia","rmse":1.12},{"bias":-0.53,"codigo":"84253","color":"#D55E00","confianza":"Alta","corr":0.48,"familia":"No convencionales","lat":-3.42333,"lon":-78.56694,"mae":0.71,"modelo":"METEOBLUE","n":67,"nombre":"Gualaquiza","rating":6.37,"region":"Amazonia","rmse":0.93},{"bias":-0.07,"codigo":"84173","color":"#785EF0","confianza":"Alta","corr":0.54,"familia":"No convencionales","lat":-1.65083,"lon":-78.68521,"mae":1.01,"modelo":"MFGLOBAL","n":106,"nombre":"ESPOCH","rating":6.31,"region":"Interandina","rmse":1.26},{"bias":0.53,"codigo":"84075","color":"#D55E00","confianza":"Alta","corr":0.83,"familia":"No convencionales","lat":-0.14083,"lon":-78.353,"mae":0.88,"modelo":"METEOBLUE","n":108,"nombre":"Tababela","rating":6.26,"region":"Interandina","rmse":1.15},{"bias":-0.31,"codigo":"84163","color":"#A6761D","confianza":"Alta","corr":0.28,"familia":"No convencionales","lat":-1.5,"lon":-78.06667,"mae":0.83,"modelo":"NEMSSA","n":167,"nombre":"Pastaza","rating":6.09,"region":"Amazonia","rmse":1.1},{"bias":-0.22,"codigo":"84076","color":"#D55E00","confianza":"Alta","corr":0.68,"familia":"No convencionales","lat":-0.23179,"lon":-78.37043,"mae":1.1,"modelo":"METEOBLUE","n":108,"nombre":"La Tola","rating":6.0,"region":"Interandina","rmse":1.41},{"bias":0.49,"codigo":"84008","color":"#648FFF","confianza":"Alta","corr":0.83,"familia":"No convencionales","lat":-0.90406,"lon":-89.61431,"mae":0.99,"modelo":"UMGLOBAL10","n":144,"nombre":"S. Cristobal","rating":6.0,"region":"Insular","rmse":1.38},{"bias":0.48,"codigo":"84088","color":"#D55E00","confianza":"Alta","corr":0.65,"familia":"No convencionales","lat":-0.36593,"lon":-78.55513,"mae":0.99,"modelo":"METEOBLUE","n":108,"nombre":"Izobamba","rating":5.94,"region":"Interandina","rmse":1.26},{"bias":0.74,"codigo":"84123","color":"#D55E00","confianza":"Alta","corr":0.91,"familia":"No convencionales","lat":-0.91333,"lon":-78.61556,"mae":0.99,"modelo":"METEOBLUE","n":108,"nombre":"Latacunga","rating":5.94,"region":"Interandina","rmse":1.29},{"bias":-0.07,"codigo":"84027","color":"#648FFF","confianza":"Alta","corr":0.61,"familia":"No convencionales","lat":0.81667,"lon":-77.7,"mae":1.28,"modelo":"UMGLOBAL10","n":90,"nombre":"Tulc\u00e1n","rating":5.84,"region":"Interandina","rmse":1.64},{"bias":-0.2,"codigo":"84036","color":"#648FFF","confianza":"Alta","corr":0.59,"familia":"No convencionales","lat":0.60417,"lon":-77.81944,"mae":1.25,"modelo":"UMGLOBAL10","n":154,"nombre":"S. Gabriel","rating":5.72,"region":"Interandina","rmse":1.52},{"bias":0.15,"codigo":"M1240","color":"#D55E00","confianza":"Alta","corr":0.39,"familia":"No convencionales","lat":0.32978,"lon":-78.1322,"mae":1.25,"modelo":"METEOBLUE","n":108,"nombre":"Ibarra","rating":5.63,"region":"Interandina","rmse":1.51},{"bias":0.25,"codigo":"84226","color":"#D55E00","confianza":"Alta","corr":0.51,"familia":"No convencionales","lat":-2.55221,"lon":-78.94519,"mae":1.23,"modelo":"METEOBLUE","n":106,"nombre":"Ca\u00f1ar","rating":5.62,"region":"Interandina","rmse":1.49},{"bias":0.88,"codigo":"84179","color":"#D55E00","confianza":"Alta","corr":0.56,"familia":"No convencionales","lat":-1.5057,"lon":-77.956,"mae":0.98,"modelo":"METEOBLUE","n":107,"nombre":"Puyo","rating":5.58,"region":"Amazonia","rmse":1.23},{"bias":0.9,"codigo":"84010","color":"#648FFF","confianza":"Alta","corr":0.89,"familia":"No convencionales","lat":-0.909,"lon":-89.617,"mae":1.08,"modelo":"UMGLOBAL10","n":180,"nombre":"S. Cristobal A","rating":5.58,"region":"Insular","rmse":1.5},{"bias":-0.53,"codigo":"M0024","color":"#648FFF","confianza":"Alta","corr":0.37,"familia":"No convencionales","lat":-0.1783,"lon":-78.48773,"mae":1.02,"modelo":"UMGLOBAL10","n":160,"nombre":"I\u00f1aquito","rating":5.36,"region":"Interandina","rmse":1.64},{"bias":-0.67,"codigo":"84143","color":"#D55E00","confianza":"Alta","corr":0.64,"familia":"No convencionales","lat":-1.01998,"lon":-78.59456,"mae":1.3,"modelo":"METEOBLUE","n":108,"nombre":"Rumipamba","rating":5.22,"region":"Interandina","rmse":1.59},{"bias":-0.03,"codigo":"84160","color":"#00A9A5","confianza":"Alta","corr":0.12,"familia":"No convencionales","lat":-1.3671,"lon":-78.60554,"mae":1.73,"modelo":"NEMSGLOBAL","n":139,"nombre":"Querochaca","rating":4.84,"region":"Interandina","rmse":2.18},{"bias":1.19,"codigo":"84045","color":"#D55E00","confianza":"Alta","corr":0.51,"familia":"No convencionales","lat":0.25694,"lon":-78.40524,"mae":1.31,"modelo":"METEOBLUE","n":105,"nombre":"Inguincho","rating":4.83,"region":"Interandina","rmse":1.57},{"bias":0.42,"codigo":"84270","color":"#785EF0","confianza":"Alta","corr":0.24,"familia":"No convencionales","lat":-4.0375,"lon":-79.2034,"mae":1.64,"modelo":"MFGLOBAL","n":104,"nombre":"Loja Argelia","rating":4.61,"region":"Interandina","rmse":1.97},{"bias":-1.05,"codigo":"84147","color":"#D55E00","confianza":"Alta","corr":0.51,"familia":"No convencionales","lat":-1.21413,"lon":-78.57455,"mae":1.53,"modelo":"METEOBLUE","n":50,"nombre":"Ambato","rating":4.59,"region":"Interandina","rmse":1.77},{"bias":-0.97,"codigo":"84176","color":"#D55E00","confianza":"Alta","corr":0.39,"familia":"No convencionales","lat":-1.65333,"lon":-78.54889,"mae":1.53,"modelo":"METEOBLUE","n":72,"nombre":"Riobamba","rating":4.47,"region":"Interandina","rmse":1.87},{"bias":0.02,"codigo":"84056","color":"#B33DC6","confianza":"Alta","corr":0.07,"familia":"No convencionales","lat":0.01116,"lon":-78.25505,"mae":2.48,"modelo":"SA01","n":52,"nombre":"Tomal\u00f3n","rating":4.17,"region":"Interandina","rmse":3.02},{"bias":-2.1,"codigo":"M0037","color":"#648FFF","confianza":"Media","corr":0.67,"familia":"No convencionales","lat":-2.11805,"lon":-79.60038,"mae":2.1,"modelo":"UMGLOBAL10","n":23,"nombre":"Milagro","rating":3.9,"region":"Litoral","rmse":2.22}],"metricas":{"calif_media":6.2,"estaciones":40,"mas_ganador":"METEOBLUE"},"modo":"continuous","ranking":[{"bias":0.17,"color":"#D55E00","confianza":"Alta","corr":0.5,"estaciones":39,"familia":"No convencionales","mae":1.03,"modelo":"METEOBLUE","n":100,"rating":5.92,"rmse":1.28},{"bias":0.26,"color":"#785EF0","confianza":"Alta","corr":0.35,"estaciones":39,"familia":"No convencionales","mae":1.48,"modelo":"MFGLOBAL","n":99,"rating":4.94,"rmse":1.77},{"bias":-0.64,"color":"#648FFF","confianza":"Alta","corr":0.39,"estaciones":40,"familia":"No convencionales","mae":1.62,"modelo":"UMGLOBAL10","n":147,"rating":4.75,"rmse":2.24},{"bias":-0.4,"color":"#A6761D","confianza":"Alta","corr":0.18,"estaciones":37,"familia":"No convencionales","mae":1.71,"modelo":"NEMSSA","n":147,"rating":4.39,"rmse":2.5},{"bias":-0.84,"color":"#00A9A5","confianza":"Alta","corr":0.26,"estaciones":40,"familia":"No convencionales","mae":1.95,"modelo":"NEMSGLOBAL","n":147,"rating":4.24,"rmse":2.58},{"bias":-1.34,"color":"#CC79A7","confianza":"Alta","corr":0.35,"estaciones":40,"familia":"No convencionales","mae":2.24,"modelo":"GEM15","n":145,"rating":4.17,"rmse":2.84},{"bias":-0.64,"color":"#56B4E9","confianza":"Alta","corr":0.32,"estaciones":40,"familia":"No convencionales","mae":1.97,"modelo":"NEMSGLOBAL_E","n":146,"rating":4.1,"rmse":2.45},{"bias":-1.8,"color":"#B33DC6","confianza":"Alta","corr":0.24,"estaciones":36,"familia":"No convencionales","mae":2.22,"modelo":"SA01","n":50,"rating":3.83,"rmse":2.53}],"sintesis_region":[{"modelo":"METEOBLUE","region":"Amazonia"},{"modelo":"UMGLOBAL10","region":"Insular"},{"modelo":"METEOBLUE","region":"Interandina"},{"modelo":"METEOBLUE","region":"Litoral"}],"ventana":"todo"}
