{"bloque":"tmax","bloques":[{"clave":"precip_det","etiqueta":"Precipitaci\u00f3n: detecci\u00f3n"},{"clave":"precip_cua","etiqueta":"Precipitaci\u00f3n: cuantificaci\u00f3n"},{"clave":"tmax","etiqueta":"Temperatura m\u00e1xima"},{"clave":"tmin","etiqueta":"Temperatura m\u00ednima"}],"estaciones":[{"codigo":"84099","nombre":"El Coca","region":"Amazonia"},{"codigo":"84253","nombre":"Gualaquiza","region":"Amazonia"},{"codigo":"84151","nombre":"Jumandy","region":"Amazonia"},{"codigo":"84063","nombre":"Lago Agrio","region":"Amazonia"},{"codigo":"84217","nombre":"Macas","region":"Amazonia"},{"codigo":"84132","nombre":"N. Rocafu","region":"Amazonia"},{"codigo":"84163","nombre":"Pastaza","region":"Amazonia"},{"codigo":"84179","nombre":"Puyo","region":"Amazonia"},{"codigo":"84001","nombre":"Baltra","region":"Insular"},{"codigo":"84008","nombre":"S. Cristobal","region":"Insular"},{"codigo":"84010","nombre":"S. Cristobal A","region":"Insular"},{"codigo":"84147","nombre":"Ambato","region":"Interandina"},{"codigo":"84226","nombre":"Ca\u00f1ar","region":"Interandina"},{"codigo":"84239","nombre":"Cuenca","region":"Interandina"},{"codigo":"84173","nombre":"ESPOCH","region":"Interandina"},{"codigo":"M1240","nombre":"Ibarra","region":"Interandina"},{"codigo":"84045","nombre":"Inguincho","region":"Interandina"},{"codigo":"84088","nombre":"Izobamba","region":"Interandina"},{"codigo":"M0024","nombre":"I\u00f1aquito","region":"Interandina"},{"codigo":"84076","nombre":"La Tola","region":"Interandina"},{"codigo":"84265","nombre":"La Toma","region":"Interandina"},{"codigo":"84123","nombre":"Latacunga","region":"Interandina"},{"codigo":"84270","nombre":"Loja Argelia","region":"Interandina"},{"codigo":"84160","nombre":"Querochaca","region":"Interandina"},{"codigo":"84176","nombre":"Riobamba","region":"Interandina"},{"codigo":"84143","nombre":"Rumipamba","region":"Interandina"},{"codigo":"84036","nombre":"S. Gabriel","region":"Interandina"},{"codigo":"84075","nombre":"Tababela","region":"Interandina"},{"codigo":"84056","nombre":"Tomal\u00f3n","region":"Interandina"},{"codigo":"84027","nombre":"Tulc\u00e1n","region":"Interandina"},{"codigo":"84018","nombre":"Esmeraldas","region":"Litoral"},{"codigo":"84203","nombre":"Guayaquil","region":"Litoral"},{"codigo":"84050","nombre":"La Concordia","region":"Litoral"},{"codigo":"84117","nombre":"Manta","region":"Litoral"},{"codigo":"M0037","nombre":"Milagro","region":"Litoral"},{"codigo":"84140","nombre":"Pichilingue","region":"Litoral"},{"codigo":"84135","nombre":"Portoviejo","region":"Litoral"},{"codigo":"84105","nombre":"Puerto Ila","region":"Litoral"},{"codigo":"84200","nombre":"Salinas","region":"Litoral"},{"codigo":"84252","nombre":"Sta. Rosa","region":"Litoral"}],"familia":"ML","ganadores":[{"bias":-0.23,"codigo":"84045","color":"#DC267F","confianza":"Media","corr":0.54,"familia":"ML","lat":0.25694,"lon":-78.40524,"mae":0.39,"modelo":"ML_ET","n":15,"nombre":"Inguincho","rating":7.68,"region":"Interandina","rmse":0.54},{"bias":-0.05,"codigo":"84143","color":"#F781BF","confianza":"Media","corr":0.69,"familia":"ML","lat":-1.01998,"lon":-78.59456,"mae":0.51,"modelo":"ML_RF","n":15,"nombre":"Rumipamba","rating":7.57,"region":"Interandina","rmse":0.82},{"bias":-0.22,"codigo":"84203","color":"#F781BF","confianza":"Media","corr":0.72,"familia":"ML","lat":-2.15333,"lon":-79.88333,"mae":0.5,"modelo":"ML_RF","n":15,"nombre":"Guayaquil","rating":7.49,"region":"Litoral","rmse":0.68},{"bias":-0.05,"codigo":"84123","color":"#D55E00","confianza":"Media","corr":0.49,"familia":"ML","lat":-0.91333,"lon":-78.61556,"mae":0.55,"modelo":"ML_GBR","n":15,"nombre":"Latacunga","rating":7.47,"region":"Interandina","rmse":0.65},{"bias":-0.07,"codigo":"84088","color":"#F781BF","confianza":"Media","corr":0.57,"familia":"ML","lat":-0.36593,"lon":-78.55513,"mae":0.55,"modelo":"ML_RF","n":15,"nombre":"Izobamba","rating":7.46,"region":"Interandina","rmse":0.7},{"bias":0.0,"codigo":"84076","color":"#F781BF","confianza":"Media","corr":0.67,"familia":"ML","lat":-0.23179,"lon":-78.37043,"mae":0.67,"modelo":"ML_RF","n":15,"nombre":"La Tola","rating":7.31,"region":"Interandina","rmse":0.85},{"bias":-0.19,"codigo":"84117","color":"#377EB8","confianza":"Media","corr":0.44,"familia":"ML","lat":-0.95,"lon":-80.68333,"mae":0.56,"modelo":"ML_RIDGE","n":15,"nombre":"Manta","rating":7.08,"region":"Litoral","rmse":0.78},{"bias":-0.29,"codigo":"84001","color":"#B33DC6","confianza":"Media","corr":0.39,"familia":"ML","lat":-0.445,"lon":-90.269,"mae":0.62,"modelo":"RIDGE_RICH","n":15,"nombre":"Baltra","rating":6.87,"region":"Insular","rmse":0.71},{"bias":-0.0,"codigo":"84010","color":"#377EB8","confianza":"Media","corr":0.29,"familia":"ML","lat":-0.909,"lon":-89.617,"mae":0.67,"modelo":"ML_RIDGE","n":15,"nombre":"S. Cristobal A","rating":6.83,"region":"Insular","rmse":1.03},{"bias":-0.08,"codigo":"84270","color":"#F781BF","confianza":"Media","corr":0.84,"familia":"ML","lat":-4.0375,"lon":-79.2034,"mae":0.9,"modelo":"LGBM_REG","n":15,"nombre":"Loja Argelia","rating":6.82,"region":"Interandina","rmse":1.08},{"bias":-0.09,"codigo":"M1240","color":"#FF7F00","confianza":"Media","corr":0.32,"familia":"ML","lat":0.32978,"lon":-78.1322,"mae":0.68,"modelo":"ML_ELASTICNET","n":15,"nombre":"Ibarra","rating":6.8,"region":"Interandina","rmse":0.91},{"bias":-0.21,"codigo":"84160","color":"#F781BF","confianza":"Media","corr":0.78,"familia":"ML","lat":-1.3671,"lon":-78.60554,"mae":0.81,"modelo":"ML_RF","n":15,"nombre":"Querochaca","rating":6.76,"region":"Interandina","rmse":1.01},{"bias":-0.12,"codigo":"84105","color":"#DC267F","confianza":"Media","corr":0.72,"familia":"ML","lat":-0.493,"lon":-79.34892,"mae":0.88,"modelo":"ML_ET","n":15,"nombre":"Puerto Ila","rating":6.69,"region":"Litoral","rmse":1.06},{"bias":-0.4,"codigo":"84135","color":"#4DAF4A","confianza":"Media","corr":0.7,"familia":"ML","lat":-1.17343,"lon":-80.38736,"mae":0.77,"modelo":"ML_LGBM","n":15,"nombre":"Portoviejo","rating":6.61,"region":"Litoral","rmse":0.92},{"bias":-0.29,"codigo":"84200","color":"#E41A1C","confianza":"Media","corr":0.17,"familia":"ML","lat":-2.2,"lon":-80.98972,"mae":0.49,"modelo":"ML_CAT","n":15,"nombre":"Salinas","rating":6.54,"region":"Litoral","rmse":1.16},{"bias":-0.09,"codigo":"84008","color":"#377EB8","confianza":"Media","corr":0.24,"familia":"ML","lat":-0.90406,"lon":-89.61431,"mae":0.72,"modelo":"ML_RIDGE","n":15,"nombre":"S. Cristobal","rating":6.54,"region":"Insular","rmse":1.08},{"bias":-0.03,"codigo":"84036","color":"#DC267F","confianza":"Media","corr":0.18,"familia":"ML","lat":0.60417,"lon":-77.81944,"mae":0.82,"modelo":"ML_ET","n":15,"nombre":"S. Gabriel","rating":6.51,"region":"Interandina","rmse":0.98},{"bias":-0.45,"codigo":"84018","color":"#984EA3","confianza":"Media","corr":0.56,"familia":"ML","lat":0.97917,"lon":-79.62444,"mae":0.77,"modelo":"ML_HUBER","n":15,"nombre":"Esmeraldas","rating":6.41,"region":"Litoral","rmse":0.95},{"bias":-0.07,"codigo":"84179","color":"#56B4E9","confianza":"Media","corr":0.68,"familia":"ML","lat":-1.5057,"lon":-77.956,"mae":1.06,"modelo":"ML_HGB","n":15,"nombre":"Puyo","rating":6.35,"region":"Amazonia","rmse":1.3},{"bias":0.06,"codigo":"84099","color":"#DC267F","confianza":"Media","corr":0.82,"familia":"ML","lat":-0.46056,"lon":-76.98806,"mae":1.11,"modelo":"ML_ET","n":15,"nombre":"El Coca","rating":6.34,"region":"Amazonia","rmse":1.44},{"bias":0.02,"codigo":"84140","color":"#4DAF4A","confianza":"Media","corr":0.46,"familia":"ML","lat":-1.07434,"lon":-79.4929,"mae":1.0,"modelo":"ML_LGBM","n":15,"nombre":"Pichilingue","rating":6.34,"region":"Litoral","rmse":1.24},{"bias":0.24,"codigo":"84147","color":"#56B4E9","confianza":"Baja","corr":0.71,"familia":"ML","lat":-1.21413,"lon":-78.57455,"mae":0.9,"modelo":"ML_HGB","n":11,"nombre":"Ambato","rating":6.29,"region":"Interandina","rmse":1.36},{"bias":-0.29,"codigo":"84163","color":"#56B4E9","confianza":"Media","corr":0.67,"familia":"ML","lat":-1.5,"lon":-78.06667,"mae":0.93,"modelo":"ML_HGB","n":15,"nombre":"Pastaza","rating":6.26,"region":"Amazonia","rmse":1.22},{"bias":0.07,"codigo":"84063","color":"#4DAF4A","confianza":"Media","corr":0.61,"familia":"ML","lat":0.0925,"lon":-76.86944,"mae":1.15,"modelo":"ML_LGBM","n":15,"nombre":"Lago Agrio","rating":6.1,"region":"Amazonia","rmse":1.44},{"bias":0.04,"codigo":"84239","color":"#FF7F00","confianza":"Media","corr":0.51,"familia":"ML","lat":-2.88917,"lon":-78.98417,"mae":1.11,"modelo":"ML_ELASTICNET","n":15,"nombre":"Cuenca","rating":5.99,"region":"Interandina","rmse":1.61},{"bias":0.0,"codigo":"M0024","color":"#D55E00","confianza":"Media","corr":0.41,"familia":"ML","lat":-0.1783,"lon":-78.48773,"mae":1.2,"modelo":"ML_GBR","n":15,"nombre":"I\u00f1aquito","rating":5.97,"region":"Interandina","rmse":1.43},{"bias":-0.3,"codigo":"84050","color":"#E41A1C","confianza":"Media","corr":0.27,"familia":"ML","lat":-0.02478,"lon":-79.38028,"mae":0.97,"modelo":"ML_CAT","n":15,"nombre":"La Concordia","rating":5.89,"region":"Litoral","rmse":1.13},{"bias":-0.6,"codigo":"84226","color":"#DC267F","confianza":"Media","corr":0.69,"familia":"ML","lat":-2.55221,"lon":-78.94519,"mae":1.03,"modelo":"ML_ET","n":15,"nombre":"Ca\u00f1ar","rating":5.82,"region":"Interandina","rmse":1.25},{"bias":0.01,"codigo":"84151","color":"#DC267F","confianza":"Media","corr":0.39,"familia":"ML","lat":-1.057,"lon":-77.584,"mae":1.28,"modelo":"ML_ET","n":15,"nombre":"Jumandy","rating":5.72,"region":"Amazonia","rmse":1.67},{"bias":0.18,"codigo":"84056","color":"#DC267F","confianza":"Media","corr":0.36,"familia":"ML","lat":0.01116,"lon":-78.25505,"mae":1.2,"modelo":"ML_ET","n":15,"nombre":"Tomal\u00f3n","rating":5.58,"region":"Interandina","rmse":1.56},{"bias":-0.08,"codigo":"84252","color":"#F781BF","confianza":"Media","corr":0.2,"familia":"ML","lat":-3.43583,"lon":-79.98333,"mae":1.2,"modelo":"LGBM_REG","n":15,"nombre":"Sta. Rosa","rating":5.58,"region":"Litoral","rmse":1.59},{"bias":-0.54,"codigo":"84027","color":"#DC267F","confianza":"Media","corr":0.42,"familia":"ML","lat":0.81667,"lon":-77.7,"mae":1.03,"modelo":"ML_XGB","n":15,"nombre":"Tulc\u00e1n","rating":5.47,"region":"Interandina","rmse":1.49},{"bias":-1.07,"codigo":"84173","color":"#DC267F","confianza":"Media","corr":0.81,"familia":"ML","lat":-1.65083,"lon":-78.68521,"mae":1.21,"modelo":"ML_ET","n":15,"nombre":"ESPOCH","rating":5.42,"region":"Interandina","rmse":1.29},{"bias":0.18,"codigo":"M0037","color":"#DC267F","confianza":"Media","corr":0.1,"familia":"ML","lat":-2.11805,"lon":-79.60038,"mae":1.1,"modelo":"ML_XGB","n":15,"nombre":"Milagro","rating":5.33,"region":"Litoral","rmse":1.79},{"bias":-0.61,"codigo":"84075","color":"#DC267F","confianza":"Media","corr":0.53,"familia":"ML","lat":-0.14083,"lon":-78.353,"mae":1.28,"modelo":"ML_ET","n":15,"nombre":"Tababela","rating":5.21,"region":"Interandina","rmse":1.54},{"bias":0.31,"codigo":"84176","color":"#B33DC6","confianza":"Media","corr":0.2,"familia":"ML","lat":-1.65333,"lon":-78.54889,"mae":1.25,"modelo":"RIDGE_RICH","n":15,"nombre":"Riobamba","rating":5.11,"region":"Interandina","rmse":1.77},{"bias":-0.48,"codigo":"84132","color":"#F781BF","confianza":"Media","corr":0.65,"familia":"ML","lat":-0.92003,"lon":-75.40303,"mae":1.61,"modelo":"LGBM_REG","n":15,"nombre":"N. Rocafu","rating":4.96,"region":"Amazonia","rmse":1.89},{"bias":-0.87,"codigo":"84265","color":"#B33DC6","confianza":"Media","corr":0.49,"familia":"ML","lat":-3.99556,"lon":-79.37167,"mae":1.36,"modelo":"RIDGE_RICH","n":15,"nombre":"La Toma","rating":4.81,"region":"Interandina","rmse":1.77},{"bias":-0.38,"codigo":"84253","color":"#F781BF","confianza":"Media","corr":0.58,"familia":"ML","lat":-3.42333,"lon":-78.56694,"mae":1.78,"modelo":"LGBM_REG","n":15,"nombre":"Gualaquiza","rating":4.76,"region":"Amazonia","rmse":2.17},{"bias":-0.36,"codigo":"84217","color":"#984EA3","confianza":"Media","corr":0.2,"familia":"ML","lat":-2.29861,"lon":-78.12056,"mae":1.67,"modelo":"ML_HUBER","n":15,"nombre":"Macas","rating":4.49,"region":"Amazonia","rmse":2.25}],"metricas":{"calif_media":6.2,"estaciones":40,"mas_ganador":"ML_ET"},"modo":"continuous","ranking":[{"bias":-0.24,"color":"#DC267F","confianza":"Media","corr":0.44,"estaciones":39,"familia":"ML","mae":1.05,"modelo":"ML_ET","n":15,"rating":5.82,"rmse":1.39},{"bias":-0.3,"color":"#F781BF","confianza":"Media","corr":0.43,"estaciones":39,"familia":"ML","mae":1.07,"modelo":"ML_RF","n":15,"rating":5.79,"rmse":1.41},{"bias":-0.48,"color":"#D55E00","confianza":"Media","corr":0.37,"estaciones":39,"familia":"ML","mae":1.21,"modelo":"ML_GBR","n":15,"rating":5.47,"rmse":1.58},{"bias":-0.54,"color":"#DC267F","confianza":"Media","corr":0.42,"estaciones":40,"familia":"ML","mae":1.2,"modelo":"ML_XGB","n":15,"rating":5.45,"rmse":1.56},{"bias":-0.48,"color":"#E41A1C","confianza":"Media","corr":0.4,"estaciones":40,"familia":"ML","mae":1.21,"modelo":"ML_CAT","n":15,"rating":5.42,"rmse":1.57},{"bias":-0.56,"color":"#4DAF4A","confianza":"Media","corr":0.43,"estaciones":40,"familia":"ML","mae":1.19,"modelo":"ML_LGBM","n":15,"rating":5.4,"rmse":1.55},{"bias":-0.6,"color":"#56B4E9","confianza":"Media","corr":0.44,"estaciones":39,"familia":"ML","mae":1.2,"modelo":"ML_HGB","n":15,"rating":5.4,"rmse":1.54},{"bias":-0.14,"color":"#984EA3","confianza":"Media","corr":0.25,"estaciones":40,"familia":"ML","mae":1.2,"modelo":"ML_HUBER","n":15,"rating":5.38,"rmse":1.55},{"bias":-0.19,"color":"#377EB8","confianza":"Media","corr":0.25,"estaciones":40,"familia":"ML","mae":1.21,"modelo":"ML_RIDGE","n":15,"rating":5.36,"rmse":1.56},{"bias":-0.2,"color":"#FF7F00","confianza":"Media","corr":0.25,"estaciones":40,"familia":"ML","mae":1.21,"modelo":"ML_ELASTICNET","n":15,"rating":5.36,"rmse":1.56},{"bias":0.04,"color":"#B33DC6","confianza":"Media","corr":0.23,"estaciones":40,"familia":"ML","mae":1.68,"modelo":"RIDGE_RICH","n":15,"rating":4.72,"rmse":2.08},{"bias":0.23,"color":"#F781BF","confianza":"Media","corr":0.25,"estaciones":40,"familia":"ML","mae":1.74,"modelo":"LGBM_REG","n":15,"rating":4.64,"rmse":2.15}],"sintesis_region":[{"modelo":"ML_HGB","region":"Amazonia"},{"modelo":"ML_RIDGE","region":"Insular"},{"modelo":"ML_ET","region":"Interandina"},{"modelo":"ML_LGBM","region":"Litoral"}],"ventana":"15"}
