{"bloque":"tmax","bloques":[{"clave":"precip_det","etiqueta":"Precipitaci\u00f3n: detecci\u00f3n"},{"clave":"precip_cua","etiqueta":"Precipitaci\u00f3n: cuantificaci\u00f3n"},{"clave":"tmax","etiqueta":"Temperatura m\u00e1xima"},{"clave":"tmin","etiqueta":"Temperatura m\u00ednima"}],"estaciones":[{"codigo":"84099","nombre":"El Coca","region":"Amazonia"},{"codigo":"84253","nombre":"Gualaquiza","region":"Amazonia"},{"codigo":"84151","nombre":"Jumandy","region":"Amazonia"},{"codigo":"84063","nombre":"Lago Agrio","region":"Amazonia"},{"codigo":"84217","nombre":"Macas","region":"Amazonia"},{"codigo":"84132","nombre":"N. Rocafu","region":"Amazonia"},{"codigo":"84163","nombre":"Pastaza","region":"Amazonia"},{"codigo":"84179","nombre":"Puyo","region":"Amazonia"},{"codigo":"84001","nombre":"Baltra","region":"Insular"},{"codigo":"84008","nombre":"S. Cristobal","region":"Insular"},{"codigo":"84010","nombre":"S. Cristobal A","region":"Insular"},{"codigo":"84147","nombre":"Ambato","region":"Interandina"},{"codigo":"84226","nombre":"Ca\u00f1ar","region":"Interandina"},{"codigo":"84239","nombre":"Cuenca","region":"Interandina"},{"codigo":"84173","nombre":"ESPOCH","region":"Interandina"},{"codigo":"M1240","nombre":"Ibarra","region":"Interandina"},{"codigo":"84045","nombre":"Inguincho","region":"Interandina"},{"codigo":"84088","nombre":"Izobamba","region":"Interandina"},{"codigo":"M0024","nombre":"I\u00f1aquito","region":"Interandina"},{"codigo":"84076","nombre":"La Tola","region":"Interandina"},{"codigo":"84265","nombre":"La Toma","region":"Interandina"},{"codigo":"84123","nombre":"Latacunga","region":"Interandina"},{"codigo":"84270","nombre":"Loja Argelia","region":"Interandina"},{"codigo":"84160","nombre":"Querochaca","region":"Interandina"},{"codigo":"84176","nombre":"Riobamba","region":"Interandina"},{"codigo":"84143","nombre":"Rumipamba","region":"Interandina"},{"codigo":"84036","nombre":"S. Gabriel","region":"Interandina"},{"codigo":"84075","nombre":"Tababela","region":"Interandina"},{"codigo":"84056","nombre":"Tomal\u00f3n","region":"Interandina"},{"codigo":"84027","nombre":"Tulc\u00e1n","region":"Interandina"},{"codigo":"84018","nombre":"Esmeraldas","region":"Litoral"},{"codigo":"84203","nombre":"Guayaquil","region":"Litoral"},{"codigo":"84050","nombre":"La Concordia","region":"Litoral"},{"codigo":"84117","nombre":"Manta","region":"Litoral"},{"codigo":"M0037","nombre":"Milagro","region":"Litoral"},{"codigo":"84140","nombre":"Pichilingue","region":"Litoral"},{"codigo":"84135","nombre":"Portoviejo","region":"Litoral"},{"codigo":"84105","nombre":"Puerto Ila","region":"Litoral"},{"codigo":"84200","nombre":"Salinas","region":"Litoral"},{"codigo":"84252","nombre":"Sta. Rosa","region":"Litoral"}],"familia":"No convencionales","ganadores":[{"bias":0.11,"codigo":"84200","color":"#785EF0","confianza":"Media","corr":0.19,"familia":"No convencionales","lat":-2.2,"lon":-80.98972,"mae":0.45,"modelo":"NEMSGLOBAL_E","n":15,"nombre":"Salinas","rating":7.42,"region":"Litoral","rmse":0.53},{"bias":-0.06,"codigo":"84160","color":"#A6761D","confianza":"Media","corr":0.71,"familia":"No convencionales","lat":-1.3671,"lon":-78.60554,"mae":0.96,"modelo":"NEMSSA","n":15,"nombre":"Querochaca","rating":6.58,"region":"Interandina","rmse":1.21},{"bias":-0.18,"codigo":"84088","color":"#785EF0","confianza":"Media","corr":0.34,"familia":"No convencionales","lat":-0.36593,"lon":-78.55513,"mae":0.78,"modelo":"NEMSGLOBAL_E","n":15,"nombre":"Izobamba","rating":6.45,"region":"Interandina","rmse":1.01},{"bias":-0.09,"codigo":"84163","color":"#648FFF","confianza":"Media","corr":0.59,"familia":"No convencionales","lat":-1.5,"lon":-78.06667,"mae":0.97,"modelo":"UMGLOBAL10","n":15,"nombre":"Pastaza","rating":6.39,"region":"Amazonia","rmse":1.23},{"bias":0.33,"codigo":"84203","color":"#CC79A7","confianza":"Media","corr":0.67,"familia":"No convencionales","lat":-2.15333,"lon":-79.88333,"mae":0.96,"modelo":"GEM15","n":15,"nombre":"Guayaquil","rating":6.28,"region":"Litoral","rmse":1.06},{"bias":-0.66,"codigo":"84123","color":"#CC79A7","confianza":"Media","corr":0.66,"familia":"No convencionales","lat":-0.91333,"lon":-78.61556,"mae":0.82,"modelo":"GEM15","n":15,"nombre":"Latacunga","rating":6.2,"region":"Interandina","rmse":1.01},{"bias":0.51,"codigo":"84045","color":"#D55E00","confianza":"Media","corr":0.36,"familia":"No convencionales","lat":0.25694,"lon":-78.40524,"mae":0.74,"modelo":"METEOBLUE","n":15,"nombre":"Inguincho","rating":6.17,"region":"Interandina","rmse":1.01},{"bias":-0.04,"codigo":"84140","color":"#D55E00","confianza":"Media","corr":0.3,"familia":"No convencionales","lat":-1.07434,"lon":-79.4929,"mae":1.07,"modelo":"METEOBLUE","n":15,"nombre":"Pichilingue","rating":5.99,"region":"Litoral","rmse":1.37},{"bias":-0.08,"codigo":"84179","color":"#CC79A7","confianza":"Media","corr":0.74,"familia":"No convencionales","lat":-1.5057,"lon":-77.956,"mae":1.32,"modelo":"GEM15","n":15,"nombre":"Puyo","rating":5.91,"region":"Amazonia","rmse":1.63},{"bias":-0.41,"codigo":"84117","color":"#A6761D","confianza":"Media","corr":-0.01,"familia":"No convencionales","lat":-0.95,"lon":-80.68333,"mae":0.88,"modelo":"NEMSSA","n":15,"nombre":"Manta","rating":5.72,"region":"Litoral","rmse":1.02},{"bias":-0.41,"codigo":"84105","color":"#D55E00","confianza":"Media","corr":0.45,"familia":"No convencionales","lat":-0.493,"lon":-79.34892,"mae":1.04,"modelo":"METEOBLUE","n":15,"nombre":"Puerto Ila","rating":5.72,"region":"Litoral","rmse":1.31},{"bias":0.62,"codigo":"84143","color":"#A6761D","confianza":"Media","corr":0.47,"familia":"No convencionales","lat":-1.01998,"lon":-78.59456,"mae":1.04,"modelo":"NEMSSA","n":15,"nombre":"Rumipamba","rating":5.5,"region":"Interandina","rmse":1.4},{"bias":0.3,"codigo":"84270","color":"#648FFF","confianza":"Media","corr":0.71,"familia":"No convencionales","lat":-4.0375,"lon":-79.2034,"mae":1.39,"modelo":"UMGLOBAL10","n":15,"nombre":"Loja Argelia","rating":5.49,"region":"Interandina","rmse":1.69},{"bias":1.0,"codigo":"M1240","color":"#648FFF","confianza":"Media","corr":0.64,"familia":"No convencionales","lat":0.32978,"lon":-78.1322,"mae":1.11,"modelo":"UMGLOBAL10","n":15,"nombre":"Ibarra","rating":5.42,"region":"Interandina","rmse":1.28},{"bias":0.51,"codigo":"M0037","color":"#D55E00","confianza":"Media","corr":0.51,"familia":"No convencionales","lat":-2.11805,"lon":-79.60038,"mae":1.12,"modelo":"METEOBLUE","n":15,"nombre":"Milagro","rating":5.38,"region":"Litoral","rmse":1.66},{"bias":-0.78,"codigo":"84076","color":"#D55E00","confianza":"Media","corr":0.41,"familia":"No convencionales","lat":-0.23179,"lon":-78.37043,"mae":1.08,"modelo":"METEOBLUE","n":15,"nombre":"La Tola","rating":5.35,"region":"Interandina","rmse":1.3},{"bias":-0.87,"codigo":"84252","color":"#D55E00","confianza":"Media","corr":0.79,"familia":"No convencionales","lat":-3.43583,"lon":-79.98333,"mae":1.29,"modelo":"METEOBLUE","n":15,"nombre":"Sta. Rosa","rating":5.28,"region":"Litoral","rmse":1.52},{"bias":-0.76,"codigo":"M0024","color":"#CC79A7","confianza":"Media","corr":0.51,"familia":"No convencionales","lat":-0.1783,"lon":-78.48773,"mae":1.28,"modelo":"GEM15","n":15,"nombre":"I\u00f1aquito","rating":5.04,"region":"Interandina","rmse":1.63},{"bias":-0.86,"codigo":"84147","color":"#A6761D","confianza":"Media","corr":0.64,"familia":"No convencionales","lat":-1.21413,"lon":-78.57455,"mae":1.49,"modelo":"NEMSSA","n":15,"nombre":"Ambato","rating":4.84,"region":"Interandina","rmse":1.75},{"bias":-1.17,"codigo":"84036","color":"#D55E00","confianza":"Media","corr":0.25,"familia":"No convencionales","lat":0.60417,"lon":-77.81944,"mae":1.22,"modelo":"METEOBLUE","n":15,"nombre":"S. Gabriel","rating":4.72,"region":"Interandina","rmse":1.52},{"bias":-1.09,"codigo":"84135","color":"#CC79A7","confianza":"Media","corr":0.41,"familia":"No convencionales","lat":-1.17343,"lon":-80.38736,"mae":1.42,"modelo":"GEM15","n":15,"nombre":"Portoviejo","rating":4.66,"region":"Litoral","rmse":1.61},{"bias":-1.51,"codigo":"84239","color":"#D55E00","confianza":"Media","corr":0.76,"familia":"No convencionales","lat":-2.88917,"lon":-78.98417,"mae":1.51,"modelo":"METEOBLUE","n":15,"nombre":"Cuenca","rating":4.64,"region":"Interandina","rmse":1.83},{"bias":-1.25,"codigo":"84063","color":"#D55E00","confianza":"Media","corr":0.59,"familia":"No convencionales","lat":0.0925,"lon":-76.86944,"mae":1.5,"modelo":"METEOBLUE","n":15,"nombre":"Lago Agrio","rating":4.53,"region":"Amazonia","rmse":1.92},{"bias":-0.87,"codigo":"84151","color":"#D55E00","confianza":"Media","corr":0.44,"familia":"No convencionales","lat":-1.057,"lon":-77.584,"mae":1.61,"modelo":"METEOBLUE","n":15,"nombre":"Jumandy","rating":4.51,"region":"Amazonia","rmse":1.87},{"bias":-0.36,"codigo":"84217","color":"#CC79A7","confianza":"Media","corr":0.44,"familia":"No convencionales","lat":-2.29861,"lon":-78.12056,"mae":1.89,"modelo":"GEM15","n":15,"nombre":"Macas","rating":4.51,"region":"Amazonia","rmse":2.37},{"bias":-1.53,"codigo":"84010","color":"#D55E00","confianza":"Media","corr":0.55,"familia":"No convencionales","lat":-0.909,"lon":-89.617,"mae":1.53,"modelo":"METEOBLUE","n":15,"nombre":"S. Cristobal A","rating":4.43,"region":"Insular","rmse":1.84},{"bias":-1.16,"codigo":"84027","color":"#CC79A7","confianza":"Media","corr":0.4,"familia":"No convencionales","lat":0.81667,"lon":-77.7,"mae":1.54,"modelo":"GEM15","n":15,"nombre":"Tulc\u00e1n","rating":4.4,"region":"Interandina","rmse":1.83},{"bias":-1.58,"codigo":"84099","color":"#D55E00","confianza":"Media","corr":0.74,"familia":"No convencionales","lat":-0.46056,"lon":-76.98806,"mae":1.64,"modelo":"METEOBLUE","n":15,"nombre":"El Coca","rating":4.32,"region":"Amazonia","rmse":2.26},{"bias":-1.34,"codigo":"84226","color":"#00A9A5","confianza":"Media","corr":0.59,"familia":"No convencionales","lat":-2.55221,"lon":-78.94519,"mae":1.74,"modelo":"NEMSGLOBAL","n":15,"nombre":"Ca\u00f1ar","rating":4.25,"region":"Interandina","rmse":2.08},{"bias":-1.47,"codigo":"84265","color":"#D55E00","confianza":"Media","corr":0.5,"familia":"No convencionales","lat":-3.99556,"lon":-79.37167,"mae":1.68,"modelo":"METEOBLUE","n":15,"nombre":"La Toma","rating":4.17,"region":"Interandina","rmse":2.09},{"bias":-0.59,"codigo":"84132","color":"#CC79A7","confianza":"Media","corr":0.23,"familia":"No convencionales","lat":-0.92003,"lon":-75.40303,"mae":1.99,"modelo":"GEM15","n":15,"nombre":"N. Rocafu","rating":4.02,"region":"Amazonia","rmse":2.47},{"bias":-2.05,"codigo":"84050","color":"#785EF0","confianza":"Media","corr":0.79,"familia":"No convencionales","lat":-0.02478,"lon":-79.38028,"mae":2.05,"modelo":"MFGLOBAL","n":15,"nombre":"La Concordia","rating":3.97,"region":"Litoral","rmse":2.41},{"bias":-1.8,"codigo":"84008","color":"#D55E00","confianza":"Media","corr":0.4,"familia":"No convencionales","lat":-0.90406,"lon":-89.61431,"mae":1.8,"modelo":"METEOBLUE","n":15,"nombre":"S. Cristobal","rating":3.88,"region":"Insular","rmse":2.23},{"bias":-1.69,"codigo":"84018","color":"#D55E00","confianza":"Media","corr":0.17,"familia":"No convencionales","lat":0.97917,"lon":-79.62444,"mae":1.73,"modelo":"METEOBLUE","n":15,"nombre":"Esmeraldas","rating":3.81,"region":"Litoral","rmse":2.06},{"bias":-1.77,"codigo":"84056","color":"#A6761D","confianza":"Media","corr":0.46,"familia":"No convencionales","lat":0.01116,"lon":-78.25505,"mae":1.99,"modelo":"NEMSSA","n":15,"nombre":"Tomal\u00f3n","rating":3.8,"region":"Interandina","rmse":2.29},{"bias":-2.45,"codigo":"84173","color":"#D55E00","confianza":"Media","corr":0.81,"familia":"No convencionales","lat":-1.65083,"lon":-78.68521,"mae":2.45,"modelo":"METEOBLUE","n":15,"nombre":"ESPOCH","rating":3.69,"region":"Interandina","rmse":2.66},{"bias":-0.37,"codigo":"84075","color":"#D55E00","confianza":"Media","corr":0.29,"familia":"No convencionales","lat":-0.14083,"lon":-78.353,"mae":3.23,"modelo":"METEOBLUE","n":15,"nombre":"Tababela","rating":3.36,"region":"Interandina","rmse":5.38},{"bias":-2.08,"codigo":"84001","color":"#648FFF","confianza":"Media","corr":-0.03,"familia":"No convencionales","lat":-0.445,"lon":-90.269,"mae":2.08,"modelo":"UMGLOBAL10","n":15,"nombre":"Baltra","rating":3.3,"region":"Insular","rmse":2.19},{"bias":-2.8,"codigo":"84253","color":"#D55E00","confianza":"Media","corr":0.54,"familia":"No convencionales","lat":-3.42333,"lon":-78.56694,"mae":2.8,"modelo":"METEOBLUE","n":15,"nombre":"Gualaquiza","rating":3.1,"region":"Amazonia","rmse":3.53},{"bias":-3.38,"codigo":"84176","color":"#785EF0","confianza":"Media","corr":0.57,"familia":"No convencionales","lat":-1.65333,"lon":-78.54889,"mae":3.46,"modelo":"NEMSGLOBAL_E","n":15,"nombre":"Riobamba","rating":2.95,"region":"Interandina","rmse":3.62}],"metricas":{"calif_media":4.9,"estaciones":40,"mas_ganador":"METEOBLUE"},"modo":"continuous","ranking":[{"bias":-1.64,"color":"#D55E00","confianza":"Media","corr":0.52,"estaciones":40,"familia":"No convencionales","mae":1.92,"modelo":"METEOBLUE","n":15,"rating":4.33,"rmse":2.28},{"bias":-2.1,"color":"#CC79A7","confianza":"Media","corr":0.38,"estaciones":40,"familia":"No convencionales","mae":2.7,"modelo":"GEM15","n":15,"rating":3.68,"rmse":3.03},{"bias":-2.4,"color":"#A6761D","confianza":"Media","corr":0.31,"estaciones":37,"familia":"No convencionales","mae":2.9,"modelo":"NEMSSA","n":15,"rating":3.47,"rmse":3.24},{"bias":-3.46,"color":"#648FFF","confianza":"Media","corr":0.41,"estaciones":40,"familia":"No convencionales","mae":3.68,"modelo":"UMGLOBAL10","n":15,"rating":3.31,"rmse":3.93},{"bias":-3.0,"color":"#785EF0","confianza":"Media","corr":0.34,"estaciones":40,"familia":"No convencionales","mae":3.38,"modelo":"MFGLOBAL","n":15,"rating":3.12,"rmse":3.8},{"bias":-2.83,"color":"#785EF0","confianza":"Media","corr":0.28,"estaciones":40,"familia":"No convencionales","mae":3.36,"modelo":"NEMSGLOBAL_E","n":15,"rating":3.07,"rmse":3.7},{"bias":-2.63,"color":"#00A9A5","confianza":"Media","corr":0.23,"estaciones":40,"familia":"No convencionales","mae":3.28,"modelo":"NEMSGLOBAL","n":15,"rating":3.05,"rmse":3.64},{"bias":-3.97,"color":"#B33DC6","confianza":"Media","corr":0.18,"estaciones":36,"familia":"No convencionales","mae":4.42,"modelo":"SA01","n":15,"rating":2.92,"rmse":4.8}],"sintesis_region":[{"modelo":"METEOBLUE","region":"Amazonia"},{"modelo":"METEOBLUE","region":"Insular"},{"modelo":"METEOBLUE","region":"Interandina"},{"modelo":"METEOBLUE","region":"Litoral"}],"ventana":"15"}
