{"bloque":"tmin","bloques":[{"clave":"precip_det","etiqueta":"Precipitaci\u00f3n: detecci\u00f3n"},{"clave":"precip_cua","etiqueta":"Precipitaci\u00f3n: cuantificaci\u00f3n"},{"clave":"tmax","etiqueta":"Temperatura m\u00e1xima"},{"clave":"tmin","etiqueta":"Temperatura m\u00ednima"}],"estaciones":[{"codigo":"84099","nombre":"El Coca","region":"Amazonia"},{"codigo":"84253","nombre":"Gualaquiza","region":"Amazonia"},{"codigo":"84151","nombre":"Jumandy","region":"Amazonia"},{"codigo":"84063","nombre":"Lago Agrio","region":"Amazonia"},{"codigo":"84217","nombre":"Macas","region":"Amazonia"},{"codigo":"84132","nombre":"N. Rocafu","region":"Amazonia"},{"codigo":"84163","nombre":"Pastaza","region":"Amazonia"},{"codigo":"84179","nombre":"Puyo","region":"Amazonia"},{"codigo":"84001","nombre":"Baltra","region":"Insular"},{"codigo":"84008","nombre":"S. Cristobal","region":"Insular"},{"codigo":"84010","nombre":"S. Cristobal A","region":"Insular"},{"codigo":"84147","nombre":"Ambato","region":"Interandina"},{"codigo":"84226","nombre":"Ca\u00f1ar","region":"Interandina"},{"codigo":"84239","nombre":"Cuenca","region":"Interandina"},{"codigo":"84173","nombre":"ESPOCH","region":"Interandina"},{"codigo":"M1240","nombre":"Ibarra","region":"Interandina"},{"codigo":"84045","nombre":"Inguincho","region":"Interandina"},{"codigo":"84088","nombre":"Izobamba","region":"Interandina"},{"codigo":"M0024","nombre":"I\u00f1aquito","region":"Interandina"},{"codigo":"84076","nombre":"La Tola","region":"Interandina"},{"codigo":"84265","nombre":"La Toma","region":"Interandina"},{"codigo":"84123","nombre":"Latacunga","region":"Interandina"},{"codigo":"84270","nombre":"Loja Argelia","region":"Interandina"},{"codigo":"84160","nombre":"Querochaca","region":"Interandina"},{"codigo":"84176","nombre":"Riobamba","region":"Interandina"},{"codigo":"84143","nombre":"Rumipamba","region":"Interandina"},{"codigo":"84036","nombre":"S. Gabriel","region":"Interandina"},{"codigo":"84075","nombre":"Tababela","region":"Interandina"},{"codigo":"84056","nombre":"Tomal\u00f3n","region":"Interandina"},{"codigo":"84027","nombre":"Tulc\u00e1n","region":"Interandina"},{"codigo":"84018","nombre":"Esmeraldas","region":"Litoral"},{"codigo":"84203","nombre":"Guayaquil","region":"Litoral"},{"codigo":"84050","nombre":"La Concordia","region":"Litoral"},{"codigo":"84117","nombre":"Manta","region":"Litoral"},{"codigo":"M0037","nombre":"Milagro","region":"Litoral"},{"codigo":"84140","nombre":"Pichilingue","region":"Litoral"},{"codigo":"84135","nombre":"Portoviejo","region":"Litoral"},{"codigo":"84105","nombre":"Puerto Ila","region":"Litoral"},{"codigo":"84200","nombre":"Salinas","region":"Litoral"},{"codigo":"84252","nombre":"Sta. Rosa","region":"Litoral"}],"familia":"Postprocesamiento","ganadores":[{"bias":-0.06,"codigo":"84200","color":"#A65628","confianza":"Media","corr":0.44,"familia":"Postprocesamiento","lat":-2.2,"lon":-80.98972,"mae":0.27,"modelo":"BC_CLASSIC_METEOBLUE","n":15,"nombre":"Salinas","rating":8.32,"region":"Litoral","rmse":0.32},{"bias":0.08,"codigo":"84132","color":"#111111","confianza":"Media","corr":0.61,"familia":"Postprocesamiento","lat":-0.92003,"lon":-75.40303,"mae":0.28,"modelo":"BEST_OP_CV","n":15,"nombre":"N. Rocafu","rating":8.28,"region":"Amazonia","rmse":0.45},{"bias":0.14,"codigo":"84010","color":"#984EA3","confianza":"Media","corr":0.68,"familia":"Postprocesamiento","lat":-0.909,"lon":-89.617,"mae":0.32,"modelo":"EMOS_GAUSS","n":15,"nombre":"S. Cristobal A","rating":8.24,"region":"Insular","rmse":0.38},{"bias":-0.11,"codigo":"84001","color":"#E7298A","confianza":"Media","corr":0.77,"familia":"Postprocesamiento","lat":-0.445,"lon":-90.269,"mae":0.4,"modelo":"BC_CLASSIC_GFS05","n":15,"nombre":"Baltra","rating":8.07,"region":"Insular","rmse":0.48},{"bias":-0.21,"codigo":"84151","color":"#1F78B4","confianza":"Media","corr":0.5,"familia":"Postprocesamiento","lat":-1.057,"lon":-77.584,"mae":0.41,"modelo":"QM_METEOBLUE","n":15,"nombre":"Jumandy","rating":7.68,"region":"Amazonia","rmse":0.49},{"bias":0.16,"codigo":"84135","color":"#17A398","confianza":"Media","corr":0.69,"familia":"Postprocesamiento","lat":-1.17343,"lon":-80.38736,"mae":0.52,"modelo":"ENS_MEDIAN","n":15,"nombre":"Portoviejo","rating":7.55,"region":"Litoral","rmse":0.64},{"bias":-0.04,"codigo":"84050","color":"#8A2BE2","confianza":"Media","corr":0.38,"familia":"Postprocesamiento","lat":-0.02478,"lon":-79.38028,"mae":0.5,"modelo":"ENS_MEAN","n":15,"nombre":"La Concordia","rating":7.49,"region":"Litoral","rmse":0.63},{"bias":0.08,"codigo":"84008","color":"#0B6E4F","confianza":"Media","corr":0.17,"familia":"Postprocesamiento","lat":-0.90406,"lon":-89.61431,"mae":0.44,"modelo":"CONSENSO_OP_TOP5","n":15,"nombre":"S. Cristobal","rating":7.43,"region":"Insular","rmse":0.56},{"bias":-0.24,"codigo":"84105","color":"#7570B3","confianza":"Media","corr":0.52,"familia":"Postprocesamiento","lat":-0.493,"lon":-79.34892,"mae":0.55,"modelo":"BC_CLASSIC_ICON","n":15,"nombre":"Puerto Ila","rating":7.21,"region":"Litoral","rmse":0.67},{"bias":-0.35,"codigo":"84252","color":"#111111","confianza":"Media","corr":0.8,"familia":"Postprocesamiento","lat":-3.43583,"lon":-79.98333,"mae":0.6,"modelo":"BEST_OP_CV","n":15,"nombre":"Sta. Rosa","rating":7.21,"region":"Litoral","rmse":0.7},{"bias":0.16,"codigo":"84045","color":"#17A398","confianza":"Media","corr":0.73,"familia":"Postprocesamiento","lat":0.25694,"lon":-78.40524,"mae":0.67,"modelo":"ENS_MEDIAN","n":15,"nombre":"Inguincho","rating":7.16,"region":"Interandina","rmse":0.83},{"bias":0.08,"codigo":"84140","color":"#7570B3","confianza":"Media","corr":0.26,"familia":"Postprocesamiento","lat":-1.07434,"lon":-79.4929,"mae":0.58,"modelo":"BC_CLASSIC_ICON","n":15,"nombre":"Pichilingue","rating":7.08,"region":"Litoral","rmse":0.74},{"bias":-0.13,"codigo":"84203","color":"#1B9E77","confianza":"Media","corr":0.12,"familia":"Postprocesamiento","lat":-2.15333,"lon":-79.88333,"mae":0.56,"modelo":"BC_CLASSIC_IFS025","n":15,"nombre":"Guayaquil","rating":6.79,"region":"Litoral","rmse":0.88},{"bias":0.02,"codigo":"84179","color":"#8A2BE2","confianza":"Media","corr":0.51,"familia":"Postprocesamiento","lat":-1.5057,"lon":-77.956,"mae":0.91,"modelo":"ENS_MEAN","n":15,"nombre":"Puyo","rating":6.58,"region":"Amazonia","rmse":1.12},{"bias":-0.52,"codigo":"84163","color":"#17A398","confianza":"Media","corr":0.52,"familia":"Postprocesamiento","lat":-1.5,"lon":-78.06667,"mae":0.65,"modelo":"ENS_MEDIAN","n":15,"nombre":"Pastaza","rating":6.55,"region":"Amazonia","rmse":0.89},{"bias":-0.09,"codigo":"84239","color":"#1F78B4","confianza":"Media","corr":0.62,"familia":"Postprocesamiento","lat":-2.88917,"lon":-78.98417,"mae":0.91,"modelo":"QM_METEOBLUE","n":15,"nombre":"Cuenca","rating":6.52,"region":"Interandina","rmse":1.18},{"bias":-0.47,"codigo":"84063","color":"#1B9E77","confianza":"Media","corr":0.68,"familia":"Postprocesamiento","lat":0.0925,"lon":-76.86944,"mae":0.76,"modelo":"BC_CLASSIC_IFS025","n":15,"nombre":"Lago Agrio","rating":6.48,"region":"Amazonia","rmse":0.99},{"bias":-0.13,"codigo":"84123","color":"#1F78B4","confianza":"Media","corr":0.74,"familia":"Postprocesamiento","lat":-0.91333,"lon":-78.61556,"mae":1.05,"modelo":"QM_METEOBLUE","n":15,"nombre":"Latacunga","rating":6.39,"region":"Interandina","rmse":1.19},{"bias":-0.03,"codigo":"84253","color":"#0B6E4F","confianza":"Media","corr":-0.01,"familia":"Postprocesamiento","lat":-3.42333,"lon":-78.56694,"mae":0.78,"modelo":"CONSENSO_OP_TOP5","n":15,"nombre":"Gualaquiza","rating":6.31,"region":"Amazonia","rmse":1.08},{"bias":-0.21,"codigo":"84088","color":"#1B9E77","confianza":"Media","corr":0.63,"familia":"Postprocesamiento","lat":-0.36593,"lon":-78.55513,"mae":0.99,"modelo":"BC_CLASSIC_IFS025","n":15,"nombre":"Izobamba","rating":6.27,"region":"Interandina","rmse":1.17},{"bias":-0.22,"codigo":"84117","color":"#111111","confianza":"Media","corr":0.22,"familia":"Postprocesamiento","lat":-0.95,"lon":-80.68333,"mae":0.77,"modelo":"BEST_OP_CV","n":15,"nombre":"Manta","rating":6.25,"region":"Litoral","rmse":1.09},{"bias":-0.06,"codigo":"M1240","color":"#7570B3","confianza":"Media","corr":0.52,"familia":"Postprocesamiento","lat":0.32978,"lon":-78.1322,"mae":1.04,"modelo":"BC_CLASSIC_ICON","n":15,"nombre":"Ibarra","rating":6.21,"region":"Interandina","rmse":1.35},{"bias":-0.4,"codigo":"84099","color":"#984EA3","confianza":"Media","corr":0.07,"familia":"Postprocesamiento","lat":-0.46056,"lon":-76.98806,"mae":0.69,"modelo":"EMOS_GAUSS","n":15,"nombre":"El Coca","rating":6.17,"region":"Amazonia","rmse":0.9},{"bias":0.04,"codigo":"84036","color":"#17A398","confianza":"Media","corr":0.61,"familia":"Postprocesamiento","lat":0.60417,"lon":-77.81944,"mae":1.15,"modelo":"ENS_MEDIAN","n":15,"nombre":"S. Gabriel","rating":6.16,"region":"Interandina","rmse":1.4},{"bias":0.37,"codigo":"84075","color":"#A65628","confianza":"Media","corr":0.64,"familia":"Postprocesamiento","lat":-0.14083,"lon":-78.353,"mae":0.89,"modelo":"BC_CLASSIC_METEOBLUE","n":15,"nombre":"Tababela","rating":6.07,"region":"Interandina","rmse":1.39},{"bias":-0.28,"codigo":"84217","color":"#E69F00","confianza":"Media","corr":0.25,"familia":"Postprocesamiento","lat":-2.29861,"lon":-78.12056,"mae":0.88,"modelo":"BC_CLASSIC_AIFS025","n":15,"nombre":"Macas","rating":6.06,"region":"Amazonia","rmse":1.07},{"bias":0.41,"codigo":"84027","color":"#17A398","confianza":"Media","corr":0.79,"familia":"Postprocesamiento","lat":0.81667,"lon":-77.7,"mae":1.04,"modelo":"ENS_MEDIAN","n":15,"nombre":"Tulc\u00e1n","rating":6.03,"region":"Interandina","rmse":1.31},{"bias":0.05,"codigo":"84076","color":"#111111","confianza":"Media","corr":0.64,"familia":"Postprocesamiento","lat":-0.23179,"lon":-78.37043,"mae":1.19,"modelo":"BEST_OP_CV","n":15,"nombre":"La Tola","rating":6.0,"region":"Interandina","rmse":1.6},{"bias":-0.16,"codigo":"84018","color":"#7570B3","confianza":"Media","corr":-0.01,"familia":"Postprocesamiento","lat":0.97917,"lon":-79.62444,"mae":0.89,"modelo":"BC_CLASSIC_ICON","n":15,"nombre":"Esmeraldas","rating":5.97,"region":"Litoral","rmse":1.06},{"bias":-0.01,"codigo":"84160","color":"#A65628","confianza":"Media","corr":0.73,"familia":"Postprocesamiento","lat":-1.3671,"lon":-78.60554,"mae":1.5,"modelo":"BC_CLASSIC_METEOBLUE","n":15,"nombre":"Querochaca","rating":5.73,"region":"Interandina","rmse":1.9},{"bias":-0.01,"codigo":"84226","color":"#E69F00","confianza":"Media","corr":-0.0,"familia":"Postprocesamiento","lat":-2.55221,"lon":-78.94519,"mae":1.23,"modelo":"BC_CLASSIC_AIFS025","n":15,"nombre":"Ca\u00f1ar","rating":5.55,"region":"Interandina","rmse":1.45},{"bias":-0.43,"codigo":"84147","color":"#111111","confianza":"Media","corr":0.24,"familia":"Postprocesamiento","lat":-1.21413,"lon":-78.57455,"mae":1.02,"modelo":"BEST_OP_CV","n":15,"nombre":"Ambato","rating":5.43,"region":"Interandina","rmse":1.47},{"bias":0.05,"codigo":"84265","color":"#0B6E4F","confianza":"Media","corr":0.19,"familia":"Postprocesamiento","lat":-3.99556,"lon":-79.37167,"mae":1.34,"modelo":"CONSENSO_OP_TOP5","n":15,"nombre":"La Toma","rating":5.42,"region":"Interandina","rmse":1.65},{"bias":-0.17,"codigo":"84270","color":"#984EA3","confianza":"Media","corr":0.6,"familia":"Postprocesamiento","lat":-4.0375,"lon":-79.2034,"mae":1.68,"modelo":"QM_AIFS025","n":15,"nombre":"Loja Argelia","rating":5.14,"region":"Interandina","rmse":2.07},{"bias":0.18,"codigo":"84056","color":"#111111","confianza":"Media","corr":0.61,"familia":"Postprocesamiento","lat":0.01116,"lon":-78.25505,"mae":1.78,"modelo":"BEST_OP_CV","n":15,"nombre":"Tomal\u00f3n","rating":5.01,"region":"Interandina","rmse":2.23},{"bias":-0.69,"codigo":"84173","color":"#111111","confianza":"Media","corr":0.02,"familia":"Postprocesamiento","lat":-1.65083,"lon":-78.68521,"mae":1.31,"modelo":"BEST_OP_CV","n":15,"nombre":"ESPOCH","rating":4.56,"region":"Interandina","rmse":1.75},{"bias":-0.28,"codigo":"M0024","color":"#E69F00","confianza":"Media","corr":-0.42,"familia":"Postprocesamiento","lat":-0.1783,"lon":-78.48773,"mae":1.28,"modelo":"BC_CLASSIC_AIFS025","n":15,"nombre":"I\u00f1aquito","rating":4.53,"region":"Interandina","rmse":1.83},{"bias":-0.55,"codigo":"84143","color":"#377EB8","confianza":"Media","corr":0.05,"familia":"Postprocesamiento","lat":-1.01998,"lon":-78.59456,"mae":1.48,"modelo":"BC_CLASSIC_IFSHRES","n":15,"nombre":"Rumipamba","rating":4.46,"region":"Interandina","rmse":1.9},{"bias":-0.23,"codigo":"84176","color":"#377EB8","confianza":"Media","corr":-0.09,"familia":"Postprocesamiento","lat":-1.65333,"lon":-78.54889,"mae":1.82,"modelo":"BC_CLASSIC_IFSHRES","n":15,"nombre":"Riobamba","rating":4.21,"region":"Interandina","rmse":2.42},{"bias":-1.98,"codigo":"M0037","color":"#7570B3","confianza":"Media","corr":0.67,"familia":"Postprocesamiento","lat":-2.11805,"lon":-79.60038,"mae":1.99,"modelo":"BC_CLASSIC_ICON","n":15,"nombre":"Milagro","rating":3.98,"region":"Litoral","rmse":2.21}],"metricas":{"calif_media":6.3,"estaciones":40,"mas_ganador":"BEST_OP_CV"},"modo":"continuous","ranking":[{"bias":-0.21,"color":"#111111","confianza":"Media","corr":0.3,"estaciones":40,"familia":"Postprocesamiento","mae":1.03,"modelo":"BEST_OP_CV","n":15,"rating":5.84,"rmse":1.31},{"bias":-0.21,"color":"#A65628","confianza":"Media","corr":0.29,"estaciones":40,"familia":"Postprocesamiento","mae":1.06,"modelo":"BC_CLASSIC_METEOBLUE","n":15,"rating":5.82,"rmse":1.33},{"bias":-0.18,"color":"#0B6E4F","confianza":"Media","corr":0.23,"estaciones":40,"familia":"Postprocesamiento","mae":1.04,"modelo":"CONSENSO_OP_TOP5","n":15,"rating":5.8,"rmse":1.29},{"bias":-0.27,"color":"#7570B3","confianza":"Media","corr":0.2,"estaciones":40,"familia":"Postprocesamiento","mae":1.16,"modelo":"BC_CLASSIC_ICON","n":15,"rating":5.57,"rmse":1.43},{"bias":-0.14,"color":"#377EB8","confianza":"Media","corr":0.22,"estaciones":40,"familia":"Postprocesamiento","mae":1.15,"modelo":"BC_CLASSIC_IFSHRES","n":15,"rating":5.54,"rmse":1.4},{"bias":-0.08,"color":"#E69F00","confianza":"Media","corr":0.08,"estaciones":40,"familia":"Postprocesamiento","mae":1.15,"modelo":"BC_CLASSIC_AIFS025","n":15,"rating":5.47,"rmse":1.39},{"bias":-0.44,"color":"#1F78B4","confianza":"Media","corr":0.39,"estaciones":40,"familia":"Postprocesamiento","mae":1.22,"modelo":"QM_METEOBLUE","n":15,"rating":5.47,"rmse":1.48},{"bias":-0.11,"color":"#1B9E77","confianza":"Media","corr":0.15,"estaciones":40,"familia":"Postprocesamiento","mae":1.19,"modelo":"BC_CLASSIC_IFS025","n":15,"rating":5.42,"rmse":1.46},{"bias":-0.22,"color":"#E7298A","confianza":"Media","corr":0.19,"estaciones":40,"familia":"Postprocesamiento","mae":1.18,"modelo":"BC_CLASSIC_GFS05","n":15,"rating":5.39,"rmse":1.44},{"bias":-0.68,"color":"#17A398","confianza":"Media","corr":0.48,"estaciones":40,"familia":"Postprocesamiento","mae":1.36,"modelo":"ENS_MEDIAN","n":15,"rating":5.31,"rmse":1.58},{"bias":-0.8,"color":"#8A2BE2","confianza":"Media","corr":0.51,"estaciones":40,"familia":"Postprocesamiento","mae":1.42,"modelo":"ENS_MEAN","n":15,"rating":5.27,"rmse":1.61},{"bias":0.01,"color":"#984EA3","confianza":"Media","corr":0.15,"estaciones":40,"familia":"Postprocesamiento","mae":1.24,"modelo":"EMOS_GAUSS","n":15,"rating":5.19,"rmse":1.49},{"bias":0.06,"color":"#B33DC6","confianza":"Media","corr":0.21,"estaciones":40,"familia":"Postprocesamiento","mae":1.42,"modelo":"QM_IFSHRES","n":15,"rating":4.94,"rmse":1.69},{"bias":-0.32,"color":"#FB9A99","confianza":"Media","corr":0.23,"estaciones":40,"familia":"Postprocesamiento","mae":1.59,"modelo":"QM_ICON","n":15,"rating":4.82,"rmse":1.87},{"bias":-0.18,"color":"#984EA3","confianza":"Media","corr":0.14,"estaciones":40,"familia":"Postprocesamiento","mae":1.62,"modelo":"QM_AIFS025","n":15,"rating":4.74,"rmse":1.88},{"bias":-0.51,"color":"#FDBF6F","confianza":"Media","corr":0.23,"estaciones":40,"familia":"Postprocesamiento","mae":1.73,"modelo":"QM_GFS05","n":15,"rating":4.58,"rmse":1.99},{"bias":-0.01,"color":"#B2DF8A","confianza":"Media","corr":0.12,"estaciones":40,"familia":"Postprocesamiento","mae":1.82,"modelo":"QM_IFS025","n":15,"rating":4.45,"rmse":2.1},{"bias":0.16,"color":"#8A2BE2","confianza":"Media","corr":0.08,"estaciones":40,"familia":"Postprocesamiento","mae":6.01,"modelo":"NGR","n":15,"rating":2.25,"rmse":6.16}],"sintesis_region":[{"modelo":"BEST_OP_CV","region":"Amazonia"},{"modelo":"EMOS_GAUSS","region":"Insular"},{"modelo":"BEST_OP_CV","region":"Interandina"},{"modelo":"BC_CLASSIC_ICON","region":"Litoral"}],"ventana":"15"}
