{"bloque":"tmin","bloques":[{"clave":"precip_det","etiqueta":"Precipitaci\u00f3n: detecci\u00f3n"},{"clave":"precip_cua","etiqueta":"Precipitaci\u00f3n: cuantificaci\u00f3n"},{"clave":"tmax","etiqueta":"Temperatura m\u00e1xima"},{"clave":"tmin","etiqueta":"Temperatura m\u00ednima"}],"estaciones":[{"codigo":"84099","nombre":"El Coca","region":"Amazonia"},{"codigo":"84253","nombre":"Gualaquiza","region":"Amazonia"},{"codigo":"84151","nombre":"Jumandy","region":"Amazonia"},{"codigo":"84063","nombre":"Lago Agrio","region":"Amazonia"},{"codigo":"84217","nombre":"Macas","region":"Amazonia"},{"codigo":"84132","nombre":"N. Rocafu","region":"Amazonia"},{"codigo":"84163","nombre":"Pastaza","region":"Amazonia"},{"codigo":"84179","nombre":"Puyo","region":"Amazonia"},{"codigo":"84001","nombre":"Baltra","region":"Insular"},{"codigo":"84008","nombre":"S. Cristobal","region":"Insular"},{"codigo":"84010","nombre":"S. Cristobal A","region":"Insular"},{"codigo":"84147","nombre":"Ambato","region":"Interandina"},{"codigo":"84226","nombre":"Ca\u00f1ar","region":"Interandina"},{"codigo":"84239","nombre":"Cuenca","region":"Interandina"},{"codigo":"84173","nombre":"ESPOCH","region":"Interandina"},{"codigo":"M1240","nombre":"Ibarra","region":"Interandina"},{"codigo":"84045","nombre":"Inguincho","region":"Interandina"},{"codigo":"84088","nombre":"Izobamba","region":"Interandina"},{"codigo":"M0024","nombre":"I\u00f1aquito","region":"Interandina"},{"codigo":"84076","nombre":"La Tola","region":"Interandina"},{"codigo":"84265","nombre":"La Toma","region":"Interandina"},{"codigo":"84123","nombre":"Latacunga","region":"Interandina"},{"codigo":"84270","nombre":"Loja Argelia","region":"Interandina"},{"codigo":"84160","nombre":"Querochaca","region":"Interandina"},{"codigo":"84176","nombre":"Riobamba","region":"Interandina"},{"codigo":"84143","nombre":"Rumipamba","region":"Interandina"},{"codigo":"84036","nombre":"S. Gabriel","region":"Interandina"},{"codigo":"84075","nombre":"Tababela","region":"Interandina"},{"codigo":"84056","nombre":"Tomal\u00f3n","region":"Interandina"},{"codigo":"84027","nombre":"Tulc\u00e1n","region":"Interandina"},{"codigo":"84018","nombre":"Esmeraldas","region":"Litoral"},{"codigo":"84203","nombre":"Guayaquil","region":"Litoral"},{"codigo":"84050","nombre":"La Concordia","region":"Litoral"},{"codigo":"84117","nombre":"Manta","region":"Litoral"},{"codigo":"M0037","nombre":"Milagro","region":"Litoral"},{"codigo":"84140","nombre":"Pichilingue","region":"Litoral"},{"codigo":"84135","nombre":"Portoviejo","region":"Litoral"},{"codigo":"84105","nombre":"Puerto Ila","region":"Litoral"},{"codigo":"84200","nombre":"Salinas","region":"Litoral"},{"codigo":"84252","nombre":"Sta. Rosa","region":"Litoral"}],"familia":"Convencionales","ganadores":[{"bias":-0.03,"codigo":"84200","color":"#004E89","confianza":"Media","corr":0.5,"familia":"Convencionales","lat":-2.2,"lon":-80.98972,"mae":0.27,"modelo":"IFSHRES","n":15,"nombre":"Salinas","rating":8.41,"region":"Litoral","rmse":0.34},{"bias":0.08,"codigo":"84008","color":"#009E73","confianza":"Media","corr":0.64,"familia":"Convencionales","lat":-0.90406,"lon":-89.61431,"mae":0.34,"modelo":"ICON","n":15,"nombre":"S. Cristobal","rating":8.19,"region":"Insular","rmse":0.43},{"bias":0.33,"codigo":"84163","color":"#56B4E9","confianza":"Media","corr":0.66,"familia":"Convencionales","lat":-1.5,"lon":-78.06667,"mae":0.4,"modelo":"AIFS025","n":15,"nombre":"Pastaza","rating":7.69,"region":"Amazonia","rmse":0.5},{"bias":-0.16,"codigo":"84105","color":"#009E73","confianza":"Media","corr":0.3,"familia":"Convencionales","lat":-0.493,"lon":-79.34892,"mae":0.45,"modelo":"ICON","n":15,"nombre":"Puerto Ila","rating":7.47,"region":"Litoral","rmse":0.5},{"bias":-0.09,"codigo":"84050","color":"#004E89","confianza":"Media","corr":0.46,"familia":"Convencionales","lat":-0.02478,"lon":-79.38028,"mae":0.51,"modelo":"IFSHRES","n":15,"nombre":"La Concordia","rating":7.46,"region":"Litoral","rmse":0.65},{"bias":-0.33,"codigo":"84001","color":"#56B4E9","confianza":"Media","corr":0.76,"familia":"Convencionales","lat":-0.445,"lon":-90.269,"mae":0.52,"modelo":"AIFS025","n":15,"nombre":"Baltra","rating":7.44,"region":"Insular","rmse":0.6},{"bias":0.3,"codigo":"84135","color":"#009E73","confianza":"Media","corr":0.52,"familia":"Convencionales","lat":-1.17343,"lon":-80.38736,"mae":0.48,"modelo":"ICON","n":15,"nombre":"Portoviejo","rating":7.32,"region":"Litoral","rmse":0.61},{"bias":0.24,"codigo":"84203","color":"#009E73","confianza":"Media","corr":0.15,"familia":"Convencionales","lat":-2.15333,"lon":-79.88333,"mae":0.4,"modelo":"ICON","n":15,"nombre":"Guayaquil","rating":7.3,"region":"Litoral","rmse":0.52},{"bias":-0.02,"codigo":"M1240","color":"#009E73","confianza":"Media","corr":0.85,"familia":"Convencionales","lat":0.32978,"lon":-78.1322,"mae":0.77,"modelo":"ICON","n":15,"nombre":"Ibarra","rating":7.24,"region":"Interandina","rmse":0.91},{"bias":0.02,"codigo":"84132","color":"#004E89","confianza":"Media","corr":-0.05,"familia":"Convencionales","lat":-0.92003,"lon":-75.40303,"mae":0.47,"modelo":"IFSHRES","n":15,"nombre":"N. Rocafu","rating":7.19,"region":"Amazonia","rmse":0.65},{"bias":-0.04,"codigo":"84063","color":"#56B4E9","confianza":"Media","corr":0.67,"familia":"Convencionales","lat":0.0925,"lon":-76.86944,"mae":0.72,"modelo":"AIFS025","n":15,"nombre":"Lago Agrio","rating":7.06,"region":"Amazonia","rmse":1.0},{"bias":-0.35,"codigo":"84140","color":"#E69F00","confianza":"Media","corr":0.48,"familia":"Convencionales","lat":-1.07434,"lon":-79.4929,"mae":0.55,"modelo":"GFS05","n":15,"nombre":"Pichilingue","rating":7.01,"region":"Litoral","rmse":0.69},{"bias":-0.19,"codigo":"84179","color":"#004E89","confianza":"Media","corr":0.71,"familia":"Convencionales","lat":-1.5057,"lon":-77.956,"mae":0.75,"modelo":"IFSHRES","n":15,"nombre":"Puyo","rating":6.97,"region":"Amazonia","rmse":0.83},{"bias":-0.43,"codigo":"84151","color":"#56B4E9","confianza":"Media","corr":0.32,"familia":"Convencionales","lat":-1.057,"lon":-77.584,"mae":0.54,"modelo":"AIFS025","n":15,"nombre":"Jumandy","rating":6.85,"region":"Amazonia","rmse":0.65},{"bias":-0.15,"codigo":"84217","color":"#56B4E9","confianza":"Media","corr":0.43,"familia":"Convencionales","lat":-2.29861,"lon":-78.12056,"mae":0.66,"modelo":"AIFS025","n":15,"nombre":"Macas","rating":6.84,"region":"Amazonia","rmse":0.91},{"bias":0.21,"codigo":"84252","color":"#004E89","confianza":"Media","corr":0.46,"familia":"Convencionales","lat":-3.43583,"lon":-79.98333,"mae":0.71,"modelo":"IFSHRES","n":15,"nombre":"Sta. Rosa","rating":6.68,"region":"Litoral","rmse":0.96},{"bias":0.15,"codigo":"84088","color":"#009E73","confianza":"Media","corr":0.74,"familia":"Convencionales","lat":-0.36593,"lon":-78.55513,"mae":0.9,"modelo":"ICON","n":15,"nombre":"Izobamba","rating":6.68,"region":"Interandina","rmse":1.01},{"bias":-0.43,"codigo":"84018","color":"#E69F00","confianza":"Media","corr":0.22,"familia":"Convencionales","lat":0.97917,"lon":-79.62444,"mae":0.69,"modelo":"GFS05","n":15,"nombre":"Esmeraldas","rating":6.38,"region":"Litoral","rmse":0.79},{"bias":-0.2,"codigo":"84027","color":"#009E73","confianza":"Media","corr":0.75,"familia":"Convencionales","lat":0.81667,"lon":-77.7,"mae":0.98,"modelo":"ICON","n":15,"nombre":"Tulc\u00e1n","rating":6.37,"region":"Interandina","rmse":1.22},{"bias":-0.02,"codigo":"84099","color":"#009E73","confianza":"Media","corr":-0.07,"familia":"Convencionales","lat":-0.46056,"lon":-76.98806,"mae":0.76,"modelo":"ICON","n":15,"nombre":"El Coca","rating":6.36,"region":"Amazonia","rmse":1.0},{"bias":0.1,"codigo":"84226","color":"#56B4E9","confianza":"Media","corr":0.37,"familia":"Convencionales","lat":-2.55221,"lon":-78.94519,"mae":1.04,"modelo":"AIFS025","n":15,"nombre":"Ca\u00f1ar","rating":6.09,"region":"Interandina","rmse":1.22},{"bias":0.38,"codigo":"84173","color":"#56B4E9","confianza":"Media","corr":0.41,"familia":"Convencionales","lat":-1.65083,"lon":-78.68521,"mae":0.89,"modelo":"AIFS025","n":15,"nombre":"ESPOCH","rating":5.98,"region":"Interandina","rmse":1.2},{"bias":0.51,"codigo":"M0024","color":"#56B4E9","confianza":"Media","corr":0.85,"familia":"Convencionales","lat":-0.1783,"lon":-78.48773,"mae":1.18,"modelo":"AIFS025","n":15,"nombre":"I\u00f1aquito","rating":5.8,"region":"Interandina","rmse":1.35},{"bias":0.82,"codigo":"84010","color":"#004E89","confianza":"Media","corr":0.2,"familia":"Convencionales","lat":-0.909,"lon":-89.617,"mae":0.82,"modelo":"IFSHRES","n":15,"nombre":"S. Cristobal A","rating":5.79,"region":"Insular","rmse":0.88},{"bias":-0.12,"codigo":"84075","color":"#009E73","confianza":"Media","corr":0.37,"familia":"Convencionales","lat":-0.14083,"lon":-78.353,"mae":1.15,"modelo":"ICON","n":15,"nombre":"Tababela","rating":5.78,"region":"Interandina","rmse":1.48},{"bias":-0.25,"codigo":"84045","color":"#004E89","confianza":"Media","corr":0.03,"familia":"Convencionales","lat":0.25694,"lon":-78.40524,"mae":0.94,"modelo":"IFSHRES","n":15,"nombre":"Inguincho","rating":5.76,"region":"Interandina","rmse":1.13},{"bias":-0.27,"codigo":"84143","color":"#009E73","confianza":"Media","corr":0.52,"familia":"Convencionales","lat":-1.01998,"lon":-78.59456,"mae":1.09,"modelo":"ICON","n":15,"nombre":"Rumipamba","rating":5.73,"region":"Interandina","rmse":1.57},{"bias":-0.66,"codigo":"84117","color":"#56B4E9","confianza":"Media","corr":0.21,"familia":"Convencionales","lat":-0.95,"lon":-80.68333,"mae":0.88,"modelo":"AIFS025","n":15,"nombre":"Manta","rating":5.72,"region":"Litoral","rmse":1.0},{"bias":0.09,"codigo":"84160","color":"#56B4E9","confianza":"Media","corr":0.69,"familia":"Convencionales","lat":-1.3671,"lon":-78.60554,"mae":1.38,"modelo":"AIFS025","n":15,"nombre":"Querochaca","rating":5.71,"region":"Interandina","rmse":1.78},{"bias":-0.06,"codigo":"84270","color":"#009E73","confianza":"Media","corr":0.45,"familia":"Convencionales","lat":-4.0375,"lon":-79.2034,"mae":1.51,"modelo":"ICON","n":15,"nombre":"Loja Argelia","rating":5.48,"region":"Interandina","rmse":1.68},{"bias":-0.49,"codigo":"84036","color":"#004E89","confianza":"Media","corr":0.49,"familia":"Convencionales","lat":0.60417,"lon":-77.81944,"mae":1.32,"modelo":"IFSHRES","n":15,"nombre":"S. Gabriel","rating":5.2,"region":"Interandina","rmse":1.63},{"bias":0.84,"codigo":"84123","color":"#009E73","confianza":"Media","corr":0.71,"familia":"Convencionales","lat":-0.91333,"lon":-78.61556,"mae":1.26,"modelo":"ICON","n":15,"nombre":"Latacunga","rating":5.18,"region":"Interandina","rmse":1.65},{"bias":-1.33,"codigo":"M0037","color":"#009E73","confianza":"Media","corr":0.77,"familia":"Convencionales","lat":-2.11805,"lon":-79.60038,"mae":1.33,"modelo":"ICON","n":15,"nombre":"Milagro","rating":5.04,"region":"Litoral","rmse":1.5},{"bias":-0.88,"codigo":"84147","color":"#56B4E9","confianza":"Media","corr":0.39,"familia":"Convencionales","lat":-1.21413,"lon":-78.57455,"mae":1.23,"modelo":"AIFS025","n":15,"nombre":"Ambato","rating":5.0,"region":"Interandina","rmse":1.46},{"bias":-0.67,"codigo":"84265","color":"#009E73","confianza":"Media","corr":0.71,"familia":"Convencionales","lat":-3.99556,"lon":-79.37167,"mae":1.74,"modelo":"ICON","n":15,"nombre":"La Toma","rating":4.69,"region":"Interandina","rmse":2.08},{"bias":0.81,"codigo":"84076","color":"#E69F00","confianza":"Media","corr":0.52,"familia":"Convencionales","lat":-0.23179,"lon":-78.37043,"mae":1.56,"modelo":"GFS05","n":15,"nombre":"La Tola","rating":4.54,"region":"Interandina","rmse":2.13},{"bias":-0.6,"codigo":"84176","color":"#004E89","confianza":"Media","corr":0.31,"familia":"Convencionales","lat":-1.65333,"lon":-78.54889,"mae":1.63,"modelo":"IFSHRES","n":15,"nombre":"Riobamba","rating":4.45,"region":"Interandina","rmse":2.11},{"bias":-1.44,"codigo":"84239","color":"#004E89","confianza":"Media","corr":0.58,"familia":"Convencionales","lat":-2.88917,"lon":-78.98417,"mae":1.75,"modelo":"IFSHRES","n":15,"nombre":"Cuenca","rating":4.2,"region":"Interandina","rmse":2.09},{"bias":-2.03,"codigo":"84253","color":"#56B4E9","confianza":"Media","corr":0.17,"familia":"Convencionales","lat":-3.42333,"lon":-78.56694,"mae":2.03,"modelo":"AIFS025","n":15,"nombre":"Gualaquiza","rating":3.52,"region":"Amazonia","rmse":2.17},{"bias":2.5,"codigo":"84056","color":"#E69F00","confianza":"Media","corr":0.77,"familia":"Convencionales","lat":0.01116,"lon":-78.25505,"mae":2.97,"modelo":"GFS05","n":15,"nombre":"Tomal\u00f3n","rating":3.29,"region":"Interandina","rmse":3.53}],"metricas":{"calif_media":6.1,"estaciones":40,"mas_ganador":"ICON"},"modo":"continuous","ranking":[{"bias":-0.02,"color":"#009E73","confianza":"Media","corr":0.42,"estaciones":40,"familia":"Convencionales","mae":1.44,"modelo":"ICON","n":15,"rating":5.24,"rmse":1.69},{"bias":-0.33,"color":"#004E89","confianza":"Media","corr":0.38,"estaciones":40,"familia":"Convencionales","mae":1.41,"modelo":"IFSHRES","n":15,"rating":5.1,"rmse":1.66},{"bias":0.86,"color":"#56B4E9","confianza":"Media","corr":0.41,"estaciones":39,"familia":"Convencionales","mae":1.65,"modelo":"AIFS025","n":15,"rating":5.07,"rmse":1.88},{"bias":-0.43,"color":"#0072B2","confianza":"Media","corr":0.35,"estaciones":40,"familia":"Convencionales","mae":1.75,"modelo":"IFS025","n":15,"rating":4.67,"rmse":1.99},{"bias":-0.69,"color":"#E69F00","confianza":"Media","corr":0.31,"estaciones":40,"familia":"Convencionales","mae":2.11,"modelo":"GFS05","n":15,"rating":4.19,"rmse":2.38}],"sintesis_region":[{"modelo":"AIFS025","region":"Amazonia"},{"modelo":"ICON","region":"Insular"},{"modelo":"ICON","region":"Interandina"},{"modelo":"ICON","region":"Litoral"}],"ventana":"15"}
