{"bloque":"tmax","bloques":[{"clave":"precip_det","etiqueta":"Precipitaci\u00f3n: detecci\u00f3n"},{"clave":"precip_cua","etiqueta":"Precipitaci\u00f3n: cuantificaci\u00f3n"},{"clave":"tmax","etiqueta":"Temperatura m\u00e1xima"},{"clave":"tmin","etiqueta":"Temperatura m\u00ednima"}],"estaciones":[{"codigo":"84099","nombre":"El Coca","region":"Amazonia"},{"codigo":"84253","nombre":"Gualaquiza","region":"Amazonia"},{"codigo":"84151","nombre":"Jumandy","region":"Amazonia"},{"codigo":"84063","nombre":"Lago Agrio","region":"Amazonia"},{"codigo":"84217","nombre":"Macas","region":"Amazonia"},{"codigo":"84132","nombre":"N. Rocafu","region":"Amazonia"},{"codigo":"84163","nombre":"Pastaza","region":"Amazonia"},{"codigo":"84179","nombre":"Puyo","region":"Amazonia"},{"codigo":"84001","nombre":"Baltra","region":"Insular"},{"codigo":"84008","nombre":"S. Cristobal","region":"Insular"},{"codigo":"84010","nombre":"S. Cristobal A","region":"Insular"},{"codigo":"84147","nombre":"Ambato","region":"Interandina"},{"codigo":"84226","nombre":"Ca\u00f1ar","region":"Interandina"},{"codigo":"84239","nombre":"Cuenca","region":"Interandina"},{"codigo":"84173","nombre":"ESPOCH","region":"Interandina"},{"codigo":"M1240","nombre":"Ibarra","region":"Interandina"},{"codigo":"84045","nombre":"Inguincho","region":"Interandina"},{"codigo":"84088","nombre":"Izobamba","region":"Interandina"},{"codigo":"M0024","nombre":"I\u00f1aquito","region":"Interandina"},{"codigo":"84076","nombre":"La Tola","region":"Interandina"},{"codigo":"84265","nombre":"La Toma","region":"Interandina"},{"codigo":"84123","nombre":"Latacunga","region":"Interandina"},{"codigo":"84270","nombre":"Loja Argelia","region":"Interandina"},{"codigo":"84160","nombre":"Querochaca","region":"Interandina"},{"codigo":"84176","nombre":"Riobamba","region":"Interandina"},{"codigo":"84143","nombre":"Rumipamba","region":"Interandina"},{"codigo":"84036","nombre":"S. Gabriel","region":"Interandina"},{"codigo":"84075","nombre":"Tababela","region":"Interandina"},{"codigo":"84056","nombre":"Tomal\u00f3n","region":"Interandina"},{"codigo":"84027","nombre":"Tulc\u00e1n","region":"Interandina"},{"codigo":"84018","nombre":"Esmeraldas","region":"Litoral"},{"codigo":"84203","nombre":"Guayaquil","region":"Litoral"},{"codigo":"84050","nombre":"La Concordia","region":"Litoral"},{"codigo":"84117","nombre":"Manta","region":"Litoral"},{"codigo":"M0037","nombre":"Milagro","region":"Litoral"},{"codigo":"84140","nombre":"Pichilingue","region":"Litoral"},{"codigo":"84135","nombre":"Portoviejo","region":"Litoral"},{"codigo":"84105","nombre":"Puerto Ila","region":"Litoral"},{"codigo":"84200","nombre":"Salinas","region":"Litoral"},{"codigo":"84252","nombre":"Sta. Rosa","region":"Litoral"}],"familia":"Postprocesamiento","ganadores":[{"bias":-0.02,"codigo":"84203","color":"#1F78B4","confianza":"Alta","corr":0.73,"familia":"Postprocesamiento","lat":-2.15333,"lon":-79.88333,"mae":0.71,"modelo":"QM_METEOBLUE","n":30,"nombre":"Guayaquil","rating":7.23,"region":"Litoral","rmse":0.91},{"bias":-0.02,"codigo":"84105","color":"#111111","confianza":"Alta","corr":0.72,"familia":"Postprocesamiento","lat":-0.493,"lon":-79.34892,"mae":0.75,"modelo":"BEST_OP_CV","n":30,"nombre":"Puerto Ila","rating":7.1,"region":"Litoral","rmse":0.98},{"bias":0.06,"codigo":"84123","color":"#0B6E4F","confianza":"Alta","corr":0.6,"familia":"Postprocesamiento","lat":-0.91333,"lon":-78.61556,"mae":0.82,"modelo":"CONSENSO_OP_TOP5","n":30,"nombre":"Latacunga","rating":6.7,"region":"Interandina","rmse":1.15},{"bias":-0.02,"codigo":"84117","color":"#A65628","confianza":"Alta","corr":0.5,"familia":"Postprocesamiento","lat":-0.95,"lon":-80.68333,"mae":0.89,"modelo":"BC_CLASSIC_METEOBLUE","n":30,"nombre":"Manta","rating":6.6,"region":"Litoral","rmse":1.13},{"bias":-0.17,"codigo":"84036","color":"#0B6E4F","confianza":"Alta","corr":0.64,"familia":"Postprocesamiento","lat":0.60417,"lon":-77.81944,"mae":0.86,"modelo":"CONSENSO_OP_TOP5","n":30,"nombre":"S. Gabriel","rating":6.59,"region":"Interandina","rmse":1.06},{"bias":-0.04,"codigo":"84163","color":"#0B6E4F","confianza":"Alta","corr":0.52,"familia":"Postprocesamiento","lat":-1.5,"lon":-78.06667,"mae":0.84,"modelo":"CONSENSO_OP_TOP5","n":30,"nombre":"Pastaza","rating":6.54,"region":"Amazonia","rmse":1.3},{"bias":0.14,"codigo":"84088","color":"#1F78B4","confianza":"Alta","corr":0.73,"familia":"Postprocesamiento","lat":-0.36593,"lon":-78.55513,"mae":0.97,"modelo":"QM_METEOBLUE","n":30,"nombre":"Izobamba","rating":6.38,"region":"Interandina","rmse":1.32},{"bias":-0.22,"codigo":"84018","color":"#B33DC6","confianza":"Alta","corr":0.53,"familia":"Postprocesamiento","lat":0.97917,"lon":-79.62444,"mae":0.9,"modelo":"QM_IFSHRES","n":30,"nombre":"Esmeraldas","rating":6.27,"region":"Litoral","rmse":1.21},{"bias":-0.33,"codigo":"84027","color":"#0B6E4F","confianza":"Alta","corr":0.46,"familia":"Postprocesamiento","lat":0.81667,"lon":-77.7,"mae":0.79,"modelo":"CONSENSO_OP_TOP5","n":30,"nombre":"Tulc\u00e1n","rating":6.24,"region":"Interandina","rmse":1.16},{"bias":-0.0,"codigo":"84147","color":"#0B6E4F","confianza":"Alta","corr":0.69,"familia":"Postprocesamiento","lat":-1.21413,"lon":-78.57455,"mae":1.17,"modelo":"CONSENSO_OP_TOP5","n":30,"nombre":"Ambato","rating":6.21,"region":"Interandina","rmse":1.5},{"bias":-0.03,"codigo":"84050","color":"#E7298A","confianza":"Alta","corr":0.59,"familia":"Postprocesamiento","lat":-0.02478,"lon":-79.38028,"mae":1.16,"modelo":"BC_CLASSIC_GFS05","n":30,"nombre":"La Concordia","rating":6.19,"region":"Litoral","rmse":1.33},{"bias":-0.03,"codigo":"84140","color":"#A65628","confianza":"Alta","corr":0.53,"familia":"Postprocesamiento","lat":-1.07434,"lon":-79.4929,"mae":1.07,"modelo":"BC_CLASSIC_METEOBLUE","n":30,"nombre":"Pichilingue","rating":6.17,"region":"Litoral","rmse":1.43},{"bias":0.36,"codigo":"M0037","color":"#0B6E4F","confianza":"Alta","corr":0.68,"familia":"Postprocesamiento","lat":-2.11805,"lon":-79.60038,"mae":1.02,"modelo":"CONSENSO_OP_TOP5","n":30,"nombre":"Milagro","rating":5.92,"region":"Litoral","rmse":1.46},{"bias":-0.12,"codigo":"84160","color":"#F781BF","confianza":"Alta","corr":0.67,"familia":"Postprocesamiento","lat":-1.3671,"lon":-78.60554,"mae":1.2,"modelo":"BC_CLASSIC_IFSHRES","n":30,"nombre":"Querochaca","rating":5.91,"region":"Interandina","rmse":1.6},{"bias":-0.02,"codigo":"84132","color":"#4DAF4A","confianza":"Alta","corr":0.46,"familia":"Postprocesamiento","lat":-0.92003,"lon":-75.40303,"mae":1.23,"modelo":"BC_CLASSIC_AIFS025","n":30,"nombre":"N. Rocafu","rating":5.88,"region":"Amazonia","rmse":1.56},{"bias":-0.15,"codigo":"84252","color":"#1F78B4","confianza":"Alta","corr":0.61,"familia":"Postprocesamiento","lat":-3.43583,"lon":-79.98333,"mae":1.12,"modelo":"QM_METEOBLUE","n":30,"nombre":"Sta. Rosa","rating":5.87,"region":"Litoral","rmse":1.68},{"bias":0.32,"codigo":"84045","color":"#111111","confianza":"Alta","corr":0.47,"familia":"Postprocesamiento","lat":0.25694,"lon":-78.40524,"mae":1.0,"modelo":"BEST_OP_CV","n":30,"nombre":"Inguincho","rating":5.85,"region":"Interandina","rmse":1.38},{"bias":-0.25,"codigo":"84226","color":"#111111","confianza":"Alta","corr":0.53,"familia":"Postprocesamiento","lat":-2.55221,"lon":-78.94519,"mae":1.11,"modelo":"BEST_OP_CV","n":30,"nombre":"Ca\u00f1ar","rating":5.82,"region":"Interandina","rmse":1.41},{"bias":0.04,"codigo":"84151","color":"#111111","confianza":"Alta","corr":0.55,"familia":"Postprocesamiento","lat":-1.057,"lon":-77.584,"mae":1.34,"modelo":"BEST_OP_CV","n":30,"nombre":"Jumandy","rating":5.76,"region":"Amazonia","rmse":1.69},{"bias":-0.2,"codigo":"84179","color":"#4DAF4A","confianza":"Alta","corr":0.55,"familia":"Postprocesamiento","lat":-1.5057,"lon":-77.956,"mae":1.25,"modelo":"BC_CLASSIC_AIFS025","n":30,"nombre":"Puyo","rating":5.66,"region":"Amazonia","rmse":1.59},{"bias":-0.25,"codigo":"84010","color":"#0B6E4F","confianza":"Alta","corr":-0.13,"familia":"Postprocesamiento","lat":-0.909,"lon":-89.617,"mae":0.8,"modelo":"CONSENSO_OP_TOP5","n":30,"nombre":"S. Cristobal A","rating":5.64,"region":"Insular","rmse":1.41},{"bias":-0.48,"codigo":"84001","color":"#0B6E4F","confianza":"Alta","corr":0.34,"familia":"Postprocesamiento","lat":-0.445,"lon":-90.269,"mae":0.88,"modelo":"CONSENSO_OP_TOP5","n":30,"nombre":"Baltra","rating":5.63,"region":"Insular","rmse":1.52},{"bias":0.02,"codigo":"84200","color":"#1F78B4","confianza":"Alta","corr":0.21,"familia":"Postprocesamiento","lat":-2.2,"lon":-80.98972,"mae":1.2,"modelo":"QM_METEOBLUE","n":30,"nombre":"Salinas","rating":5.58,"region":"Litoral","rmse":1.75},{"bias":-0.06,"codigo":"84063","color":"#1F78B4","confianza":"Alta","corr":0.52,"familia":"Postprocesamiento","lat":0.0925,"lon":-76.86944,"mae":1.46,"modelo":"QM_METEOBLUE","n":30,"nombre":"Lago Agrio","rating":5.47,"region":"Amazonia","rmse":1.91},{"bias":-0.13,"codigo":"84253","color":"#F781BF","confianza":"Alta","corr":0.56,"familia":"Postprocesamiento","lat":-3.42333,"lon":-78.56694,"mae":1.61,"modelo":"BC_CLASSIC_IFSHRES","n":30,"nombre":"Gualaquiza","rating":5.23,"region":"Amazonia","rmse":2.05},{"bias":-0.09,"codigo":"84270","color":"#111111","confianza":"Alta","corr":0.44,"familia":"Postprocesamiento","lat":-4.0375,"lon":-79.2034,"mae":1.57,"modelo":"BEST_OP_CV","n":30,"nombre":"Loja Argelia","rating":5.21,"region":"Interandina","rmse":2.03},{"bias":-0.29,"codigo":"M1240","color":"#0B6E4F","confianza":"Alta","corr":0.38,"familia":"Postprocesamiento","lat":0.32978,"lon":-78.1322,"mae":1.39,"modelo":"CONSENSO_OP_TOP5","n":30,"nombre":"Ibarra","rating":5.11,"region":"Interandina","rmse":1.9},{"bias":-0.48,"codigo":"84135","color":"#1B9E77","confianza":"Alta","corr":0.4,"familia":"Postprocesamiento","lat":-1.17343,"lon":-80.38736,"mae":1.29,"modelo":"BC_CLASSIC_IFS025","n":30,"nombre":"Portoviejo","rating":5.08,"region":"Litoral","rmse":1.76},{"bias":-0.5,"codigo":"84143","color":"#111111","confianza":"Alta","corr":0.32,"familia":"Postprocesamiento","lat":-1.01998,"lon":-78.59456,"mae":1.16,"modelo":"BEST_OP_CV","n":30,"nombre":"Rumipamba","rating":5.03,"region":"Interandina","rmse":1.96},{"bias":-0.25,"codigo":"84099","color":"#A65628","confianza":"Alta","corr":0.56,"familia":"Postprocesamiento","lat":-0.46056,"lon":-76.98806,"mae":1.61,"modelo":"BC_CLASSIC_METEOBLUE","n":30,"nombre":"El Coca","rating":4.99,"region":"Amazonia","rmse":2.25},{"bias":0.02,"codigo":"84217","color":"#377EB8","confianza":"Alta","corr":0.39,"familia":"Postprocesamiento","lat":-2.29861,"lon":-78.12056,"mae":1.92,"modelo":"QM_AIFS025","n":30,"nombre":"Macas","rating":4.92,"region":"Amazonia","rmse":2.35},{"bias":-0.21,"codigo":"M0024","color":"#4DAF4A","confianza":"Alta","corr":0.42,"familia":"Postprocesamiento","lat":-0.1783,"lon":-78.48773,"mae":1.64,"modelo":"BC_CLASSIC_AIFS025","n":30,"nombre":"I\u00f1aquito","rating":4.91,"region":"Interandina","rmse":2.17},{"bias":-0.28,"codigo":"84265","color":"#A65628","confianza":"Alta","corr":0.42,"familia":"Postprocesamiento","lat":-3.99556,"lon":-79.37167,"mae":1.42,"modelo":"BC_CLASSIC_METEOBLUE","n":30,"nombre":"La Toma","rating":4.89,"region":"Interandina","rmse":2.46},{"bias":-0.37,"codigo":"84008","color":"#E7298A","confianza":"Alta","corr":0.07,"familia":"Postprocesamiento","lat":-0.90406,"lon":-89.61431,"mae":1.28,"modelo":"BC_CLASSIC_GFS05","n":30,"nombre":"S. Cristobal","rating":4.87,"region":"Insular","rmse":1.82},{"bias":-0.05,"codigo":"84239","color":"#1F78B4","confianza":"Alta","corr":0.32,"familia":"Postprocesamiento","lat":-2.88917,"lon":-78.98417,"mae":1.78,"modelo":"QM_METEOBLUE","n":30,"nombre":"Cuenca","rating":4.8,"region":"Interandina","rmse":2.61},{"bias":-0.98,"codigo":"84173","color":"#0B6E4F","confianza":"Alta","corr":0.62,"familia":"Postprocesamiento","lat":-1.65083,"lon":-78.68521,"mae":1.39,"modelo":"CONSENSO_OP_TOP5","n":30,"nombre":"ESPOCH","rating":4.8,"region":"Interandina","rmse":1.86},{"bias":0.01,"codigo":"84075","color":"#1F78B4","confianza":"Alta","corr":0.49,"familia":"Postprocesamiento","lat":-0.14083,"lon":-78.353,"mae":1.95,"modelo":"QM_METEOBLUE","n":30,"nombre":"Tababela","rating":4.64,"region":"Interandina","rmse":3.8},{"bias":-0.98,"codigo":"84176","color":"#111111","confianza":"Alta","corr":0.34,"familia":"Postprocesamiento","lat":-1.65333,"lon":-78.54889,"mae":1.33,"modelo":"BEST_OP_CV","n":30,"nombre":"Riobamba","rating":4.54,"region":"Interandina","rmse":1.98},{"bias":-0.15,"codigo":"84076","color":"#377EB8","confianza":"Alta","corr":0.09,"familia":"Postprocesamiento","lat":-0.23179,"lon":-78.37043,"mae":1.77,"modelo":"QM_AIFS025","n":30,"nombre":"La Tola","rating":4.47,"region":"Interandina","rmse":2.54},{"bias":-0.22,"codigo":"84056","color":"#E7298A","confianza":"Alta","corr":0.12,"familia":"Postprocesamiento","lat":0.01116,"lon":-78.25505,"mae":1.9,"modelo":"BC_CLASSIC_GFS05","n":30,"nombre":"Tomal\u00f3n","rating":4.28,"region":"Interandina","rmse":2.71}],"metricas":{"calif_media":5.6,"estaciones":40,"mas_ganador":"CONSENSO_OP_TOP5"},"modo":"continuous","ranking":[{"bias":-0.31,"color":"#0B6E4F","confianza":"Alta","corr":0.43,"estaciones":40,"familia":"Postprocesamiento","mae":1.24,"modelo":"CONSENSO_OP_TOP5","n":30,"rating":5.38,"rmse":1.75},{"bias":-0.34,"color":"#111111","confianza":"Alta","corr":0.43,"estaciones":40,"familia":"Postprocesamiento","mae":1.25,"modelo":"BEST_OP_CV","n":30,"rating":5.36,"rmse":1.75},{"bias":-0.38,"color":"#A65628","confianza":"Alta","corr":0.46,"estaciones":40,"familia":"Postprocesamiento","mae":1.42,"modelo":"BC_CLASSIC_METEOBLUE","n":30,"rating":5.12,"rmse":1.98},{"bias":-0.36,"color":"#1F78B4","confianza":"Alta","corr":0.48,"estaciones":40,"familia":"Postprocesamiento","mae":1.56,"modelo":"QM_METEOBLUE","n":30,"rating":4.99,"rmse":2.09},{"bias":-0.1,"color":"#F781BF","confianza":"Alta","corr":0.31,"estaciones":40,"familia":"Postprocesamiento","mae":1.65,"modelo":"BC_CLASSIC_IFSHRES","n":30,"rating":4.8,"rmse":2.19},{"bias":-0.33,"color":"#4DAF4A","confianza":"Alta","corr":0.3,"estaciones":40,"familia":"Postprocesamiento","mae":1.62,"modelo":"BC_CLASSIC_AIFS025","n":30,"rating":4.67,"rmse":2.19},{"bias":-0.22,"color":"#7570B3","confianza":"Alta","corr":0.31,"estaciones":40,"familia":"Postprocesamiento","mae":1.72,"modelo":"BC_CLASSIC_ICON","n":30,"rating":4.6,"rmse":2.28},{"bias":-0.14,"color":"#1B9E77","confianza":"Alta","corr":0.25,"estaciones":40,"familia":"Postprocesamiento","mae":1.82,"modelo":"BC_CLASSIC_IFS025","n":30,"rating":4.45,"rmse":2.46},{"bias":0.04,"color":"#B33DC6","confianza":"Alta","corr":0.36,"estaciones":40,"familia":"Postprocesamiento","mae":1.79,"modelo":"QM_IFSHRES","n":30,"rating":4.35,"rmse":2.25},{"bias":-0.13,"color":"#E7298A","confianza":"Alta","corr":0.26,"estaciones":40,"familia":"Postprocesamiento","mae":2.08,"modelo":"BC_CLASSIC_GFS05","n":30,"rating":4.17,"rmse":2.7},{"bias":-0.27,"color":"#377EB8","confianza":"Alta","corr":0.34,"estaciones":40,"familia":"Postprocesamiento","mae":2.14,"modelo":"QM_AIFS025","n":30,"rating":4.11,"rmse":2.66},{"bias":-0.2,"color":"#FB9A99","confianza":"Alta","corr":0.38,"estaciones":40,"familia":"Postprocesamiento","mae":2.02,"modelo":"QM_ICON","n":30,"rating":4.11,"rmse":2.49},{"bias":-0.28,"color":"#E69F00","confianza":"Alta","corr":0.17,"estaciones":40,"familia":"Postprocesamiento","mae":1.91,"modelo":"EMOS_GAUSS","n":30,"rating":4.06,"rmse":2.35},{"bias":-0.06,"color":"#B2DF8A","confianza":"Alta","corr":0.31,"estaciones":40,"familia":"Postprocesamiento","mae":2.37,"modelo":"QM_IFS025","n":30,"rating":3.88,"rmse":2.82},{"bias":0.07,"color":"#FDBF6F","confianza":"Alta","corr":0.28,"estaciones":40,"familia":"Postprocesamiento","mae":2.49,"modelo":"QM_GFS05","n":30,"rating":3.75,"rmse":2.99},{"bias":-2.88,"color":"#17A398","confianza":"Alta","corr":0.53,"estaciones":40,"familia":"Postprocesamiento","mae":3.05,"modelo":"ENS_MEDIAN","n":30,"rating":3.49,"rmse":3.33},{"bias":-2.94,"color":"#8A2BE2","confianza":"Alta","corr":0.58,"estaciones":40,"familia":"Postprocesamiento","mae":3.1,"modelo":"ENS_MEAN","n":30,"rating":3.47,"rmse":3.36},{"bias":-0.53,"color":"#00A9A5","confianza":"Media","corr":0.01,"estaciones":40,"familia":"Postprocesamiento","mae":4.82,"modelo":"NGR","n":25,"rating":2.27,"rmse":5.26}],"sintesis_region":[{"modelo":"BC_CLASSIC_AIFS025","region":"Amazonia"},{"modelo":"CONSENSO_OP_TOP5","region":"Insular"},{"modelo":"CONSENSO_OP_TOP5","region":"Interandina"},{"modelo":"QM_METEOBLUE","region":"Litoral"}],"ventana":"30"}
