{"bloque":"tmin","bloques":[{"clave":"precip_det","etiqueta":"Precipitaci\u00f3n: detecci\u00f3n"},{"clave":"precip_cua","etiqueta":"Precipitaci\u00f3n: cuantificaci\u00f3n"},{"clave":"tmax","etiqueta":"Temperatura m\u00e1xima"},{"clave":"tmin","etiqueta":"Temperatura m\u00ednima"}],"estaciones":[{"codigo":"84099","nombre":"El Coca","region":"Amazonia"},{"codigo":"84253","nombre":"Gualaquiza","region":"Amazonia"},{"codigo":"84151","nombre":"Jumandy","region":"Amazonia"},{"codigo":"84063","nombre":"Lago Agrio","region":"Amazonia"},{"codigo":"84217","nombre":"Macas","region":"Amazonia"},{"codigo":"84132","nombre":"N. Rocafu","region":"Amazonia"},{"codigo":"84163","nombre":"Pastaza","region":"Amazonia"},{"codigo":"84179","nombre":"Puyo","region":"Amazonia"},{"codigo":"84001","nombre":"Baltra","region":"Insular"},{"codigo":"84008","nombre":"S. Cristobal","region":"Insular"},{"codigo":"84010","nombre":"S. Cristobal A","region":"Insular"},{"codigo":"84147","nombre":"Ambato","region":"Interandina"},{"codigo":"84226","nombre":"Ca\u00f1ar","region":"Interandina"},{"codigo":"84239","nombre":"Cuenca","region":"Interandina"},{"codigo":"84173","nombre":"ESPOCH","region":"Interandina"},{"codigo":"M1240","nombre":"Ibarra","region":"Interandina"},{"codigo":"84045","nombre":"Inguincho","region":"Interandina"},{"codigo":"84088","nombre":"Izobamba","region":"Interandina"},{"codigo":"M0024","nombre":"I\u00f1aquito","region":"Interandina"},{"codigo":"84076","nombre":"La Tola","region":"Interandina"},{"codigo":"84265","nombre":"La Toma","region":"Interandina"},{"codigo":"84123","nombre":"Latacunga","region":"Interandina"},{"codigo":"84270","nombre":"Loja Argelia","region":"Interandina"},{"codigo":"84160","nombre":"Querochaca","region":"Interandina"},{"codigo":"84176","nombre":"Riobamba","region":"Interandina"},{"codigo":"84143","nombre":"Rumipamba","region":"Interandina"},{"codigo":"84036","nombre":"S. Gabriel","region":"Interandina"},{"codigo":"84075","nombre":"Tababela","region":"Interandina"},{"codigo":"84056","nombre":"Tomal\u00f3n","region":"Interandina"},{"codigo":"84027","nombre":"Tulc\u00e1n","region":"Interandina"},{"codigo":"84018","nombre":"Esmeraldas","region":"Litoral"},{"codigo":"84203","nombre":"Guayaquil","region":"Litoral"},{"codigo":"84050","nombre":"La Concordia","region":"Litoral"},{"codigo":"84117","nombre":"Manta","region":"Litoral"},{"codigo":"M0037","nombre":"Milagro","region":"Litoral"},{"codigo":"84140","nombre":"Pichilingue","region":"Litoral"},{"codigo":"84135","nombre":"Portoviejo","region":"Litoral"},{"codigo":"84105","nombre":"Puerto Ila","region":"Litoral"},{"codigo":"84200","nombre":"Salinas","region":"Litoral"},{"codigo":"84252","nombre":"Sta. Rosa","region":"Litoral"}],"familia":"Convencionales","ganadores":[{"bias":0.01,"codigo":"84200","color":"#E69F00","confianza":"Alta","corr":0.94,"familia":"Convencionales","lat":-2.2,"lon":-80.98972,"mae":0.46,"modelo":"GFS05","n":163,"nombre":"Salinas","rating":8.16,"region":"Litoral","rmse":0.59},{"bias":-0.2,"codigo":"84105","color":"#009E73","confianza":"Alta","corr":0.81,"familia":"Convencionales","lat":-0.493,"lon":-79.34892,"mae":0.5,"modelo":"ICON","n":167,"nombre":"Puerto Ila","rating":7.66,"region":"Litoral","rmse":0.61},{"bias":-0.08,"codigo":"84203","color":"#009E73","confianza":"Alta","corr":0.8,"familia":"Convencionales","lat":-2.15333,"lon":-79.88333,"mae":0.54,"modelo":"ICON","n":147,"nombre":"Guayaquil","rating":7.63,"region":"Litoral","rmse":0.74},{"bias":0.12,"codigo":"84132","color":"#56B4E9","confianza":"Alta","corr":0.55,"familia":"Convencionales","lat":-0.92003,"lon":-75.40303,"mae":0.48,"modelo":"AIFS025","n":74,"nombre":"N. Rocafu","rating":7.55,"region":"Amazonia","rmse":0.64},{"bias":-0.08,"codigo":"84001","color":"#E69F00","confianza":"Alta","corr":0.92,"familia":"Convencionales","lat":-0.445,"lon":-90.269,"mae":0.67,"modelo":"GFS05","n":165,"nombre":"Baltra","rating":7.44,"region":"Insular","rmse":0.84},{"bias":-0.04,"codigo":"84135","color":"#E69F00","confianza":"Alta","corr":0.62,"familia":"Convencionales","lat":-1.17343,"lon":-80.38736,"mae":0.61,"modelo":"GFS05","n":146,"nombre":"Portoviejo","rating":7.37,"region":"Litoral","rmse":0.78},{"bias":0.08,"codigo":"84252","color":"#004E89","confianza":"Alta","corr":0.76,"familia":"Convencionales","lat":-3.43583,"lon":-79.98333,"mae":0.73,"modelo":"IFSHRES","n":175,"nombre":"Sta. Rosa","rating":7.13,"region":"Litoral","rmse":0.94},{"bias":-0.16,"codigo":"84018","color":"#E69F00","confianza":"Alta","corr":0.51,"familia":"Convencionales","lat":0.97917,"lon":-79.62444,"mae":0.62,"modelo":"GFS05","n":128,"nombre":"Esmeraldas","rating":7.1,"region":"Litoral","rmse":0.75},{"bias":0.25,"codigo":"84140","color":"#56B4E9","confianza":"Alta","corr":0.38,"familia":"Convencionales","lat":-1.07434,"lon":-79.4929,"mae":0.55,"modelo":"AIFS025","n":106,"nombre":"Pichilingue","rating":7.04,"region":"Litoral","rmse":0.69},{"bias":0.15,"codigo":"84163","color":"#56B4E9","confianza":"Alta","corr":0.44,"familia":"Convencionales","lat":-1.5,"lon":-78.06667,"mae":0.65,"modelo":"AIFS025","n":108,"nombre":"Pastaza","rating":6.97,"region":"Amazonia","rmse":0.8},{"bias":0.07,"codigo":"84099","color":"#009E73","confianza":"Alta","corr":0.41,"familia":"Convencionales","lat":-0.46056,"lon":-76.98806,"mae":0.67,"modelo":"ICON","n":161,"nombre":"El Coca","rating":6.97,"region":"Amazonia","rmse":0.86},{"bias":-0.17,"codigo":"84217","color":"#56B4E9","confianza":"Alta","corr":0.39,"familia":"Convencionales","lat":-2.29861,"lon":-78.12056,"mae":0.64,"modelo":"AIFS025","n":109,"nombre":"Macas","rating":6.91,"region":"Amazonia","rmse":0.81},{"bias":0.04,"codigo":"M0024","color":"#56B4E9","confianza":"Alta","corr":0.61,"familia":"Convencionales","lat":-0.1783,"lon":-78.48773,"mae":0.81,"modelo":"AIFS025","n":101,"nombre":"I\u00f1aquito","rating":6.87,"region":"Interandina","rmse":1.01},{"bias":-0.29,"codigo":"84063","color":"#0072B2","confianza":"Alta","corr":0.48,"familia":"Convencionales","lat":0.0925,"lon":-76.86944,"mae":0.66,"modelo":"IFS025","n":149,"nombre":"Lago Agrio","rating":6.73,"region":"Amazonia","rmse":0.88},{"bias":0.24,"codigo":"84179","color":"#56B4E9","confianza":"Alta","corr":0.47,"familia":"Convencionales","lat":-1.5057,"lon":-77.956,"mae":0.68,"modelo":"AIFS025","n":107,"nombre":"Puyo","rating":6.73,"region":"Amazonia","rmse":0.92},{"bias":-0.21,"codigo":"84050","color":"#004E89","confianza":"Alta","corr":0.46,"familia":"Convencionales","lat":-0.02478,"lon":-79.38028,"mae":0.74,"modelo":"IFSHRES","n":151,"nombre":"La Concordia","rating":6.61,"region":"Litoral","rmse":0.97},{"bias":-0.36,"codigo":"84151","color":"#009E73","confianza":"Alta","corr":0.47,"familia":"Convencionales","lat":-1.057,"lon":-77.584,"mae":0.7,"modelo":"ICON","n":86,"nombre":"Jumandy","rating":6.6,"region":"Amazonia","rmse":0.84},{"bias":0.46,"codigo":"84008","color":"#004E89","confianza":"Alta","corr":0.86,"familia":"Convencionales","lat":-0.90406,"lon":-89.61431,"mae":0.78,"modelo":"IFSHRES","n":146,"nombre":"S. Cristobal","rating":6.53,"region":"Insular","rmse":1.12},{"bias":-0.11,"codigo":"84173","color":"#56B4E9","confianza":"Alta","corr":0.63,"familia":"Convencionales","lat":-1.65083,"lon":-78.68521,"mae":0.96,"modelo":"AIFS025","n":107,"nombre":"ESPOCH","rating":6.45,"region":"Interandina","rmse":1.17},{"bias":0.05,"codigo":"84226","color":"#004E89","confianza":"Alta","corr":0.59,"familia":"Convencionales","lat":-2.55221,"lon":-78.94519,"mae":1.03,"modelo":"IFSHRES","n":134,"nombre":"Ca\u00f1ar","rating":6.33,"region":"Interandina","rmse":1.31},{"bias":-0.33,"codigo":"84117","color":"#56B4E9","confianza":"Alta","corr":0.41,"familia":"Convencionales","lat":-0.95,"lon":-80.68333,"mae":0.85,"modelo":"AIFS025","n":108,"nombre":"Manta","rating":6.23,"region":"Litoral","rmse":1.03},{"bias":1.0,"codigo":"84010","color":"#004E89","confianza":"Alta","corr":0.89,"familia":"Convencionales","lat":-0.909,"lon":-89.617,"mae":1.06,"modelo":"IFSHRES","n":157,"nombre":"S. Cristobal A","rating":5.65,"region":"Insular","rmse":1.34},{"bias":-0.38,"codigo":"84147","color":"#56B4E9","confianza":"Alta","corr":0.53,"familia":"Convencionales","lat":-1.21413,"lon":-78.57455,"mae":1.14,"modelo":"AIFS025","n":50,"nombre":"Ambato","rating":5.64,"region":"Interandina","rmse":1.41},{"bias":0.03,"codigo":"84076","color":"#0072B2","confianza":"Alta","corr":0.49,"familia":"Convencionales","lat":-0.23179,"lon":-78.37043,"mae":1.42,"modelo":"IFS025","n":137,"nombre":"La Tola","rating":5.61,"region":"Interandina","rmse":1.75},{"bias":0.31,"codigo":"84160","color":"#56B4E9","confianza":"Alta","corr":0.62,"familia":"Convencionales","lat":-1.3671,"lon":-78.60554,"mae":1.34,"modelo":"AIFS025","n":108,"nombre":"Querochaca","rating":5.47,"region":"Interandina","rmse":1.65},{"bias":-0.38,"codigo":"84143","color":"#E69F00","confianza":"Alta","corr":0.48,"familia":"Convencionales","lat":-1.01998,"lon":-78.59456,"mae":1.25,"modelo":"GFS05","n":152,"nombre":"Rumipamba","rating":5.42,"region":"Interandina","rmse":1.53},{"bias":0.09,"codigo":"84075","color":"#0072B2","confianza":"Alta","corr":0.45,"familia":"Convencionales","lat":-0.14083,"lon":-78.353,"mae":1.5,"modelo":"IFS025","n":149,"nombre":"Tababela","rating":5.38,"region":"Interandina","rmse":1.81},{"bias":0.06,"codigo":"84265","color":"#56B4E9","confianza":"Alta","corr":0.21,"familia":"Convencionales","lat":-3.99556,"lon":-79.37167,"mae":1.36,"modelo":"AIFS025","n":108,"nombre":"La Toma","rating":5.37,"region":"Interandina","rmse":1.71},{"bias":-1.19,"codigo":"M0037","color":"#009E73","confianza":"Media","corr":0.77,"familia":"Convencionales","lat":-2.11805,"lon":-79.60038,"mae":1.2,"modelo":"ICON","n":23,"nombre":"Milagro","rating":5.27,"region":"Litoral","rmse":1.39},{"bias":-0.55,"codigo":"84027","color":"#009E73","confianza":"Alta","corr":0.68,"familia":"Convencionales","lat":0.81667,"lon":-77.7,"mae":1.34,"modelo":"ICON","n":105,"nombre":"Tulc\u00e1n","rating":5.22,"region":"Interandina","rmse":1.79},{"bias":0.12,"codigo":"84045","color":"#004E89","confianza":"Alta","corr":0.02,"familia":"Convencionales","lat":0.25694,"lon":-78.40524,"mae":1.2,"modelo":"IFSHRES","n":146,"nombre":"Inguincho","rating":4.92,"region":"Interandina","rmse":2.57},{"bias":0.5,"codigo":"84270","color":"#009E73","confianza":"Alta","corr":0.3,"familia":"Convencionales","lat":-4.0375,"lon":-79.2034,"mae":1.42,"modelo":"ICON","n":149,"nombre":"Loja Argelia","rating":4.84,"region":"Interandina","rmse":1.79},{"bias":0.57,"codigo":"M1240","color":"#004E89","confianza":"Alta","corr":0.12,"familia":"Convencionales","lat":0.32978,"lon":-78.1322,"mae":1.74,"modelo":"IFSHRES","n":152,"nombre":"Ibarra","rating":4.21,"region":"Interandina","rmse":2.14},{"bias":-1.76,"codigo":"84239","color":"#56B4E9","confianza":"Alta","corr":0.74,"familia":"Convencionales","lat":-2.88917,"lon":-78.98417,"mae":1.95,"modelo":"AIFS025","n":107,"nombre":"Cuenca","rating":4.13,"region":"Interandina","rmse":2.15},{"bias":0.75,"codigo":"84088","color":"#009E73","confianza":"Alta","corr":0.13,"familia":"Convencionales","lat":-0.36593,"lon":-78.55513,"mae":1.38,"modelo":"ICON","n":177,"nombre":"Izobamba","rating":4.12,"region":"Interandina","rmse":2.86},{"bias":-0.43,"codigo":"84176","color":"#004E89","confianza":"Alta","corr":-0.25,"familia":"Convencionales","lat":-1.65333,"lon":-78.54889,"mae":1.59,"modelo":"IFSHRES","n":105,"nombre":"Riobamba","rating":3.86,"region":"Interandina","rmse":2.92},{"bias":2.04,"codigo":"84036","color":"#56B4E9","confianza":"Alta","corr":0.7,"familia":"Convencionales","lat":0.60417,"lon":-77.81944,"mae":2.06,"modelo":"AIFS025","n":109,"nombre":"S. Gabriel","rating":3.84,"region":"Interandina","rmse":2.56},{"bias":-2.22,"codigo":"84253","color":"#56B4E9","confianza":"Alta","corr":0.38,"familia":"Convencionales","lat":-3.42333,"lon":-78.56694,"mae":2.22,"modelo":"AIFS025","n":68,"nombre":"Gualaquiza","rating":3.53,"region":"Amazonia","rmse":2.32},{"bias":1.99,"codigo":"84056","color":"#0072B2","confianza":"Alta","corr":0.15,"familia":"Convencionales","lat":0.01116,"lon":-78.25505,"mae":2.23,"modelo":"IFS025","n":159,"nombre":"Tomal\u00f3n","rating":3.21,"region":"Interandina","rmse":2.76},{"bias":3.03,"codigo":"84123","color":"#E69F00","confianza":"Alta","corr":0.5,"familia":"Convencionales","lat":-0.91333,"lon":-78.61556,"mae":3.03,"modelo":"GFS05","n":144,"nombre":"Latacunga","rating":2.96,"region":"Interandina","rmse":3.71}],"metricas":{"calif_media":5.9,"estaciones":40,"mas_ganador":"AIFS025"},"modo":"continuous","ranking":[{"bias":0.71,"color":"#56B4E9","confianza":"Alta","corr":0.42,"estaciones":39,"familia":"Convencionales","mae":1.49,"modelo":"AIFS025","n":100,"rating":5.19,"rmse":1.76},{"bias":0.15,"color":"#009E73","confianza":"Alta","corr":0.41,"estaciones":40,"familia":"Convencionales","mae":1.54,"modelo":"ICON","n":146,"rating":4.82,"rmse":2.22},{"bias":-0.48,"color":"#004E89","confianza":"Alta","corr":0.31,"estaciones":40,"familia":"Convencionales","mae":1.56,"modelo":"IFSHRES","n":139,"rating":4.6,"rmse":2.36},{"bias":-0.64,"color":"#0072B2","confianza":"Alta","corr":0.34,"estaciones":40,"familia":"Convencionales","mae":1.82,"modelo":"IFS025","n":145,"rating":4.44,"rmse":2.41},{"bias":-0.32,"color":"#E69F00","confianza":"Alta","corr":0.3,"estaciones":40,"familia":"Convencionales","mae":2.08,"modelo":"GFS05","n":145,"rating":4.09,"rmse":2.72}],"sintesis_region":[{"modelo":"AIFS025","region":"Amazonia"},{"modelo":"IFSHRES","region":"Insular"},{"modelo":"AIFS025","region":"Interandina"},{"modelo":"GFS05","region":"Litoral"}],"ventana":"todo"}
