{"bloque":"tmin","bloques":[{"clave":"precip_det","etiqueta":"Precipitaci\u00f3n: detecci\u00f3n"},{"clave":"precip_cua","etiqueta":"Precipitaci\u00f3n: cuantificaci\u00f3n"},{"clave":"tmax","etiqueta":"Temperatura m\u00e1xima"},{"clave":"tmin","etiqueta":"Temperatura m\u00ednima"}],"estaciones":[{"codigo":"84099","nombre":"El Coca","region":"Amazonia"},{"codigo":"84253","nombre":"Gualaquiza","region":"Amazonia"},{"codigo":"84151","nombre":"Jumandy","region":"Amazonia"},{"codigo":"84063","nombre":"Lago Agrio","region":"Amazonia"},{"codigo":"84217","nombre":"Macas","region":"Amazonia"},{"codigo":"84132","nombre":"N. Rocafu","region":"Amazonia"},{"codigo":"84163","nombre":"Pastaza","region":"Amazonia"},{"codigo":"84179","nombre":"Puyo","region":"Amazonia"},{"codigo":"84001","nombre":"Baltra","region":"Insular"},{"codigo":"84008","nombre":"S. Cristobal","region":"Insular"},{"codigo":"84010","nombre":"S. Cristobal A","region":"Insular"},{"codigo":"84147","nombre":"Ambato","region":"Interandina"},{"codigo":"84226","nombre":"Ca\u00f1ar","region":"Interandina"},{"codigo":"84239","nombre":"Cuenca","region":"Interandina"},{"codigo":"84173","nombre":"ESPOCH","region":"Interandina"},{"codigo":"M1240","nombre":"Ibarra","region":"Interandina"},{"codigo":"84045","nombre":"Inguincho","region":"Interandina"},{"codigo":"84088","nombre":"Izobamba","region":"Interandina"},{"codigo":"M0024","nombre":"I\u00f1aquito","region":"Interandina"},{"codigo":"84076","nombre":"La Tola","region":"Interandina"},{"codigo":"84265","nombre":"La Toma","region":"Interandina"},{"codigo":"84123","nombre":"Latacunga","region":"Interandina"},{"codigo":"84270","nombre":"Loja Argelia","region":"Interandina"},{"codigo":"84160","nombre":"Querochaca","region":"Interandina"},{"codigo":"84176","nombre":"Riobamba","region":"Interandina"},{"codigo":"84143","nombre":"Rumipamba","region":"Interandina"},{"codigo":"84036","nombre":"S. Gabriel","region":"Interandina"},{"codigo":"84075","nombre":"Tababela","region":"Interandina"},{"codigo":"84056","nombre":"Tomal\u00f3n","region":"Interandina"},{"codigo":"84027","nombre":"Tulc\u00e1n","region":"Interandina"},{"codigo":"84018","nombre":"Esmeraldas","region":"Litoral"},{"codigo":"84203","nombre":"Guayaquil","region":"Litoral"},{"codigo":"84050","nombre":"La Concordia","region":"Litoral"},{"codigo":"84117","nombre":"Manta","region":"Litoral"},{"codigo":"M0037","nombre":"Milagro","region":"Litoral"},{"codigo":"84140","nombre":"Pichilingue","region":"Litoral"},{"codigo":"84135","nombre":"Portoviejo","region":"Litoral"},{"codigo":"84105","nombre":"Puerto Ila","region":"Litoral"},{"codigo":"84200","nombre":"Salinas","region":"Litoral"},{"codigo":"84252","nombre":"Sta. Rosa","region":"Litoral"}],"familia":"Convencionales","ganadores":[{"bias":0.02,"codigo":"84203","color":"#009E73","confianza":"Media","corr":0.27,"familia":"Convencionales","lat":-2.15333,"lon":-79.88333,"mae":0.28,"modelo":"ICON","n":15,"nombre":"Guayaquil","rating":8.16,"region":"Litoral","rmse":0.35},{"bias":-0.15,"codigo":"84200","color":"#E69F00","confianza":"Media","corr":0.37,"familia":"Convencionales","lat":-2.2,"lon":-80.98972,"mae":0.32,"modelo":"GFS05","n":15,"nombre":"Salinas","rating":7.96,"region":"Litoral","rmse":0.36},{"bias":-0.24,"codigo":"84001","color":"#E69F00","confianza":"Media","corr":0.63,"familia":"Convencionales","lat":-0.445,"lon":-90.269,"mae":0.46,"modelo":"GFS05","n":15,"nombre":"Baltra","rating":7.53,"region":"Insular","rmse":0.6},{"bias":0.07,"codigo":"84008","color":"#009E73","confianza":"Media","corr":0.24,"familia":"Convencionales","lat":-0.90406,"lon":-89.61431,"mae":0.47,"modelo":"ICON","n":15,"nombre":"S. Cristobal","rating":7.46,"region":"Insular","rmse":0.54},{"bias":0.39,"codigo":"84132","color":"#009E73","confianza":"Media","corr":0.53,"familia":"Convencionales","lat":-0.92003,"lon":-75.40303,"mae":0.45,"modelo":"ICON","n":15,"nombre":"N. Rocafu","rating":7.24,"region":"Amazonia","rmse":0.65},{"bias":-0.28,"codigo":"84105","color":"#009E73","confianza":"Media","corr":0.62,"familia":"Convencionales","lat":-0.493,"lon":-79.34892,"mae":0.58,"modelo":"ICON","n":15,"nombre":"Puerto Ila","rating":7.23,"region":"Litoral","rmse":0.63},{"bias":0.29,"codigo":"84135","color":"#E69F00","confianza":"Media","corr":0.61,"familia":"Convencionales","lat":-1.17343,"lon":-80.38736,"mae":0.6,"modelo":"GFS05","n":15,"nombre":"Portoviejo","rating":7.09,"region":"Litoral","rmse":0.73},{"bias":0.4,"codigo":"84163","color":"#56B4E9","confianza":"Media","corr":0.64,"familia":"Convencionales","lat":-1.5,"lon":-78.06667,"mae":0.57,"modelo":"AIFS025","n":15,"nombre":"Pastaza","rating":7.07,"region":"Amazonia","rmse":0.7},{"bias":0.0,"codigo":"84252","color":"#004E89","confianza":"Media","corr":0.42,"familia":"Convencionales","lat":-3.43583,"lon":-79.98333,"mae":0.71,"modelo":"IFSHRES","n":15,"nombre":"Sta. Rosa","rating":6.98,"region":"Litoral","rmse":0.92},{"bias":0.15,"codigo":"84050","color":"#004E89","confianza":"Media","corr":0.28,"familia":"Convencionales","lat":-0.02478,"lon":-79.38028,"mae":0.61,"modelo":"IFSHRES","n":15,"nombre":"La Concordia","rating":6.94,"region":"Litoral","rmse":0.73},{"bias":-0.15,"codigo":"84217","color":"#56B4E9","confianza":"Media","corr":0.55,"familia":"Convencionales","lat":-2.29861,"lon":-78.12056,"mae":0.68,"modelo":"AIFS025","n":15,"nombre":"Macas","rating":6.9,"region":"Amazonia","rmse":0.92},{"bias":0.35,"codigo":"84140","color":"#56B4E9","confianza":"Media","corr":0.48,"familia":"Convencionales","lat":-1.07434,"lon":-79.4929,"mae":0.62,"modelo":"AIFS025","n":15,"nombre":"Pichilingue","rating":6.86,"region":"Litoral","rmse":0.73},{"bias":-0.45,"codigo":"84151","color":"#56B4E9","confianza":"Media","corr":0.35,"familia":"Convencionales","lat":-1.057,"lon":-77.584,"mae":0.56,"modelo":"AIFS025","n":15,"nombre":"Jumandy","rating":6.82,"region":"Amazonia","rmse":0.66},{"bias":-0.15,"codigo":"84063","color":"#56B4E9","confianza":"Media","corr":0.57,"familia":"Convencionales","lat":0.0925,"lon":-76.86944,"mae":0.77,"modelo":"AIFS025","n":15,"nombre":"Lago Agrio","rating":6.7,"region":"Amazonia","rmse":1.03},{"bias":0.12,"codigo":"M1240","color":"#009E73","confianza":"Media","corr":0.64,"familia":"Convencionales","lat":0.32978,"lon":-78.1322,"mae":0.97,"modelo":"ICON","n":15,"nombre":"Ibarra","rating":6.41,"region":"Interandina","rmse":1.21},{"bias":-0.02,"codigo":"84027","color":"#009E73","confianza":"Media","corr":0.7,"familia":"Convencionales","lat":0.81667,"lon":-77.7,"mae":1.12,"modelo":"ICON","n":15,"nombre":"Tulc\u00e1n","rating":6.35,"region":"Interandina","rmse":1.35},{"bias":-0.01,"codigo":"84226","color":"#0072B2","confianza":"Media","corr":0.53,"familia":"Convencionales","lat":-2.55221,"lon":-78.94519,"mae":1.06,"modelo":"IFS025","n":15,"nombre":"Ca\u00f1ar","rating":6.32,"region":"Interandina","rmse":1.28},{"bias":-0.14,"codigo":"84099","color":"#009E73","confianza":"Media","corr":-0.14,"familia":"Convencionales","lat":-0.46056,"lon":-76.98806,"mae":0.73,"modelo":"ICON","n":15,"nombre":"El Coca","rating":6.18,"region":"Amazonia","rmse":0.98},{"bias":-0.14,"codigo":"84045","color":"#004E89","confianza":"Media","corr":0.32,"familia":"Convencionales","lat":0.25694,"lon":-78.40524,"mae":1.06,"modelo":"IFSHRES","n":15,"nombre":"Inguincho","rating":5.99,"region":"Interandina","rmse":1.19},{"bias":-0.16,"codigo":"84018","color":"#E69F00","confianza":"Media","corr":-0.18,"familia":"Convencionales","lat":0.97917,"lon":-79.62444,"mae":0.85,"modelo":"GFS05","n":15,"nombre":"Esmeraldas","rating":5.97,"region":"Litoral","rmse":0.93},{"bias":-0.21,"codigo":"84179","color":"#004E89","confianza":"Media","corr":0.36,"familia":"Convencionales","lat":-1.5057,"lon":-77.956,"mae":1.07,"modelo":"IFSHRES","n":15,"nombre":"Puyo","rating":5.87,"region":"Amazonia","rmse":1.27},{"bias":0.78,"codigo":"84010","color":"#004E89","confianza":"Media","corr":0.18,"familia":"Convencionales","lat":-0.909,"lon":-89.617,"mae":0.84,"modelo":"IFSHRES","n":15,"nombre":"S. Cristobal A","rating":5.75,"region":"Insular","rmse":0.89},{"bias":0.42,"codigo":"M0024","color":"#E69F00","confianza":"Media","corr":0.34,"familia":"Convencionales","lat":-0.1783,"lon":-78.48773,"mae":1.02,"modelo":"GFS05","n":15,"nombre":"I\u00f1aquito","rating":5.74,"region":"Interandina","rmse":1.17},{"bias":-0.31,"codigo":"84143","color":"#E69F00","confianza":"Media","corr":0.42,"familia":"Convencionales","lat":-1.01998,"lon":-78.59456,"mae":1.13,"modelo":"GFS05","n":15,"nombre":"Rumipamba","rating":5.7,"region":"Interandina","rmse":1.32},{"bias":0.19,"codigo":"84173","color":"#56B4E9","confianza":"Media","corr":0.28,"familia":"Convencionales","lat":-1.65083,"lon":-78.68521,"mae":1.13,"modelo":"AIFS025","n":15,"nombre":"ESPOCH","rating":5.69,"region":"Interandina","rmse":1.38},{"bias":0.34,"codigo":"84088","color":"#009E73","confianza":"Media","corr":0.5,"familia":"Convencionales","lat":-0.36593,"lon":-78.55513,"mae":1.13,"modelo":"ICON","n":15,"nombre":"Izobamba","rating":5.69,"region":"Interandina","rmse":1.39},{"bias":0.47,"codigo":"84076","color":"#009E73","confianza":"Media","corr":0.74,"familia":"Convencionales","lat":-0.23179,"lon":-78.37043,"mae":1.16,"modelo":"ICON","n":15,"nombre":"La Tola","rating":5.68,"region":"Interandina","rmse":1.48},{"bias":-0.85,"codigo":"84117","color":"#56B4E9","confianza":"Media","corr":0.27,"familia":"Convencionales","lat":-0.95,"lon":-80.68333,"mae":1.02,"modelo":"AIFS025","n":15,"nombre":"Manta","rating":5.38,"region":"Litoral","rmse":1.11},{"bias":0.27,"codigo":"84160","color":"#004E89","confianza":"Media","corr":0.6,"familia":"Convencionales","lat":-1.3671,"lon":-78.60554,"mae":1.53,"modelo":"IFSHRES","n":15,"nombre":"Querochaca","rating":5.23,"region":"Interandina","rmse":1.85},{"bias":-0.41,"codigo":"84036","color":"#004E89","confianza":"Media","corr":0.41,"familia":"Convencionales","lat":0.60417,"lon":-77.81944,"mae":1.35,"modelo":"IFSHRES","n":15,"nombre":"S. Gabriel","rating":5.15,"region":"Interandina","rmse":1.66},{"bias":0.27,"codigo":"84123","color":"#009E73","confianza":"Media","corr":0.45,"familia":"Convencionales","lat":-0.91333,"lon":-78.61556,"mae":1.45,"modelo":"ICON","n":15,"nombre":"Latacunga","rating":5.12,"region":"Interandina","rmse":1.91},{"bias":-0.86,"codigo":"84147","color":"#56B4E9","confianza":"Media","corr":0.42,"familia":"Convencionales","lat":-1.21413,"lon":-78.57455,"mae":1.22,"modelo":"AIFS025","n":15,"nombre":"Ambato","rating":5.06,"region":"Interandina","rmse":1.45},{"bias":-1.33,"codigo":"M0037","color":"#009E73","confianza":"Media","corr":0.77,"familia":"Convencionales","lat":-2.11805,"lon":-79.60038,"mae":1.33,"modelo":"ICON","n":15,"nombre":"Milagro","rating":5.04,"region":"Litoral","rmse":1.5},{"bias":-0.35,"codigo":"84176","color":"#004E89","confianza":"Media","corr":0.4,"familia":"Convencionales","lat":-1.65333,"lon":-78.54889,"mae":1.48,"modelo":"IFSHRES","n":15,"nombre":"Riobamba","rating":4.95,"region":"Interandina","rmse":1.97},{"bias":0.64,"codigo":"84270","color":"#0072B2","confianza":"Media","corr":0.68,"familia":"Convencionales","lat":-4.0375,"lon":-79.2034,"mae":1.56,"modelo":"IFS025","n":15,"nombre":"Loja Argelia","rating":4.87,"region":"Interandina","rmse":1.96},{"bias":0.6,"codigo":"84075","color":"#009E73","confianza":"Media","corr":0.4,"familia":"Convencionales","lat":-0.14083,"lon":-78.353,"mae":1.49,"modelo":"ICON","n":15,"nombre":"Tababela","rating":4.76,"region":"Interandina","rmse":1.84},{"bias":0.29,"codigo":"84265","color":"#009E73","confianza":"Media","corr":0.12,"familia":"Convencionales","lat":-3.99556,"lon":-79.37167,"mae":1.67,"modelo":"ICON","n":15,"nombre":"La Toma","rating":4.62,"region":"Interandina","rmse":1.95},{"bias":-1.25,"codigo":"84239","color":"#56B4E9","confianza":"Media","corr":0.44,"familia":"Convencionales","lat":-2.88917,"lon":-78.98417,"mae":1.61,"modelo":"AIFS025","n":15,"nombre":"Cuenca","rating":4.36,"region":"Interandina","rmse":1.82},{"bias":-2.0,"codigo":"84253","color":"#56B4E9","confianza":"Media","corr":0.29,"familia":"Convencionales","lat":-3.42333,"lon":-78.56694,"mae":2.0,"modelo":"AIFS025","n":15,"nombre":"Gualaquiza","rating":3.66,"region":"Amazonia","rmse":2.13},{"bias":2.85,"codigo":"84056","color":"#004E89","confianza":"Media","corr":0.42,"familia":"Convencionales","lat":0.01116,"lon":-78.25505,"mae":3.33,"modelo":"IFSHRES","n":15,"nombre":"Tomal\u00f3n","rating":2.83,"region":"Interandina","rmse":3.76}],"metricas":{"calif_media":6.0,"estaciones":40,"mas_ganador":"ICON"},"modo":"continuous","ranking":[{"bias":0.07,"color":"#009E73","confianza":"Media","corr":0.35,"estaciones":40,"familia":"Convencionales","mae":1.49,"modelo":"ICON","n":15,"rating":5.06,"rmse":1.75},{"bias":-0.36,"color":"#004E89","confianza":"Media","corr":0.34,"estaciones":40,"familia":"Convencionales","mae":1.43,"modelo":"IFSHRES","n":15,"rating":4.96,"rmse":1.68},{"bias":0.93,"color":"#56B4E9","confianza":"Media","corr":0.33,"estaciones":39,"familia":"Convencionales","mae":1.66,"modelo":"AIFS025","n":15,"rating":4.93,"rmse":1.9},{"bias":-0.43,"color":"#0072B2","confianza":"Media","corr":0.31,"estaciones":40,"familia":"Convencionales","mae":1.75,"modelo":"IFS025","n":15,"rating":4.62,"rmse":1.99},{"bias":-0.58,"color":"#E69F00","confianza":"Media","corr":0.31,"estaciones":40,"familia":"Convencionales","mae":2.1,"modelo":"GFS05","n":15,"rating":4.21,"rmse":2.36}],"sintesis_region":[{"modelo":"AIFS025","region":"Amazonia"},{"modelo":"GFS05","region":"Insular"},{"modelo":"ICON","region":"Interandina"},{"modelo":"ICON","region":"Litoral"}],"ventana":"15"}
