{"bloque":"tmax","bloques":[{"clave":"precip_det","etiqueta":"Precipitaci\u00f3n: detecci\u00f3n"},{"clave":"precip_cua","etiqueta":"Precipitaci\u00f3n: cuantificaci\u00f3n"},{"clave":"tmax","etiqueta":"Temperatura m\u00e1xima"},{"clave":"tmin","etiqueta":"Temperatura m\u00ednima"}],"estaciones":[{"codigo":"84099","nombre":"El Coca","region":"Amazonia"},{"codigo":"84253","nombre":"Gualaquiza","region":"Amazonia"},{"codigo":"84151","nombre":"Jumandy","region":"Amazonia"},{"codigo":"84063","nombre":"Lago Agrio","region":"Amazonia"},{"codigo":"84217","nombre":"Macas","region":"Amazonia"},{"codigo":"84132","nombre":"N. Rocafu","region":"Amazonia"},{"codigo":"84163","nombre":"Pastaza","region":"Amazonia"},{"codigo":"84179","nombre":"Puyo","region":"Amazonia"},{"codigo":"84001","nombre":"Baltra","region":"Insular"},{"codigo":"84008","nombre":"S. Cristobal","region":"Insular"},{"codigo":"84010","nombre":"S. Cristobal A","region":"Insular"},{"codigo":"84147","nombre":"Ambato","region":"Interandina"},{"codigo":"84226","nombre":"Ca\u00f1ar","region":"Interandina"},{"codigo":"84239","nombre":"Cuenca","region":"Interandina"},{"codigo":"84173","nombre":"ESPOCH","region":"Interandina"},{"codigo":"M1240","nombre":"Ibarra","region":"Interandina"},{"codigo":"84045","nombre":"Inguincho","region":"Interandina"},{"codigo":"84088","nombre":"Izobamba","region":"Interandina"},{"codigo":"M0024","nombre":"I\u00f1aquito","region":"Interandina"},{"codigo":"84076","nombre":"La Tola","region":"Interandina"},{"codigo":"84265","nombre":"La Toma","region":"Interandina"},{"codigo":"84123","nombre":"Latacunga","region":"Interandina"},{"codigo":"84270","nombre":"Loja Argelia","region":"Interandina"},{"codigo":"84160","nombre":"Querochaca","region":"Interandina"},{"codigo":"84176","nombre":"Riobamba","region":"Interandina"},{"codigo":"84143","nombre":"Rumipamba","region":"Interandina"},{"codigo":"84036","nombre":"S. Gabriel","region":"Interandina"},{"codigo":"84075","nombre":"Tababela","region":"Interandina"},{"codigo":"84056","nombre":"Tomal\u00f3n","region":"Interandina"},{"codigo":"84027","nombre":"Tulc\u00e1n","region":"Interandina"},{"codigo":"84018","nombre":"Esmeraldas","region":"Litoral"},{"codigo":"84203","nombre":"Guayaquil","region":"Litoral"},{"codigo":"84050","nombre":"La Concordia","region":"Litoral"},{"codigo":"84117","nombre":"Manta","region":"Litoral"},{"codigo":"M0037","nombre":"Milagro","region":"Litoral"},{"codigo":"84140","nombre":"Pichilingue","region":"Litoral"},{"codigo":"84135","nombre":"Portoviejo","region":"Litoral"},{"codigo":"84105","nombre":"Puerto Ila","region":"Litoral"},{"codigo":"84200","nombre":"Salinas","region":"Litoral"},{"codigo":"84252","nombre":"Sta. Rosa","region":"Litoral"}],"familia":"No convencionales","ganadores":[{"bias":-0.52,"codigo":"84200","color":"#D55E00","confianza":"Alta","corr":0.65,"familia":"No convencionales","lat":-2.2,"lon":-80.98972,"mae":0.53,"modelo":"METEOBLUE","n":30,"nombre":"Salinas","rating":7.1,"region":"Litoral","rmse":0.64},{"bias":-0.22,"codigo":"84105","color":"#D55E00","confianza":"Alta","corr":0.67,"familia":"No convencionales","lat":-0.493,"lon":-79.34892,"mae":0.8,"modelo":"METEOBLUE","n":30,"nombre":"Puerto Ila","rating":6.62,"region":"Litoral","rmse":1.07},{"bias":0.28,"codigo":"84163","color":"#648FFF","confianza":"Alta","corr":0.71,"familia":"No convencionales","lat":-1.5,"lon":-78.06667,"mae":0.91,"modelo":"UMGLOBAL10","n":30,"nombre":"Pastaza","rating":6.41,"region":"Amazonia","rmse":1.1},{"bias":-0.13,"codigo":"84140","color":"#D55E00","confianza":"Alta","corr":0.63,"familia":"No convencionales","lat":-1.07434,"lon":-79.4929,"mae":0.99,"modelo":"METEOBLUE","n":30,"nombre":"Pichilingue","rating":6.33,"region":"Litoral","rmse":1.23},{"bias":-0.2,"codigo":"84045","color":"#A6761D","confianza":"Alta","corr":0.7,"familia":"No convencionales","lat":0.25694,"lon":-78.40524,"mae":1.03,"modelo":"NEMSSA","n":30,"nombre":"Inguincho","rating":6.19,"region":"Interandina","rmse":1.32},{"bias":0.5,"codigo":"84117","color":"#B33DC6","confianza":"Alta","corr":0.65,"familia":"No convencionales","lat":-0.95,"lon":-80.68333,"mae":0.92,"modelo":"SA01","n":30,"nombre":"Manta","rating":6.11,"region":"Litoral","rmse":1.1},{"bias":0.22,"codigo":"84088","color":"#DC267F","confianza":"Alta","corr":0.63,"familia":"No convencionales","lat":-0.36593,"lon":-78.55513,"mae":1.11,"modelo":"NEMSGLOBAL_E","n":30,"nombre":"Izobamba","rating":5.93,"region":"Interandina","rmse":1.46},{"bias":0.19,"codigo":"84179","color":"#648FFF","confianza":"Alta","corr":0.61,"familia":"No convencionales","lat":-1.5057,"lon":-77.956,"mae":1.16,"modelo":"UMGLOBAL10","n":30,"nombre":"Puyo","rating":5.9,"region":"Amazonia","rmse":1.45},{"bias":0.26,"codigo":"M0037","color":"#D55E00","confianza":"Media","corr":0.49,"familia":"No convencionales","lat":-2.11805,"lon":-79.60038,"mae":1.09,"modelo":"METEOBLUE","n":25,"nombre":"Milagro","rating":5.76,"region":"Litoral","rmse":1.48},{"bias":0.2,"codigo":"84203","color":"#CC79A7","confianza":"Alta","corr":0.66,"familia":"No convencionales","lat":-2.15333,"lon":-79.88333,"mae":1.36,"modelo":"GEM15","n":30,"nombre":"Guayaquil","rating":5.66,"region":"Litoral","rmse":1.57},{"bias":-0.26,"codigo":"84143","color":"#A6761D","confianza":"Alta","corr":0.5,"familia":"No convencionales","lat":-1.01998,"lon":-78.59456,"mae":1.25,"modelo":"NEMSSA","n":30,"nombre":"Rumipamba","rating":5.49,"region":"Interandina","rmse":1.65},{"bias":-0.99,"codigo":"84018","color":"#D55E00","confianza":"Alta","corr":0.71,"familia":"No convencionales","lat":0.97917,"lon":-79.62444,"mae":1.06,"modelo":"METEOBLUE","n":30,"nombre":"Esmeraldas","rating":5.46,"region":"Litoral","rmse":1.4},{"bias":-0.75,"codigo":"84123","color":"#CC79A7","confianza":"Alta","corr":0.61,"familia":"No convencionales","lat":-0.91333,"lon":-78.61556,"mae":1.11,"modelo":"GEM15","n":30,"nombre":"Latacunga","rating":5.45,"region":"Interandina","rmse":1.38},{"bias":-0.96,"codigo":"84252","color":"#D55E00","confianza":"Alta","corr":0.78,"familia":"No convencionales","lat":-3.43583,"lon":-79.98333,"mae":1.27,"modelo":"METEOBLUE","n":30,"nombre":"Sta. Rosa","rating":5.27,"region":"Litoral","rmse":1.47},{"bias":-0.74,"codigo":"84226","color":"#00A9A5","confianza":"Alta","corr":0.6,"familia":"No convencionales","lat":-2.55221,"lon":-78.94519,"mae":1.22,"modelo":"NEMSGLOBAL","n":30,"nombre":"Ca\u00f1ar","rating":5.23,"region":"Interandina","rmse":1.56},{"bias":-0.99,"codigo":"84036","color":"#D55E00","confianza":"Alta","corr":0.59,"familia":"No convencionales","lat":0.60417,"lon":-77.81944,"mae":1.13,"modelo":"METEOBLUE","n":30,"nombre":"S. Gabriel","rating":5.23,"region":"Interandina","rmse":1.47},{"bias":-0.48,"codigo":"84270","color":"#648FFF","confianza":"Alta","corr":0.71,"familia":"No convencionales","lat":-4.0375,"lon":-79.2034,"mae":1.49,"modelo":"UMGLOBAL10","n":30,"nombre":"Loja Argelia","rating":5.2,"region":"Interandina","rmse":1.72},{"bias":-1.07,"codigo":"84010","color":"#D55E00","confianza":"Alta","corr":0.39,"familia":"No convencionales","lat":-0.909,"lon":-89.617,"mae":1.09,"modelo":"METEOBLUE","n":30,"nombre":"S. Cristobal A","rating":5.04,"region":"Insular","rmse":1.5},{"bias":-0.83,"codigo":"84160","color":"#A6761D","confianza":"Alta","corr":0.62,"familia":"No convencionales","lat":-1.3671,"lon":-78.60554,"mae":1.31,"modelo":"NEMSSA","n":30,"nombre":"Querochaca","rating":4.97,"region":"Interandina","rmse":1.81},{"bias":-1.27,"codigo":"84265","color":"#D55E00","confianza":"Alta","corr":0.82,"familia":"No convencionales","lat":-3.99556,"lon":-79.37167,"mae":1.37,"modelo":"METEOBLUE","n":30,"nombre":"La Toma","rating":4.97,"region":"Interandina","rmse":1.66},{"bias":-0.92,"codigo":"84076","color":"#D55E00","confianza":"Alta","corr":0.63,"familia":"No convencionales","lat":-0.23179,"lon":-78.37043,"mae":1.33,"modelo":"METEOBLUE","n":30,"nombre":"La Tola","rating":4.93,"region":"Interandina","rmse":1.76},{"bias":-1.35,"codigo":"84239","color":"#D55E00","confianza":"Alta","corr":0.82,"familia":"No convencionales","lat":-2.88917,"lon":-78.98417,"mae":1.4,"modelo":"METEOBLUE","n":30,"nombre":"Cuenca","rating":4.87,"region":"Interandina","rmse":1.76},{"bias":0.27,"codigo":"84217","color":"#CC79A7","confianza":"Alta","corr":0.55,"familia":"No convencionales","lat":-2.29861,"lon":-78.12056,"mae":1.81,"modelo":"GEM15","n":30,"nombre":"Macas","rating":4.77,"region":"Amazonia","rmse":2.33},{"bias":-1.18,"codigo":"84063","color":"#D55E00","confianza":"Alta","corr":0.73,"familia":"No convencionales","lat":0.0925,"lon":-76.86944,"mae":1.48,"modelo":"METEOBLUE","n":30,"nombre":"Lago Agrio","rating":4.73,"region":"Amazonia","rmse":1.84},{"bias":-0.57,"codigo":"84132","color":"#CC79A7","confianza":"Alta","corr":0.39,"familia":"No convencionales","lat":-0.92003,"lon":-75.40303,"mae":1.6,"modelo":"GEM15","n":30,"nombre":"N. Rocafu","rating":4.57,"region":"Amazonia","rmse":2.09},{"bias":-0.92,"codigo":"84151","color":"#D55E00","confianza":"Alta","corr":0.57,"familia":"No convencionales","lat":-1.057,"lon":-77.584,"mae":1.65,"modelo":"METEOBLUE","n":30,"nombre":"Jumandy","rating":4.55,"region":"Amazonia","rmse":1.91},{"bias":-1.78,"codigo":"84027","color":"#D55E00","confianza":"Alta","corr":0.79,"familia":"No convencionales","lat":0.81667,"lon":-77.7,"mae":1.78,"modelo":"METEOBLUE","n":30,"nombre":"Tulc\u00e1n","rating":4.34,"region":"Interandina","rmse":1.99},{"bias":-1.49,"codigo":"84008","color":"#D55E00","confianza":"Alta","corr":0.41,"familia":"No convencionales","lat":-0.90406,"lon":-89.61431,"mae":1.52,"modelo":"METEOBLUE","n":30,"nombre":"S. Cristobal","rating":4.3,"region":"Insular","rmse":1.88},{"bias":-1.63,"codigo":"84099","color":"#D55E00","confianza":"Alta","corr":0.75,"familia":"No convencionales","lat":-0.46056,"lon":-76.98806,"mae":1.78,"modelo":"METEOBLUE","n":30,"nombre":"El Coca","rating":4.23,"region":"Amazonia","rmse":2.25},{"bias":1.42,"codigo":"M1240","color":"#648FFF","confianza":"Alta","corr":0.53,"familia":"No convencionales","lat":0.32978,"lon":-78.1322,"mae":1.61,"modelo":"UMGLOBAL10","n":30,"nombre":"Ibarra","rating":4.2,"region":"Interandina","rmse":2.22},{"bias":-1.65,"codigo":"84050","color":"#D55E00","confianza":"Alta","corr":0.59,"familia":"No convencionales","lat":-0.02478,"lon":-79.38028,"mae":1.77,"modelo":"METEOBLUE","n":30,"nombre":"La Concordia","rating":4.18,"region":"Litoral","rmse":2.03},{"bias":-1.66,"codigo":"84135","color":"#B33DC6","confianza":"Alta","corr":0.56,"familia":"No convencionales","lat":-1.17343,"lon":-80.38736,"mae":1.88,"modelo":"SA01","n":30,"nombre":"Portoviejo","rating":4.0,"region":"Litoral","rmse":2.23},{"bias":-1.85,"codigo":"84001","color":"#648FFF","confianza":"Alta","corr":0.35,"familia":"No convencionales","lat":-0.445,"lon":-90.269,"mae":1.85,"modelo":"UMGLOBAL10","n":30,"nombre":"Baltra","rating":3.86,"region":"Insular","rmse":2.04},{"bias":-1.58,"codigo":"M0024","color":"#CC79A7","confianza":"Alta","corr":0.55,"familia":"No convencionales","lat":-0.1783,"lon":-78.48773,"mae":1.91,"modelo":"GEM15","n":30,"nombre":"I\u00f1aquito","rating":3.86,"region":"Interandina","rmse":2.59},{"bias":-2.24,"codigo":"84147","color":"#D55E00","confianza":"Alta","corr":0.61,"familia":"No convencionales","lat":-1.21413,"lon":-78.57455,"mae":2.24,"modelo":"METEOBLUE","n":30,"nombre":"Ambato","rating":3.56,"region":"Interandina","rmse":2.82},{"bias":-2.36,"codigo":"84253","color":"#D55E00","confianza":"Alta","corr":0.59,"familia":"No convencionales","lat":-3.42333,"lon":-78.56694,"mae":2.36,"modelo":"METEOBLUE","n":30,"nombre":"Gualaquiza","rating":3.43,"region":"Amazonia","rmse":3.04},{"bias":-0.99,"codigo":"84075","color":"#D55E00","confianza":"Alta","corr":0.43,"familia":"No convencionales","lat":-0.14083,"lon":-78.353,"mae":2.42,"modelo":"METEOBLUE","n":30,"nombre":"Tababela","rating":3.39,"region":"Interandina","rmse":4.05},{"bias":-2.77,"codigo":"84056","color":"#A6761D","confianza":"Alta","corr":0.62,"familia":"No convencionales","lat":0.01116,"lon":-78.25505,"mae":2.88,"modelo":"NEMSSA","n":30,"nombre":"Tomal\u00f3n","rating":3.17,"region":"Interandina","rmse":3.44},{"bias":-3.2,"codigo":"84173","color":"#D55E00","confianza":"Alta","corr":0.56,"familia":"No convencionales","lat":-1.65083,"lon":-78.68521,"mae":3.2,"modelo":"METEOBLUE","n":30,"nombre":"ESPOCH","rating":2.97,"region":"Interandina","rmse":3.69},{"bias":-3.62,"codigo":"84176","color":"#DC267F","confianza":"Alta","corr":0.6,"familia":"No convencionales","lat":-1.65333,"lon":-78.54889,"mae":3.66,"modelo":"NEMSGLOBAL_E","n":30,"nombre":"Riobamba","rating":2.91,"region":"Interandina","rmse":3.8}],"metricas":{"calif_media":4.9,"estaciones":40,"mas_ganador":"METEOBLUE"},"modo":"continuous","ranking":[{"bias":-1.56,"color":"#D55E00","confianza":"Alta","corr":0.62,"estaciones":40,"familia":"No convencionales","mae":1.85,"modelo":"METEOBLUE","n":30,"rating":4.49,"rmse":2.22},{"bias":-2.34,"color":"#CC79A7","confianza":"Alta","corr":0.44,"estaciones":40,"familia":"No convencionales","mae":2.87,"modelo":"GEM15","n":30,"rating":3.52,"rmse":3.3},{"bias":-2.41,"color":"#A6761D","confianza":"Alta","corr":0.43,"estaciones":37,"familia":"No convencionales","mae":2.88,"modelo":"NEMSSA","n":30,"rating":3.5,"rmse":3.26},{"bias":-3.34,"color":"#648FFF","confianza":"Alta","corr":0.51,"estaciones":40,"familia":"No convencionales","mae":3.61,"modelo":"UMGLOBAL10","n":30,"rating":3.44,"rmse":3.87},{"bias":-2.86,"color":"#785EF0","confianza":"Alta","corr":0.41,"estaciones":40,"familia":"No convencionales","mae":3.32,"modelo":"MFGLOBAL","n":30,"rating":3.19,"rmse":3.69},{"bias":-2.62,"color":"#DC267F","confianza":"Alta","corr":0.38,"estaciones":40,"familia":"No convencionales","mae":3.17,"modelo":"NEMSGLOBAL_E","n":30,"rating":3.18,"rmse":3.56},{"bias":-2.57,"color":"#00A9A5","confianza":"Alta","corr":0.37,"estaciones":40,"familia":"No convencionales","mae":3.21,"modelo":"NEMSGLOBAL","n":30,"rating":3.13,"rmse":3.62},{"bias":-4.05,"color":"#B33DC6","confianza":"Media","corr":0.38,"estaciones":36,"familia":"No convencionales","mae":4.46,"modelo":"SA01","n":29,"rating":3.06,"rmse":4.81}],"sintesis_region":[{"modelo":"METEOBLUE","region":"Amazonia"},{"modelo":"METEOBLUE","region":"Insular"},{"modelo":"METEOBLUE","region":"Interandina"},{"modelo":"METEOBLUE","region":"Litoral"}],"ventana":"30"}
