{"bloque":"tmax","bloques":[{"clave":"precip_det","etiqueta":"Precipitaci\u00f3n: detecci\u00f3n"},{"clave":"precip_cua","etiqueta":"Precipitaci\u00f3n: cuantificaci\u00f3n"},{"clave":"tmax","etiqueta":"Temperatura m\u00e1xima"},{"clave":"tmin","etiqueta":"Temperatura m\u00ednima"}],"estaciones":[{"codigo":"84099","nombre":"El Coca","region":"Amazonia"},{"codigo":"84253","nombre":"Gualaquiza","region":"Amazonia"},{"codigo":"84151","nombre":"Jumandy","region":"Amazonia"},{"codigo":"84063","nombre":"Lago Agrio","region":"Amazonia"},{"codigo":"84217","nombre":"Macas","region":"Amazonia"},{"codigo":"84132","nombre":"N. Rocafu","region":"Amazonia"},{"codigo":"84163","nombre":"Pastaza","region":"Amazonia"},{"codigo":"84179","nombre":"Puyo","region":"Amazonia"},{"codigo":"84001","nombre":"Baltra","region":"Insular"},{"codigo":"84008","nombre":"S. Cristobal","region":"Insular"},{"codigo":"84010","nombre":"S. Cristobal A","region":"Insular"},{"codigo":"84147","nombre":"Ambato","region":"Interandina"},{"codigo":"84226","nombre":"Ca\u00f1ar","region":"Interandina"},{"codigo":"84239","nombre":"Cuenca","region":"Interandina"},{"codigo":"84173","nombre":"ESPOCH","region":"Interandina"},{"codigo":"M1240","nombre":"Ibarra","region":"Interandina"},{"codigo":"84045","nombre":"Inguincho","region":"Interandina"},{"codigo":"84088","nombre":"Izobamba","region":"Interandina"},{"codigo":"M0024","nombre":"I\u00f1aquito","region":"Interandina"},{"codigo":"84076","nombre":"La Tola","region":"Interandina"},{"codigo":"84265","nombre":"La Toma","region":"Interandina"},{"codigo":"84123","nombre":"Latacunga","region":"Interandina"},{"codigo":"84270","nombre":"Loja Argelia","region":"Interandina"},{"codigo":"84160","nombre":"Querochaca","region":"Interandina"},{"codigo":"84176","nombre":"Riobamba","region":"Interandina"},{"codigo":"84143","nombre":"Rumipamba","region":"Interandina"},{"codigo":"84036","nombre":"S. Gabriel","region":"Interandina"},{"codigo":"84075","nombre":"Tababela","region":"Interandina"},{"codigo":"84056","nombre":"Tomal\u00f3n","region":"Interandina"},{"codigo":"84027","nombre":"Tulc\u00e1n","region":"Interandina"},{"codigo":"84018","nombre":"Esmeraldas","region":"Litoral"},{"codigo":"84203","nombre":"Guayaquil","region":"Litoral"},{"codigo":"84050","nombre":"La Concordia","region":"Litoral"},{"codigo":"84117","nombre":"Manta","region":"Litoral"},{"codigo":"M0037","nombre":"Milagro","region":"Litoral"},{"codigo":"84140","nombre":"Pichilingue","region":"Litoral"},{"codigo":"84135","nombre":"Portoviejo","region":"Litoral"},{"codigo":"84105","nombre":"Puerto Ila","region":"Litoral"},{"codigo":"84200","nombre":"Salinas","region":"Litoral"},{"codigo":"84252","nombre":"Sta. Rosa","region":"Litoral"}],"familia":"Convencionales","ganadores":[{"bias":-0.04,"codigo":"84123","color":"#004E89","confianza":"Media","corr":0.58,"familia":"Convencionales","lat":-0.91333,"lon":-78.61556,"mae":0.65,"modelo":"IFSHRES","n":15,"nombre":"Latacunga","rating":7.23,"region":"Interandina","rmse":0.85},{"bias":-0.37,"codigo":"84088","color":"#56B4E9","confianza":"Media","corr":0.52,"familia":"Convencionales","lat":-0.36593,"lon":-78.55513,"mae":0.77,"modelo":"AIFS025","n":15,"nombre":"Izobamba","rating":6.4,"region":"Interandina","rmse":1.02},{"bias":-0.65,"codigo":"84045","color":"#56B4E9","confianza":"Media","corr":0.58,"familia":"Convencionales","lat":0.25694,"lon":-78.40524,"mae":0.71,"modelo":"AIFS025","n":15,"nombre":"Inguincho","rating":6.32,"region":"Interandina","rmse":0.99},{"bias":-0.24,"codigo":"84076","color":"#009E73","confianza":"Media","corr":0.44,"familia":"Convencionales","lat":-0.23179,"lon":-78.37043,"mae":0.9,"modelo":"ICON","n":15,"nombre":"La Tola","rating":6.18,"region":"Interandina","rmse":1.17},{"bias":0.93,"codigo":"84226","color":"#0072B2","confianza":"Media","corr":0.92,"familia":"Convencionales","lat":-2.55221,"lon":-78.94519,"mae":0.96,"modelo":"IFS025","n":15,"nombre":"Ca\u00f1ar","rating":5.9,"region":"Interandina","rmse":1.25},{"bias":-0.14,"codigo":"84105","color":"#E69F00","confianza":"Media","corr":0.34,"familia":"Convencionales","lat":-0.493,"lon":-79.34892,"mae":1.18,"modelo":"GFS05","n":15,"nombre":"Puerto Ila","rating":5.79,"region":"Litoral","rmse":1.32},{"bias":-0.91,"codigo":"84203","color":"#56B4E9","confianza":"Media","corr":0.7,"familia":"Convencionales","lat":-2.15333,"lon":-79.88333,"mae":1.03,"modelo":"AIFS025","n":15,"nombre":"Guayaquil","rating":5.72,"region":"Litoral","rmse":1.12},{"bias":-0.72,"codigo":"84163","color":"#0072B2","confianza":"Media","corr":0.76,"familia":"Convencionales","lat":-1.5,"lon":-78.06667,"mae":1.05,"modelo":"IFS025","n":15,"nombre":"Pastaza","rating":5.62,"region":"Amazonia","rmse":1.5},{"bias":-0.59,"codigo":"84140","color":"#004E89","confianza":"Media","corr":0.54,"familia":"Convencionales","lat":-1.07434,"lon":-79.4929,"mae":1.14,"modelo":"IFSHRES","n":15,"nombre":"Pichilingue","rating":5.51,"region":"Litoral","rmse":1.34},{"bias":-0.69,"codigo":"84036","color":"#56B4E9","confianza":"Media","corr":0.31,"familia":"Convencionales","lat":0.60417,"lon":-77.81944,"mae":1.1,"modelo":"AIFS025","n":15,"nombre":"S. Gabriel","rating":5.31,"region":"Interandina","rmse":1.29},{"bias":-0.23,"codigo":"84252","color":"#E69F00","confianza":"Media","corr":0.22,"familia":"Convencionales","lat":-3.43583,"lon":-79.98333,"mae":1.43,"modelo":"GFS05","n":15,"nombre":"Sta. Rosa","rating":4.93,"region":"Litoral","rmse":2.05},{"bias":-0.57,"codigo":"84117","color":"#004E89","confianza":"Media","corr":-0.17,"familia":"Convencionales","lat":-0.95,"lon":-80.68333,"mae":1.22,"modelo":"IFSHRES","n":15,"nombre":"Manta","rating":4.76,"region":"Litoral","rmse":1.4},{"bias":-1.07,"codigo":"84179","color":"#0072B2","confianza":"Media","corr":0.57,"familia":"Convencionales","lat":-1.5057,"lon":-77.956,"mae":1.44,"modelo":"IFS025","n":15,"nombre":"Puyo","rating":4.6,"region":"Amazonia","rmse":1.98},{"bias":-0.44,"codigo":"84143","color":"#E69F00","confianza":"Media","corr":-0.0,"familia":"Convencionales","lat":-1.01998,"lon":-78.59456,"mae":1.52,"modelo":"GFS05","n":15,"nombre":"Rumipamba","rating":4.52,"region":"Interandina","rmse":1.83},{"bias":-1.33,"codigo":"84050","color":"#004E89","confianza":"Media","corr":0.29,"familia":"Convencionales","lat":-0.02478,"lon":-79.38028,"mae":1.38,"modelo":"IFSHRES","n":15,"nombre":"La Concordia","rating":4.45,"region":"Litoral","rmse":1.69},{"bias":1.12,"codigo":"84270","color":"#56B4E9","confianza":"Media","corr":0.57,"familia":"Convencionales","lat":-4.0375,"lon":-79.2034,"mae":1.7,"modelo":"AIFS025","n":15,"nombre":"Loja Argelia","rating":4.33,"region":"Interandina","rmse":2.11},{"bias":-1.59,"codigo":"84151","color":"#004E89","confianza":"Media","corr":0.68,"familia":"Convencionales","lat":-1.057,"lon":-77.584,"mae":1.91,"modelo":"IFSHRES","n":15,"nombre":"Jumandy","rating":4.16,"region":"Amazonia","rmse":2.07},{"bias":-1.96,"codigo":"M1240","color":"#004E89","confianza":"Media","corr":0.65,"familia":"Convencionales","lat":0.32978,"lon":-78.1322,"mae":1.96,"modelo":"IFSHRES","n":15,"nombre":"Ibarra","rating":4.0,"region":"Interandina","rmse":2.16},{"bias":-1.87,"codigo":"84010","color":"#004E89","confianza":"Media","corr":0.46,"familia":"Convencionales","lat":-0.909,"lon":-89.617,"mae":1.87,"modelo":"IFSHRES","n":15,"nombre":"S. Cristobal A","rating":3.97,"region":"Insular","rmse":1.99},{"bias":-0.95,"codigo":"M0037","color":"#009E73","confianza":"Media","corr":0.22,"familia":"Convencionales","lat":-2.11805,"lon":-79.60038,"mae":1.77,"modelo":"ICON","n":15,"nombre":"Milagro","rating":3.96,"region":"Litoral","rmse":2.33},{"bias":-1.69,"codigo":"84160","color":"#0072B2","confianza":"Media","corr":0.56,"familia":"Convencionales","lat":-1.3671,"lon":-78.60554,"mae":1.93,"modelo":"IFS025","n":15,"nombre":"Querochaca","rating":3.95,"region":"Interandina","rmse":2.26},{"bias":-1.83,"codigo":"84027","color":"#004E89","confianza":"Media","corr":0.59,"familia":"Convencionales","lat":0.81667,"lon":-77.7,"mae":1.95,"modelo":"IFSHRES","n":15,"nombre":"Tulc\u00e1n","rating":3.94,"region":"Interandina","rmse":2.24},{"bias":-1.94,"codigo":"84018","color":"#009E73","confianza":"Media","corr":0.52,"familia":"Convencionales","lat":0.97917,"lon":-79.62444,"mae":1.94,"modelo":"ICON","n":15,"nombre":"Esmeraldas","rating":3.91,"region":"Litoral","rmse":2.13},{"bias":-1.66,"codigo":"84200","color":"#009E73","confianza":"Media","corr":0.01,"familia":"Convencionales","lat":-2.2,"lon":-80.98972,"mae":1.66,"modelo":"ICON","n":15,"nombre":"Salinas","rating":3.88,"region":"Litoral","rmse":1.73},{"bias":-1.69,"codigo":"84239","color":"#004E89","confianza":"Media","corr":0.4,"familia":"Convencionales","lat":-2.88917,"lon":-78.98417,"mae":1.82,"modelo":"IFSHRES","n":15,"nombre":"Cuenca","rating":3.86,"region":"Interandina","rmse":2.28},{"bias":-1.6,"codigo":"84063","color":"#004E89","confianza":"Media","corr":0.3,"familia":"Convencionales","lat":0.0925,"lon":-76.86944,"mae":1.79,"modelo":"IFSHRES","n":15,"nombre":"Lago Agrio","rating":3.74,"region":"Amazonia","rmse":2.46},{"bias":-2.31,"codigo":"M0024","color":"#004E89","confianza":"Media","corr":0.69,"familia":"Convencionales","lat":-0.1783,"lon":-78.48773,"mae":2.37,"modelo":"IFSHRES","n":15,"nombre":"I\u00f1aquito","rating":3.64,"region":"Interandina","rmse":2.61},{"bias":-2.35,"codigo":"84056","color":"#004E89","confianza":"Media","corr":0.59,"familia":"Convencionales","lat":0.01116,"lon":-78.25505,"mae":2.35,"modelo":"IFSHRES","n":15,"nombre":"Tomal\u00f3n","rating":3.55,"region":"Interandina","rmse":2.65},{"bias":-2.81,"codigo":"84147","color":"#004E89","confianza":"Media","corr":0.79,"familia":"Convencionales","lat":-1.21413,"lon":-78.57455,"mae":2.81,"modelo":"IFSHRES","n":15,"nombre":"Ambato","rating":3.43,"region":"Interandina","rmse":3.07},{"bias":-2.69,"codigo":"84135","color":"#0072B2","confianza":"Media","corr":0.66,"familia":"Convencionales","lat":-1.17343,"lon":-80.38736,"mae":2.69,"modelo":"IFS025","n":15,"nombre":"Portoviejo","rating":3.4,"region":"Litoral","rmse":2.84},{"bias":-2.91,"codigo":"84132","color":"#56B4E9","confianza":"Media","corr":0.77,"familia":"Convencionales","lat":-0.92003,"lon":-75.40303,"mae":2.91,"modelo":"AIFS025","n":15,"nombre":"N. Rocafu","rating":3.37,"region":"Amazonia","rmse":3.07},{"bias":-3.24,"codigo":"84253","color":"#004E89","confianza":"Media","corr":0.78,"familia":"Convencionales","lat":-3.42333,"lon":-78.56694,"mae":3.24,"modelo":"IFSHRES","n":15,"nombre":"Gualaquiza","rating":3.18,"region":"Amazonia","rmse":3.61},{"bias":-2.22,"codigo":"84008","color":"#004E89","confianza":"Media","corr":-0.09,"familia":"Convencionales","lat":-0.90406,"lon":-89.61431,"mae":2.22,"modelo":"IFSHRES","n":15,"nombre":"S. Cristobal","rating":3.04,"region":"Insular","rmse":2.51},{"bias":-3.34,"codigo":"84099","color":"#004E89","confianza":"Media","corr":0.65,"familia":"Convencionales","lat":-0.46056,"lon":-76.98806,"mae":3.34,"modelo":"IFSHRES","n":15,"nombre":"El Coca","rating":3.01,"region":"Amazonia","rmse":3.81},{"bias":-2.94,"codigo":"84217","color":"#004E89","confianza":"Media","corr":0.48,"familia":"Convencionales","lat":-2.29861,"lon":-78.12056,"mae":3.02,"modelo":"IFSHRES","n":15,"nombre":"Macas","rating":3.0,"region":"Amazonia","rmse":3.42},{"bias":-4.25,"codigo":"84265","color":"#009E73","confianza":"Media","corr":0.74,"familia":"Convencionales","lat":-3.99556,"lon":-79.37167,"mae":4.25,"modelo":"ICON","n":15,"nombre":"La Toma","rating":2.88,"region":"Interandina","rmse":4.36},{"bias":-1.37,"codigo":"84075","color":"#004E89","confianza":"Media","corr":0.52,"familia":"Convencionales","lat":-0.14083,"lon":-78.353,"mae":3.83,"modelo":"IFSHRES","n":15,"nombre":"Tababela","rating":2.88,"region":"Interandina","rmse":5.29},{"bias":-5.29,"codigo":"84173","color":"#004E89","confianza":"Media","corr":0.67,"familia":"Convencionales","lat":-1.65083,"lon":-78.68521,"mae":5.29,"modelo":"IFSHRES","n":15,"nombre":"ESPOCH","rating":2.67,"region":"Interandina","rmse":5.46},{"bias":-2.93,"codigo":"84001","color":"#0072B2","confianza":"Media","corr":-0.14,"familia":"Convencionales","lat":-0.445,"lon":-90.269,"mae":2.93,"modelo":"IFS025","n":15,"nombre":"Baltra","rating":2.57,"region":"Insular","rmse":2.99},{"bias":-5.13,"codigo":"84176","color":"#009E73","confianza":"Media","corr":0.52,"familia":"Convencionales","lat":-1.65333,"lon":-78.54889,"mae":5.13,"modelo":"ICON","n":15,"nombre":"Riobamba","rating":2.54,"region":"Interandina","rmse":5.38}],"metricas":{"calif_media":4.3,"estaciones":40,"mas_ganador":"IFSHRES"},"modo":"continuous","ranking":[{"bias":-2.21,"color":"#004E89","confianza":"Media","corr":0.47,"estaciones":40,"familia":"Convencionales","mae":2.43,"modelo":"IFSHRES","n":15,"rating":3.76,"rmse":2.73},{"bias":-2.54,"color":"#009E73","confianza":"Media","corr":0.44,"estaciones":40,"familia":"Convencionales","mae":2.92,"modelo":"ICON","n":15,"rating":3.51,"rmse":3.21},{"bias":-3.15,"color":"#56B4E9","confianza":"Media","corr":0.44,"estaciones":40,"familia":"Convencionales","mae":3.34,"modelo":"AIFS025","n":15,"rating":3.39,"rmse":3.57},{"bias":-3.39,"color":"#0072B2","confianza":"Media","corr":0.39,"estaciones":40,"familia":"Convencionales","mae":3.82,"modelo":"IFS025","n":15,"rating":3.23,"rmse":4.07},{"bias":-3.04,"color":"#E69F00","confianza":"Media","corr":0.27,"estaciones":40,"familia":"Convencionales","mae":3.78,"modelo":"GFS05","n":15,"rating":3.01,"rmse":4.15}],"sintesis_region":[{"modelo":"IFSHRES","region":"Amazonia"},{"modelo":"IFSHRES","region":"Insular"},{"modelo":"IFSHRES","region":"Interandina"},{"modelo":"IFSHRES","region":"Litoral"}],"ventana":"15"}
