{"aviso":null,"bloque":"precip_cua","bloques":[{"clave":"precip_det","etiqueta":"Precipitaci\u00f3n: detecci\u00f3n"},{"clave":"precip_cua","etiqueta":"Precipitaci\u00f3n: cuantificaci\u00f3n"},{"clave":"tmax","etiqueta":"Temperatura m\u00e1xima"},{"clave":"tmin","etiqueta":"Temperatura m\u00ednima"}],"estaciones":[{"codigo":"M5190","nombre":"Captaci\u00f3n Central","region":"Amazonia"},{"codigo":"M5187","nombre":"El Chaco 1","region":"Amazonia"},{"codigo":"M5189","nombre":"El Chaco 2","region":"Amazonia"},{"codigo":"84099","nombre":"El Coca","region":"Amazonia"},{"codigo":"84253","nombre":"Gualaquiza","region":"Amazonia"},{"codigo":"CP03","nombre":"Guarumales","region":"Amazonia"},{"codigo":"84151","nombre":"Jumandy","region":"Amazonia"},{"codigo":"84063","nombre":"Lago Agrio","region":"Amazonia"},{"codigo":"84217","nombre":"Macas","region":"Amazonia"},{"codigo":"M1040","nombre":"Macas INA","region":"Amazonia"},{"codigo":"84132","nombre":"N. Rocafu","region":"Amazonia"},{"codigo":"M0188","nombre":"Papallacta","region":"Amazonia"},{"codigo":"84163","nombre":"Pastaza","region":"Amazonia"},{"codigo":"84179","nombre":"Puyo","region":"Amazonia"},{"codigo":"M5008","nombre":"Quijos-Cosan","region":"Amazonia"},{"codigo":"M5254","nombre":"Salve Faccha","region":"Amazonia"},{"codigo":"M1124","nombre":"Sierra Azul","region":"Amazonia"},{"codigo":"M1219","nombre":"Tena Hda","region":"Amazonia"},{"codigo":"M5021","nombre":"Yura Faccha Oyacachi","region":"Amazonia"},{"codigo":"84001","nombre":"Baltra","region":"Insular"},{"codigo":"84008","nombre":"S. Cristobal","region":"Insular"},{"codigo":"84010","nombre":"S. Cristobal A","region":"Insular"},{"codigo":"84147","nombre":"Ambato","region":"Interandina"},{"codigo":"CP01","nombre":"Arenales","region":"Interandina"},{"codigo":"M0055","nombre":"Bicenten","region":"Interandina"},{"codigo":"M5101","nombre":"Calder\u00f3n","region":"Interandina"},{"codigo":"84226","nombre":"Ca\u00f1ar","region":"Interandina"},{"codigo":"CP02","nombre":"Celec Cuenca","region":"Interandina"},{"codigo":"84239","nombre":"Cuenca","region":"Interandina"},{"codigo":"84173","nombre":"ESPOCH","region":"Interandina"},{"codigo":"M0102","nombre":"El \u00c1ngel","region":"Interandina"},{"codigo":"HN03","nombre":"Guayacan","region":"Interandina"},{"codigo":"M1240","nombre":"Ibarra","region":"Interandina"},{"codigo":"84045","nombre":"Inguincho","region":"Interandina"},{"codigo":"84088","nombre":"Izobamba","region":"Interandina"},{"codigo":"M0024","nombre":"I\u00f1aquito","region":"Interandina"},{"codigo":"HN04","nombre":"La Cocha","region":"Interandina"},{"codigo":"M0124","nombre":"La Man\u00e1","region":"Interandina"},{"codigo":"84076","nombre":"La Tola","region":"Interandina"},{"codigo":"84265","nombre":"La Toma","region":"Interandina"},{"codigo":"84123","nombre":"Latacunga","region":"Interandina"},{"codigo":"84270","nombre":"Loja Argelia","region":"Interandina"},{"codigo":"M0105","nombre":"Otavalo","region":"Interandina"},{"codigo":"M0391","nombre":"Pallatanga","region":"Interandina"},{"codigo":"84160","nombre":"Querochaca","region":"Interandina"},{"codigo":"84176","nombre":"Riobamba","region":"Interandina"},{"codigo":"84143","nombre":"Rumipamba","region":"Interandina"},{"codigo":"84036","nombre":"S. Gabriel","region":"Interandina"},{"codigo":"M1274","nombre":"Salesiana","region":"Interandina"},{"codigo":"CP04","nombre":"Sevilla","region":"Interandina"},{"codigo":"CP05","nombre":"Sta.B\u00e1rbara","region":"Interandina"},{"codigo":"84075","nombre":"Tababela","region":"Interandina"},{"codigo":"84056","nombre":"Tomal\u00f3n","region":"Interandina"},{"codigo":"84027","nombre":"Tulc\u00e1n","region":"Interandina"},{"codigo":"HN11","nombre":"Cerradora","region":"Litoral"},{"codigo":"M0162","nombre":"Chone","region":"Litoral"},{"codigo":"HN12","nombre":"DJ Colimes","region":"Litoral"},{"codigo":"HM002","nombre":"Daule","region":"Litoral"},{"codigo":"HN01","nombre":"Dique 1","region":"Litoral"},{"codigo":"84018","nombre":"Esmeraldas","region":"Litoral"},{"codigo":"HN13","nombre":"Flavio Alfaro","region":"Litoral"},{"codigo":"HN02","nombre":"Gualipe","region":"Litoral"},{"codigo":"84203","nombre":"Guayaquil","region":"Litoral"},{"codigo":"M1271","nombre":"Gye(Facult)","region":"Litoral"},{"codigo":"M5135","nombre":"Huaquillas","region":"Litoral"},{"codigo":"HN14","nombre":"La Cancha","region":"Litoral"},{"codigo":"HN15","nombre":"La Capilla","region":"Litoral"},{"codigo":"84050","nombre":"La Concordia","region":"Litoral"},{"codigo":"M1170","nombre":"La Libertad","region":"Litoral"},{"codigo":"HN16","nombre":"La Palizada","region":"Litoral"},{"codigo":"HN22","nombre":"La Presa","region":"Litoral"},{"codigo":"M5090","nombre":"La Troncal","region":"Litoral"},{"codigo":"84117","nombre":"Manta","region":"Litoral"},{"codigo":"HN05","nombre":"Met. Baba","region":"Litoral"},{"codigo":"HN06","nombre":"Met. Chaune","region":"Litoral"},{"codigo":"HN07","nombre":"Met. Toachi","region":"Litoral"},{"codigo":"M0037","nombre":"Milagro","region":"Litoral"},{"codigo":"HN17","nombre":"Murucumba","region":"Litoral"},{"codigo":"M1207","nombre":"Nobol","region":"Litoral"},{"codigo":"HN18","nombre":"Olmedo","region":"Litoral"},{"codigo":"M1253","nombre":"P. Hondo","region":"Litoral"},{"codigo":"HN19","nombre":"Pajan","region":"Litoral"},{"codigo":"HN20","nombre":"Palestina","region":"Litoral"},{"codigo":"84140","nombre":"Pichilingue","region":"Litoral"},{"codigo":"HN21","nombre":"Pichincha","region":"Litoral"},{"codigo":"84135","nombre":"Portoviejo","region":"Litoral"},{"codigo":"HN23","nombre":"Pto. Lim\u00f3n","region":"Litoral"},{"codigo":"HN24","nombre":"Puca","region":"Litoral"},{"codigo":"84105","nombre":"Puerto Ila","region":"Litoral"},{"codigo":"HN08","nombre":"Q. AJ Lulu","region":"Litoral"},{"codigo":"M0156","nombre":"Quinind\u00e9","region":"Litoral"},{"codigo":"HN25","nombre":"Rio Colimes","region":"Litoral"},{"codigo":"HN26","nombre":"Rio Congo","region":"Litoral"},{"codigo":"84200","nombre":"Salinas","region":"Litoral"},{"codigo":"HN09","nombre":"San Miguel","region":"Litoral"},{"codigo":"HN10","nombre":"San Pablo","region":"Litoral"},{"codigo":"HN27","nombre":"San Pedro De Oro","region":"Litoral"},{"codigo":"HN28","nombre":"Santa Lucia","region":"Litoral"},{"codigo":"84252","nombre":"Sta. Rosa","region":"Litoral"},{"codigo":"HN29","nombre":"Union 71","region":"Litoral"}],"familia":"Mejor desempe\u00f1o","ganadores":[{"bias":0.16,"codigo":"84076","color":"#8A2BE2","confianza":"Media","corr":0.9,"familia":"ML","lat":-0.23179,"lon":-78.37043,"mae":0.16,"modelo":"ML_HGB","n":15,"nombre":"La Tola","rating":9.71,"region":"Interandina","rmse":0.2},{"bias":0.19,"codigo":"HM002","color":"#E41A1C","confianza":"Media","corr":0.94,"familia":"ML","lat":-1.85449,"lon":-79.98518,"mae":0.19,"modelo":"ML_CAT","n":15,"nombre":"Daule","rating":9.7,"region":"Litoral","rmse":0.31},{"bias":0.09,"codigo":"M0105","color":"#8A2BE2","confianza":"Media","corr":0.68,"familia":"ML","lat":0.24342,"lon":-78.25006,"mae":0.1,"modelo":"ML_HGB","n":15,"nombre":"Otavalo","rating":9.59,"region":"Interandina","rmse":0.12},{"bias":0.12,"codigo":"84203","color":"#FE6100","confianza":"Media","corr":0.79,"familia":"ML","lat":-2.15333,"lon":-79.88333,"mae":0.17,"modelo":"HURDLE_LGBM","n":15,"nombre":"Guayaquil","rating":9.59,"region":"Litoral","rmse":0.33},{"bias":0.28,"codigo":"84075","color":"#648FFF","confianza":"Media","corr":1.0,"familia":"ML","lat":-0.14083,"lon":-78.353,"mae":0.28,"modelo":"ML_ET","n":15,"nombre":"Tababela","rating":9.56,"region":"Interandina","rmse":0.73},{"bias":0.21,"codigo":"M1271","color":"#E41A1C","confianza":"Media","corr":0.84,"familia":"ML","lat":-2.14646,"lon":-79.91734,"mae":0.21,"modelo":"ML_CAT","n":15,"nombre":"Gye(Facult)","rating":9.56,"region":"Litoral","rmse":0.41},{"bias":0.0,"codigo":"M1240","color":"#CC79A7","confianza":"Media","corr":0.53,"familia":"ML","lat":0.32978,"lon":-78.1322,"mae":0.1,"modelo":"ML_GBR","n":15,"nombre":"Ibarra","rating":9.47,"region":"Interandina","rmse":0.14},{"bias":0.12,"codigo":"84045","color":"#8A2BE2","confianza":"Media","corr":0.57,"familia":"ML","lat":0.25694,"lon":-78.40524,"mae":0.12,"modelo":"ML_HGB","n":15,"nombre":"Inguincho","rating":9.45,"region":"Interandina","rmse":0.19},{"bias":0.13,"codigo":"M1207","color":"#E41A1C","confianza":"Media","corr":0.73,"familia":"ML","lat":-1.92154,"lon":-80.06279,"mae":0.34,"modelo":"ML_CAT","n":15,"nombre":"Nobol","rating":9.4,"region":"Litoral","rmse":0.4},{"bias":-0.22,"codigo":"84147","color":"#FE6100","confianza":"Media","corr":0.96,"familia":"ML","lat":-1.21413,"lon":-78.57455,"mae":0.56,"modelo":"HURDLE_LGBM","n":15,"nombre":"Ambato","rating":9.34,"region":"Interandina","rmse":0.87},{"bias":0.07,"codigo":"84123","color":"#8A2BE2","confianza":"Media","corr":0.47,"familia":"ML","lat":-0.91333,"lon":-78.61556,"mae":0.16,"modelo":"ML_HGB","n":15,"nombre":"Latacunga","rating":9.34,"region":"Interandina","rmse":0.22},{"bias":0.11,"codigo":"M0102","color":"#648FFF","confianza":"Media","corr":0.48,"familia":"ML","lat":0.619,"lon":-77.94496,"mae":0.38,"modelo":"ML_ET","n":15,"nombre":"El \u00c1ngel","rating":9.11,"region":"Interandina","rmse":0.6},{"bias":0.05,"codigo":"84265","color":"#FE6100","confianza":"Media","corr":-0.01,"familia":"ML","lat":-3.99556,"lon":-79.37167,"mae":0.06,"modelo":"HURDLE_LGBM","n":15,"nombre":"La Toma","rating":9.01,"region":"Interandina","rmse":0.09},{"bias":-0.11,"codigo":"84252","color":"#8A2BE2","confianza":"Media","corr":0.39,"familia":"ML","lat":-3.43583,"lon":-79.98333,"mae":0.35,"modelo":"ML_HGB","n":15,"nombre":"Sta. Rosa","rating":8.99,"region":"Litoral","rmse":0.84},{"bias":0.02,"codigo":"84036","color":"#999933","confianza":"Media","corr":0.71,"familia":"ML","lat":0.60417,"lon":-77.81944,"mae":0.75,"modelo":"HURDLE_CAT","n":15,"nombre":"S. Gabriel","rating":8.99,"region":"Interandina","rmse":1.17},{"bias":0.22,"codigo":"84173","color":"#CC79A7","confianza":"Media","corr":0.1,"familia":"ML","lat":-1.65083,"lon":-78.68521,"mae":0.22,"modelo":"ML_GBR","n":15,"nombre":"ESPOCH","rating":8.9,"region":"Interandina","rmse":0.34},{"bias":-0.14,"codigo":"84143","color":"#8A2BE2","confianza":"Media","corr":0.42,"familia":"ML","lat":-1.01998,"lon":-78.59456,"mae":0.56,"modelo":"ML_HGB","n":15,"nombre":"Rumipamba","rating":8.85,"region":"Interandina","rmse":0.99},{"bias":0.16,"codigo":"M1253","color":"#CC79A7","confianza":"Media","corr":-0.03,"familia":"ML","lat":-2.1925,"lon":-80.02417,"mae":0.16,"modelo":"ML_GBR","n":15,"nombre":"P. Hondo","rating":8.85,"region":"Litoral","rmse":0.32},{"bias":0.09,"codigo":"CP02","color":"#CC79A7","confianza":"Media","corr":0.29,"familia":"ML","lat":-2.85926,"lon":-78.93337,"mae":0.6,"modelo":"ML_GBR","n":15,"nombre":"Celec Cuenca","rating":8.71,"region":"Interandina","rmse":1.01},{"bias":0.17,"codigo":"84027","color":"#FE6100","confianza":"Media","corr":0.15,"familia":"ML","lat":0.81667,"lon":-77.7,"mae":0.55,"modelo":"HURDLE_LGBM","n":15,"nombre":"Tulc\u00e1n","rating":8.6,"region":"Interandina","rmse":1.0},{"bias":-0.09,"codigo":"CP05","color":"#CC79A7","confianza":"Media","corr":0.48,"familia":"ML","lat":-2.86493,"lon":-78.77274,"mae":0.98,"modelo":"HURDLE_RF","n":15,"nombre":"Sta.B\u00e1rbara","rating":8.59,"region":"Interandina","rmse":1.36},{"bias":0.62,"codigo":"HN25","color":"#FE6100","confianza":"Media","corr":0.64,"familia":"ML","lat":-1.53925,"lon":-80.02371,"mae":1.05,"modelo":"HURDLE_LGBM","n":15,"nombre":"Rio Colimes","rating":8.54,"region":"Litoral","rmse":1.49},{"bias":0.1,"codigo":"84140","color":"#8A2BE2","confianza":"Media","corr":0.86,"familia":"ML","lat":-1.07434,"lon":-79.4929,"mae":1.43,"modelo":"ML_HGB","n":15,"nombre":"Pichilingue","rating":8.52,"region":"Litoral","rmse":2.19},{"bias":0.94,"codigo":"HN18","color":"#FE6100","confianza":"Media","corr":0.73,"familia":"ML","lat":-1.3932,"lon":-80.21461,"mae":1.12,"modelo":"HURDLE_LGBM","n":15,"nombre":"Olmedo","rating":8.52,"region":"Litoral","rmse":1.43},{"bias":0.62,"codigo":"84226","color":"#CC79A7","confianza":"Media","corr":0.26,"familia":"ML","lat":-2.55221,"lon":-78.94519,"mae":0.62,"modelo":"ML_GBR","n":15,"nombre":"Ca\u00f1ar","rating":8.52,"region":"Interandina","rmse":1.14},{"bias":0.85,"codigo":"HN15","color":"#648FFF","confianza":"Media","corr":0.51,"familia":"ML","lat":-1.69924,"lon":-79.99773,"mae":0.85,"modelo":"ML_ET","n":15,"nombre":"La Capilla","rating":8.48,"region":"Litoral","rmse":1.49},{"bias":0.85,"codigo":"HN28","color":"#648FFF","confianza":"Media","corr":0.51,"familia":"ML","lat":-1.71536,"lon":-79.99002,"mae":0.85,"modelo":"ML_ET","n":15,"nombre":"Santa Lucia","rating":8.48,"region":"Litoral","rmse":1.49},{"bias":-0.24,"codigo":"84176","color":"#CC79A7","confianza":"Media","corr":0.85,"familia":"ML","lat":-1.65333,"lon":-78.54889,"mae":1.2,"modelo":"HURDLE_RF","n":15,"nombre":"Riobamba","rating":8.48,"region":"Interandina","rmse":2.82},{"bias":0.24,"codigo":"84239","color":"#CC79A7","confianza":"Media","corr":-0.08,"familia":"ML","lat":-2.88917,"lon":-78.98417,"mae":0.52,"modelo":"ML_GBR","n":15,"nombre":"Cuenca","rating":8.43,"region":"Interandina","rmse":0.83},{"bias":0.85,"codigo":"HN24","color":"#648FFF","confianza":"Media","corr":0.52,"familia":"ML","lat":-1.37354,"lon":-79.97472,"mae":1.19,"modelo":"ML_ET","n":15,"nombre":"Puca","rating":8.31,"region":"Litoral","rmse":1.45},{"bias":1.0,"codigo":"84217","color":"#0072B2","confianza":"Media","corr":0.94,"familia":"ML","lat":-2.29861,"lon":-78.12056,"mae":1.77,"modelo":"ML_RF","n":15,"nombre":"Macas","rating":8.25,"region":"Amazonia","rmse":1.95},{"bias":0.0,"codigo":"M5135","color":"#CC79A7","confianza":"Baja","corr":null,"familia":"ML","lat":-3.48205,"lon":-80.2275,"mae":0.0,"modelo":"ML_GBR","n":6,"nombre":"Huaquillas","rating":8.2,"region":"Litoral","rmse":0.0},{"bias":0.0,"codigo":"84200","color":"#E41A1C","confianza":"Media","corr":null,"familia":"ML","lat":-2.2,"lon":-80.98972,"mae":0.0,"modelo":"ML_CAT","n":15,"nombre":"Salinas","rating":8.2,"region":"Litoral","rmse":0.01},{"bias":0.01,"codigo":"M1170","color":"#E41A1C","confianza":"Media","corr":null,"familia":"ML","lat":-2.23358,"lon":-80.87507,"mae":0.01,"modelo":"ML_CAT","n":15,"nombre":"La Libertad","rating":8.19,"region":"Litoral","rmse":0.01},{"bias":0.02,"codigo":"84117","color":"#CC79A7","confianza":"Media","corr":null,"familia":"ML","lat":-0.95,"lon":-80.68333,"mae":0.02,"modelo":"ML_GBR","n":15,"nombre":"Manta","rating":8.17,"region":"Litoral","rmse":0.05},{"bias":-0.39,"codigo":"84135","color":"#648FFF","confianza":"Media","corr":0.4,"familia":"ML","lat":-1.17343,"lon":-80.38736,"mae":1.1,"modelo":"ML_ET","n":15,"nombre":"Portoviejo","rating":8.14,"region":"Litoral","rmse":2.56},{"bias":0.05,"codigo":"M1274","color":"#E41A1C","confianza":"Media","corr":null,"familia":"ML","lat":-0.28192,"lon":-78.55024,"mae":0.05,"modelo":"ML_CAT","n":15,"nombre":"Salesiana","rating":8.13,"region":"Interandina","rmse":0.11},{"bias":0.2,"codigo":"HN20","color":"#648FFF","confianza":"Media","corr":0.38,"familia":"ML","lat":-1.62349,"lon":-79.98158,"mae":1.38,"modelo":"ML_ET","n":15,"nombre":"Palestina","rating":8.11,"region":"Litoral","rmse":2.09},{"bias":-0.12,"codigo":"84160","color":"#8A2BE2","confianza":"Media","corr":0.22,"familia":"ML","lat":-1.3671,"lon":-78.60554,"mae":1.25,"modelo":"ML_HGB","n":15,"nombre":"Querochaca","rating":8.11,"region":"Interandina","rmse":1.82},{"bias":0.08,"codigo":"84001","color":"#CC79A7","confianza":"Media","corr":null,"familia":"ML","lat":-0.445,"lon":-90.269,"mae":0.08,"modelo":"ML_GBR","n":15,"nombre":"Baltra","rating":8.1,"region":"Insular","rmse":0.12},{"bias":0.23,"codigo":"HN12","color":"#648FFF","confianza":"Media","corr":0.37,"familia":"ML","lat":-1.55262,"lon":-79.99809,"mae":1.4,"modelo":"ML_ET","n":15,"nombre":"DJ Colimes","rating":8.07,"region":"Litoral","rmse":2.12},{"bias":0.1,"codigo":"M0055","color":"#E41A1C","confianza":"Media","corr":null,"familia":"ML","lat":-0.14111,"lon":-78.48714,"mae":0.1,"modelo":"ML_CAT","n":15,"nombre":"Bicenten","rating":8.07,"region":"Interandina","rmse":0.17},{"bias":0.1,"codigo":"84056","color":"#E41A1C","confianza":"Media","corr":null,"familia":"ML","lat":0.01116,"lon":-78.25505,"mae":0.1,"modelo":"ML_CAT","n":15,"nombre":"Tomal\u00f3n","rating":8.06,"region":"Interandina","rmse":0.2},{"bias":0.11,"codigo":"M0024","color":"#E41A1C","confianza":"Media","corr":null,"familia":"ML","lat":-0.1783,"lon":-78.48773,"mae":0.11,"modelo":"ML_CAT","n":15,"nombre":"I\u00f1aquito","rating":8.05,"region":"Interandina","rmse":0.16},{"bias":0.4,"codigo":"M0162","color":"#FE6100","confianza":"Media","corr":0.58,"familia":"ML","lat":-0.6308,"lon":-80.03651,"mae":1.7,"modelo":"HURDLE_LGBM","n":15,"nombre":"Chone","rating":8.05,"region":"Litoral","rmse":2.17},{"bias":0.11,"codigo":"84088","color":"#E41A1C","confianza":"Media","corr":null,"familia":"ML","lat":-0.36593,"lon":-78.55513,"mae":0.11,"modelo":"ML_CAT","n":15,"nombre":"Izobamba","rating":8.05,"region":"Interandina","rmse":0.22},{"bias":-0.01,"codigo":"84018","color":"#8A2BE2","confianza":"Media","corr":-0.03,"familia":"ML","lat":0.97917,"lon":-79.62444,"mae":1.0,"modelo":"ML_HGB","n":15,"nombre":"Esmeraldas","rating":8.0,"region":"Litoral","rmse":2.06},{"bias":-0.59,"codigo":"84270","color":"#CC79A7","confianza":"Media","corr":0.48,"familia":"ML","lat":-4.0375,"lon":-79.2034,"mae":1.61,"modelo":"HURDLE_RF","n":15,"nombre":"Loja Argelia","rating":7.94,"region":"Interandina","rmse":2.35},{"bias":-0.05,"codigo":"CP04","color":"#0072B2","confianza":"Baja","corr":0.45,"familia":"ML","lat":-2.79976,"lon":-78.65003,"mae":1.81,"modelo":"ML_RF","n":11,"nombre":"Sevilla","rating":7.91,"region":"Interandina","rmse":2.56},{"bias":0.01,"codigo":"HN19","color":"#8A2BE2","confianza":"Media","corr":0.19,"familia":"ML","lat":-1.55707,"lon":-80.43704,"mae":1.56,"modelo":"ML_HGB","n":15,"nombre":"Pajan","rating":7.74,"region":"Litoral","rmse":2.88},{"bias":-0.09,"codigo":"HN26","color":"#999933","confianza":"Media","corr":-0.02,"familia":"ML","lat":-1.03848,"lon":-79.69452,"mae":1.5,"modelo":"HURDLE_CAT","n":15,"nombre":"Rio Congo","rating":7.7,"region":"Litoral","rmse":2.17},{"bias":-0.2,"codigo":"84132","color":"#FE6100","confianza":"Media","corr":0.59,"familia":"ML","lat":-0.92003,"lon":-75.40303,"mae":2.23,"modelo":"HURDLE_LGBM","n":15,"nombre":"N. Rocafu","rating":7.64,"region":"Amazonia","rmse":3.43},{"bias":-0.78,"codigo":"M0188","color":"#CC79A7","confianza":"Media","corr":0.81,"familia":"ML","lat":-0.38062,"lon":-78.1414,"mae":2.31,"modelo":"HURDLE_RF","n":15,"nombre":"Papallacta","rating":7.56,"region":"Amazonia","rmse":4.06},{"bias":-0.75,"codigo":"84008","color":"#E41A1C","confianza":"Media","corr":0.15,"familia":"ML","lat":-0.90406,"lon":-89.61431,"mae":1.6,"modelo":"ML_CAT","n":15,"nombre":"S. Cristobal","rating":7.52,"region":"Insular","rmse":2.78},{"bias":-0.4,"codigo":"HN13","color":"#CC79A7","confianza":"Media","corr":0.25,"familia":"ML","lat":-0.45454,"lon":-79.90448,"mae":2.26,"modelo":"ML_GBR","n":15,"nombre":"Flavio Alfaro","rating":7.2,"region":"Litoral","rmse":3.86},{"bias":-1.28,"codigo":"84010","color":"#CC79A7","confianza":"Media","corr":0.29,"familia":"ML","lat":-0.909,"lon":-89.617,"mae":2.13,"modelo":"ML_GBR","n":15,"nombre":"S. Cristobal A","rating":7.13,"region":"Insular","rmse":3.62},{"bias":-0.08,"codigo":"HN08","color":"#8A2BE2","confianza":"Media","corr":0.15,"familia":"ML","lat":-0.89042,"lon":-79.46725,"mae":2.46,"modelo":"ML_HGB","n":15,"nombre":"Q. AJ Lulu","rating":7.06,"region":"Litoral","rmse":4.17},{"bias":-0.89,"codigo":"HN02","color":"#8A2BE2","confianza":"Media","corr":0.45,"familia":"ML","lat":-0.76071,"lon":-79.27486,"mae":2.94,"modelo":"ML_HGB","n":15,"nombre":"Gualipe","rating":7.01,"region":"Litoral","rmse":3.69},{"bias":1.06,"codigo":"M5090","color":"#999933","confianza":"Media","corr":null,"familia":"ML","lat":-2.52865,"lon":-79.50257,"mae":1.06,"modelo":"HURDLE_CAT","n":15,"nombre":"La Troncal","rating":6.84,"region":"Litoral","rmse":2.05},{"bias":-1.05,"codigo":"M5101","color":"#8A2BE2","confianza":"Media","corr":0.29,"familia":"ML","lat":-0.07737,"lon":-78.43295,"mae":3.05,"modelo":"ML_HGB","n":15,"nombre":"Calder\u00f3n","rating":6.6,"region":"Interandina","rmse":4.93},{"bias":-1.52,"codigo":"M5021","color":"#CC79A7","confianza":"Media","corr":0.66,"familia":"ML","lat":-0.18836,"lon":-78.11066,"mae":3.84,"modelo":"ML_GBR","n":15,"nombre":"Yura Faccha Oyacachi","rating":6.51,"region":"Amazonia","rmse":5.26},{"bias":-1.29,"codigo":"HN07","color":"#0072B2","confianza":"Media","corr":0.21,"familia":"ML","lat":-0.60921,"lon":-79.19896,"mae":3.26,"modelo":"ML_RF","n":15,"nombre":"Met. Toachi","rating":6.4,"region":"Litoral","rmse":4.94},{"bias":0.65,"codigo":"HN05","color":"#648FFF","confianza":"Media","corr":-0.12,"familia":"ML","lat":-0.44903,"lon":-79.18796,"mae":3.37,"modelo":"ML_ET","n":15,"nombre":"Met. Baba","rating":6.33,"region":"Litoral","rmse":4.09},{"bias":-1.66,"codigo":"M5254","color":"#648FFF","confianza":"Media","corr":0.48,"familia":"ML","lat":-0.23383,"lon":-78.16968,"mae":3.67,"modelo":"ML_ET","n":15,"nombre":"Salve Faccha","rating":6.32,"region":"Amazonia","rmse":5.66},{"bias":0.71,"codigo":"HN04","color":"#CC79A7","confianza":"Media","corr":-0.07,"familia":"ML","lat":-0.57889,"lon":-79.02222,"mae":2.94,"modelo":"ML_GBR","n":15,"nombre":"La Cocha","rating":6.32,"region":"Interandina","rmse":5.45},{"bias":-0.2,"codigo":"M5190","color":"#CC79A7","confianza":"Media","corr":0.75,"familia":"ML","lat":-0.19886,"lon":-77.68304,"mae":5.78,"modelo":"ML_GBR","n":15,"nombre":"Captaci\u00f3n Central","rating":6.14,"region":"Amazonia","rmse":7.16},{"bias":-1.86,"codigo":"HN27","color":"#648FFF","confianza":"Media","corr":0.18,"familia":"ML","lat":-0.61648,"lon":-79.72021,"mae":3.5,"modelo":"ML_ET","n":15,"nombre":"San Pedro De Oro","rating":5.97,"region":"Litoral","rmse":6.4},{"bias":-1.3,"codigo":"84151","color":"#FE6100","confianza":"Media","corr":0.6,"familia":"ML","lat":-1.057,"lon":-77.584,"mae":5.1,"modelo":"HURDLE_LGBM","n":15,"nombre":"Jumandy","rating":5.86,"region":"Amazonia","rmse":7.46},{"bias":-2.44,"codigo":"HN21","color":"#CC79A7","confianza":"Media","corr":0.43,"familia":"ML","lat":-1.0494,"lon":-79.81367,"mae":3.96,"modelo":"ML_GBR","n":15,"nombre":"Pichincha","rating":5.72,"region":"Litoral","rmse":8.36},{"bias":-2.28,"codigo":"HN14","color":"#648FFF","confianza":"Media","corr":0.26,"familia":"ML","lat":-0.42911,"lon":-79.55993,"mae":4.34,"modelo":"ML_ET","n":15,"nombre":"La Cancha","rating":5.63,"region":"Litoral","rmse":6.97},{"bias":-1.75,"codigo":"M0124","color":"#648FFF","confianza":"Media","corr":0.13,"familia":"ML","lat":-0.90903,"lon":-79.25367,"mae":4.32,"modelo":"ML_ET","n":15,"nombre":"La Man\u00e1","rating":5.62,"region":"Interandina","rmse":6.98},{"bias":-2.37,"codigo":"HN06","color":"#E41A1C","confianza":"Media","corr":0.39,"familia":"ML","lat":-0.67212,"lon":-79.46899,"mae":4.83,"modelo":"ML_CAT","n":15,"nombre":"Met. Chaune","rating":5.47,"region":"Litoral","rmse":8.1},{"bias":-1.51,"codigo":"M0156","color":"#FE6100","confianza":"Media","corr":0.42,"familia":"ML","lat":0.31944,"lon":-79.47108,"mae":5.52,"modelo":"HURDLE_LGBM","n":15,"nombre":"Quinind\u00e9","rating":5.46,"region":"Litoral","rmse":8.37},{"bias":-1.91,"codigo":"HN10","color":"#999933","confianza":"Media","corr":0.02,"familia":"ML","lat":-0.94816,"lon":-79.42562,"mae":3.85,"modelo":"HURDLE_CAT","n":15,"nombre":"San Pablo","rating":5.45,"region":"Litoral","rmse":8.69},{"bias":-1.71,"codigo":"84163","color":"#E41A1C","confianza":"Media","corr":0.77,"familia":"ML","lat":-1.5,"lon":-78.06667,"mae":7.16,"modelo":"ML_CAT","n":15,"nombre":"Pastaza","rating":5.44,"region":"Amazonia","rmse":8.19},{"bias":-4.05,"codigo":"CP03","color":"#648FFF","confianza":"Media","corr":0.67,"familia":"ML","lat":-2.79945,"lon":-78.49954,"mae":5.29,"modelo":"ML_ET","n":15,"nombre":"Guarumales","rating":5.4,"region":"Amazonia","rmse":7.8},{"bias":-1.97,"codigo":"HN01","color":"#CC79A7","confianza":"Media","corr":0.24,"familia":"ML","lat":-0.67092,"lon":-79.4155,"mae":4.79,"modelo":"ML_GBR","n":15,"nombre":"Dique 1","rating":5.39,"region":"Litoral","rmse":8.34},{"bias":-3.48,"codigo":"M0037","color":"#FE6100","confianza":"Media","corr":0.6,"familia":"ML","lat":-2.11805,"lon":-79.60038,"mae":5.03,"modelo":"HURDLE_LGBM","n":15,"nombre":"Milagro","rating":5.1,"region":"Litoral","rmse":11.92},{"bias":-3.64,"codigo":"HN11","color":"#648FFF","confianza":"Media","corr":0.16,"familia":"ML","lat":-0.76374,"lon":-79.80413,"mae":4.96,"modelo":"ML_ET","n":15,"nombre":"Cerradora","rating":4.92,"region":"Litoral","rmse":9.29},{"bias":-2.72,"codigo":"84179","color":"#FE6100","confianza":"Media","corr":0.72,"familia":"ML","lat":-1.5057,"lon":-77.956,"mae":8.8,"modelo":"HURDLE_LGBM","n":15,"nombre":"Puyo","rating":4.8,"region":"Amazonia","rmse":10.19},{"bias":-4.7,"codigo":"M5008","color":"#999933","confianza":"Media","corr":0.47,"familia":"ML","lat":-0.57833,"lon":-77.86833,"mae":6.46,"modelo":"HURDLE_CAT","n":15,"nombre":"Quijos-Cosan","rating":4.74,"region":"Amazonia","rmse":9.44},{"bias":-5.47,"codigo":"HN03","color":"#CC79A7","confianza":"Media","corr":0.54,"familia":"ML","lat":-0.88892,"lon":-79.16079,"mae":7.29,"modelo":"ML_GBR","n":15,"nombre":"Guayacan","rating":4.59,"region":"Interandina","rmse":9.39},{"bias":-4.09,"codigo":"M5187","color":"#E41A1C","confianza":"Media","corr":0.47,"familia":"ML","lat":-0.13741,"lon":-77.47286,"mae":7.4,"modelo":"ML_CAT","n":15,"nombre":"El Chaco 1","rating":4.51,"region":"Amazonia","rmse":10.99},{"bias":-6.25,"codigo":"M1040","color":"#CC79A7","confianza":"Media","corr":0.68,"familia":"ML","lat":-2.22982,"lon":-78.12501,"mae":7.73,"modelo":"HURDLE_RF","n":15,"nombre":"Macas INA","rating":4.4,"region":"Amazonia","rmse":11.44},{"bias":-5.51,"codigo":"84099","color":"#FE6100","confianza":"Media","corr":0.67,"familia":"ML","lat":-0.46056,"lon":-76.98806,"mae":8.48,"modelo":"HURDLE_LGBM","n":15,"nombre":"El Coca","rating":4.36,"region":"Amazonia","rmse":11.31},{"bias":-3.57,"codigo":"HN16","color":"#CC79A7","confianza":"Media","corr":-0.13,"familia":"ML","lat":-0.54753,"lon":-79.58941,"mae":5.24,"modelo":"HURDLE_RF","n":15,"nombre":"La Palizada","rating":4.33,"region":"Litoral","rmse":12.62},{"bias":-3.95,"codigo":"HN29","color":"#CC79A7","confianza":"Media","corr":-0.21,"familia":"ML","lat":-0.55975,"lon":-79.48669,"mae":6.23,"modelo":"HURDLE_RF","n":15,"nombre":"Union 71","rating":4.21,"region":"Litoral","rmse":9.84},{"bias":-3.01,"codigo":"84253","color":"#0072B2","confianza":"Media","corr":0.01,"familia":"ML","lat":-3.42333,"lon":-78.56694,"mae":7.09,"modelo":"ML_RF","n":15,"nombre":"Gualaquiza","rating":4.19,"region":"Amazonia","rmse":12.25},{"bias":-5.19,"codigo":"M1124","color":"#FE6100","confianza":"Media","corr":0.73,"familia":"ML","lat":-0.67418,"lon":-77.91936,"mae":9.79,"modelo":"HURDLE_LGBM","n":15,"nombre":"Sierra Azul","rating":4.15,"region":"Amazonia","rmse":13.38},{"bias":-4.77,"codigo":"HN17","color":"#CC79A7","confianza":"Media","corr":0.08,"familia":"ML","lat":-0.9006,"lon":-79.64678,"mae":6.75,"modelo":"HURDLE_RF","n":15,"nombre":"Murucumba","rating":4.04,"region":"Litoral","rmse":13.02},{"bias":-3.46,"codigo":"84050","color":"#999933","confianza":"Media","corr":-0.16,"familia":"ML","lat":-0.02478,"lon":-79.38028,"mae":8.2,"modelo":"HURDLE_CAT","n":15,"nombre":"La Concordia","rating":3.89,"region":"Litoral","rmse":11.12},{"bias":-5.4,"codigo":"HN22","color":"#FE6100","confianza":"Media","corr":0.08,"familia":"ML","lat":-0.92351,"lon":-79.75054,"mae":7.03,"modelo":"HURDLE_LGBM","n":15,"nombre":"La Presa","rating":3.86,"region":"Litoral","rmse":14.05},{"bias":-3.43,"codigo":"84063","color":"#648FFF","confianza":"Media","corr":0.09,"familia":"ML","lat":0.0925,"lon":-76.86944,"mae":10.07,"modelo":"ML_ET","n":15,"nombre":"Lago Agrio","rating":3.69,"region":"Amazonia","rmse":14.44},{"bias":-4.05,"codigo":"HN23","color":"#CC79A7","confianza":"Media","corr":-0.04,"familia":"ML","lat":-0.39067,"lon":-79.37231,"mae":7.81,"modelo":"HURDLE_RF","n":15,"nombre":"Pto. Lim\u00f3n","rating":3.64,"region":"Litoral","rmse":16.79},{"bias":-7.3,"codigo":"M1219","color":"#FE6100","confianza":"Media","corr":0.09,"familia":"ML","lat":-0.91685,"lon":-77.81907,"mae":8.42,"modelo":"HURDLE_LGBM","n":15,"nombre":"Tena Hda","rating":3.6,"region":"Amazonia","rmse":12.81},{"bias":-5.05,"codigo":"84105","color":"#FE6100","confianza":"Media","corr":0.06,"familia":"ML","lat":-0.493,"lon":-79.34892,"mae":9.12,"modelo":"HURDLE_LGBM","n":15,"nombre":"Puerto Ila","rating":3.49,"region":"Litoral","rmse":16.03},{"bias":-10.1,"codigo":"CP01","color":"#E41A1C","confianza":"Media","corr":0.65,"familia":"ML","lat":-2.56545,"lon":-78.56733,"mae":11.51,"modelo":"ML_CAT","n":15,"nombre":"Arenales","rating":3.42,"region":"Interandina","rmse":17.76},{"bias":-2.25,"codigo":"M0391","color":"#FE6100","confianza":"Media","corr":0.14,"familia":"ML","lat":-2.00047,"lon":-78.97222,"mae":14.63,"modelo":"HURDLE_LGBM","n":15,"nombre":"Pallatanga","rating":3.3,"region":"Interandina","rmse":23.6},{"bias":-6.01,"codigo":"HN09","color":"#999933","confianza":"Media","corr":-0.02,"familia":"ML","lat":-0.32172,"lon":-79.2362,"mae":9.35,"modelo":"HURDLE_CAT","n":15,"nombre":"San Miguel","rating":3.15,"region":"Litoral","rmse":19.92},{"bias":-9.97,"codigo":"M5189","color":"#999933","confianza":"Media","corr":0.07,"familia":"ML","lat":-0.13094,"lon":-77.45573,"mae":13.45,"modelo":"HURDLE_CAT","n":15,"nombre":"El Chaco 2","rating":2.71,"region":"Amazonia","rmse":19.96}],"metricas":{"calif_media":7.0,"estaciones":100,"mas_ganador":"HURDLE_LGBM"},"modo":"quantification","ranking":[{"bias":-1.3,"color":"#648FFF","confianza":"Media","corr":0.31,"estaciones":94,"familia":"ML","mae":2.99,"modelo":"ML_ET","n":15,"rating":6.96,"rmse":4.84},{"bias":-1.28,"color":"#CC79A7","confianza":"Media","corr":0.26,"estaciones":94,"familia":"ML","mae":3.02,"modelo":"ML_GBR","n":15,"rating":6.93,"rmse":4.86},{"bias":-1.22,"color":"#CC79A7","confianza":"Media","corr":0.28,"estaciones":94,"familia":"ML","mae":3.03,"modelo":"HURDLE_RF","n":15,"rating":6.91,"rmse":4.84},{"bias":-1.32,"color":"#8A2BE2","confianza":"Media","corr":0.28,"estaciones":94,"familia":"ML","mae":3.07,"modelo":"ML_HGB","n":15,"rating":6.89,"rmse":4.94},{"bias":-1.29,"color":"#0072B2","confianza":"Media","corr":0.25,"estaciones":94,"familia":"ML","mae":3.04,"modelo":"ML_RF","n":15,"rating":6.87,"rmse":4.88},{"bias":-1.54,"color":"#E41A1C","confianza":"Media","corr":0.28,"estaciones":100,"familia":"ML","mae":3.29,"modelo":"ML_CAT","n":15,"rating":6.8,"rmse":5.34},{"bias":-1.41,"color":"#999933","confianza":"Media","corr":0.28,"estaciones":100,"familia":"ML","mae":3.32,"modelo":"HURDLE_CAT","n":15,"rating":6.79,"rmse":5.34},{"bias":-1.25,"color":"#FE6100","confianza":"Media","corr":0.28,"estaciones":100,"familia":"ML","mae":3.36,"modelo":"HURDLE_LGBM","n":15,"rating":6.78,"rmse":5.34}],"sintesis_region":[{"modelo":"HURDLE_LGBM","region":"Amazonia"},{"modelo":"ML_GBR","region":"Insular"},{"modelo":"ML_HGB","region":"Interandina"},{"modelo":"ML_ET","region":"Litoral"}],"ventana":"15"}
