{"bloque":"tmax","bloques":[{"clave":"precip_det","etiqueta":"Precipitaci\u00f3n: detecci\u00f3n"},{"clave":"precip_cua","etiqueta":"Precipitaci\u00f3n: cuantificaci\u00f3n"},{"clave":"tmax","etiqueta":"Temperatura m\u00e1xima"},{"clave":"tmin","etiqueta":"Temperatura m\u00ednima"}],"estaciones":[{"codigo":"84099","nombre":"El Coca","region":"Amazonia"},{"codigo":"84253","nombre":"Gualaquiza","region":"Amazonia"},{"codigo":"84151","nombre":"Jumandy","region":"Amazonia"},{"codigo":"84063","nombre":"Lago Agrio","region":"Amazonia"},{"codigo":"84217","nombre":"Macas","region":"Amazonia"},{"codigo":"84132","nombre":"N. Rocafu","region":"Amazonia"},{"codigo":"84163","nombre":"Pastaza","region":"Amazonia"},{"codigo":"84179","nombre":"Puyo","region":"Amazonia"},{"codigo":"84001","nombre":"Baltra","region":"Insular"},{"codigo":"84008","nombre":"S. Cristobal","region":"Insular"},{"codigo":"84010","nombre":"S. Cristobal A","region":"Insular"},{"codigo":"84147","nombre":"Ambato","region":"Interandina"},{"codigo":"84226","nombre":"Ca\u00f1ar","region":"Interandina"},{"codigo":"84239","nombre":"Cuenca","region":"Interandina"},{"codigo":"84173","nombre":"ESPOCH","region":"Interandina"},{"codigo":"M1240","nombre":"Ibarra","region":"Interandina"},{"codigo":"84045","nombre":"Inguincho","region":"Interandina"},{"codigo":"84088","nombre":"Izobamba","region":"Interandina"},{"codigo":"M0024","nombre":"I\u00f1aquito","region":"Interandina"},{"codigo":"84076","nombre":"La Tola","region":"Interandina"},{"codigo":"84265","nombre":"La Toma","region":"Interandina"},{"codigo":"84123","nombre":"Latacunga","region":"Interandina"},{"codigo":"84270","nombre":"Loja Argelia","region":"Interandina"},{"codigo":"84160","nombre":"Querochaca","region":"Interandina"},{"codigo":"84176","nombre":"Riobamba","region":"Interandina"},{"codigo":"84143","nombre":"Rumipamba","region":"Interandina"},{"codigo":"84036","nombre":"S. Gabriel","region":"Interandina"},{"codigo":"84075","nombre":"Tababela","region":"Interandina"},{"codigo":"84056","nombre":"Tomal\u00f3n","region":"Interandina"},{"codigo":"84027","nombre":"Tulc\u00e1n","region":"Interandina"},{"codigo":"84018","nombre":"Esmeraldas","region":"Litoral"},{"codigo":"84203","nombre":"Guayaquil","region":"Litoral"},{"codigo":"84050","nombre":"La Concordia","region":"Litoral"},{"codigo":"84117","nombre":"Manta","region":"Litoral"},{"codigo":"M0037","nombre":"Milagro","region":"Litoral"},{"codigo":"84140","nombre":"Pichilingue","region":"Litoral"},{"codigo":"84135","nombre":"Portoviejo","region":"Litoral"},{"codigo":"84105","nombre":"Puerto Ila","region":"Litoral"},{"codigo":"84200","nombre":"Salinas","region":"Litoral"},{"codigo":"84252","nombre":"Sta. Rosa","region":"Litoral"}],"familia":"ML","ganadores":[{"bias":-0.11,"codigo":"84105","color":"#E69F00","confianza":"Media","corr":0.79,"familia":"ML","lat":-0.493,"lon":-79.34892,"mae":0.69,"modelo":"ML_ET","n":29,"nombre":"Puerto Ila","rating":7.2,"region":"Litoral","rmse":0.88},{"bias":0.1,"codigo":"84088","color":"#984EA3","confianza":"Media","corr":0.78,"familia":"ML","lat":-0.36593,"lon":-78.55513,"mae":0.75,"modelo":"RIDGE_RICH","n":23,"nombre":"Izobamba","rating":7.07,"region":"Interandina","rmse":0.94},{"bias":-0.11,"codigo":"84203","color":"#FF7F00","confianza":"Media","corr":0.61,"familia":"ML","lat":-2.15333,"lon":-79.88333,"mae":0.7,"modelo":"ML_GBR","n":27,"nombre":"Guayaquil","rating":6.97,"region":"Litoral","rmse":0.94},{"bias":-0.01,"codigo":"84200","color":"#984EA3","confianza":"Alta","corr":0.82,"familia":"ML","lat":-2.2,"lon":-80.98972,"mae":0.94,"modelo":"RIDGE_RICH","n":33,"nombre":"Salinas","rating":6.8,"region":"Litoral","rmse":1.18},{"bias":0.27,"codigo":"84010","color":"#984EA3","confianza":"Alta","corr":0.83,"familia":"ML","lat":-0.909,"lon":-89.617,"mae":0.78,"modelo":"RIDGE_RICH","n":58,"nombre":"S. Cristobal A","rating":6.73,"region":"Insular","rmse":1.07},{"bias":0.14,"codigo":"84008","color":"#984EA3","confianza":"Alta","corr":0.85,"familia":"ML","lat":-0.90406,"lon":-89.61431,"mae":0.9,"modelo":"RIDGE_RICH","n":36,"nombre":"S. Cristobal","rating":6.72,"region":"Insular","rmse":1.12},{"bias":0.02,"codigo":"84123","color":"#009E73","confianza":"Media","corr":0.57,"familia":"ML","lat":-0.91333,"lon":-78.61556,"mae":0.83,"modelo":"ML_RF","n":26,"nombre":"Latacunga","rating":6.71,"region":"Interandina","rmse":1.17},{"bias":-0.23,"codigo":"84036","color":"#E69F00","confianza":"Media","corr":0.64,"familia":"ML","lat":0.60417,"lon":-77.81944,"mae":0.89,"modelo":"ML_ET","n":29,"nombre":"S. Gabriel","rating":6.43,"region":"Interandina","rmse":1.1},{"bias":-0.05,"codigo":"84117","color":"#984EA3","confianza":"Alta","corr":0.56,"familia":"ML","lat":-0.95,"lon":-80.68333,"mae":1.0,"modelo":"RIDGE_RICH","n":41,"nombre":"Manta","rating":6.39,"region":"Litoral","rmse":1.23},{"bias":-0.2,"codigo":"84163","color":"#00A9A5","confianza":"Media","corr":0.61,"familia":"ML","lat":-1.5,"lon":-78.06667,"mae":0.86,"modelo":"ML_HGB","n":26,"nombre":"Pastaza","rating":6.36,"region":"Amazonia","rmse":1.27},{"bias":0.19,"codigo":"84001","color":"#984EA3","confianza":"Alta","corr":0.77,"familia":"ML","lat":-0.445,"lon":-90.269,"mae":1.02,"modelo":"RIDGE_RICH","n":43,"nombre":"Baltra","rating":6.29,"region":"Insular","rmse":1.31},{"bias":-0.04,"codigo":"84252","color":"#4DAF4A","confianza":"Alta","corr":0.72,"familia":"ML","lat":-3.43583,"lon":-79.98333,"mae":1.11,"modelo":"LGBM_REG","n":31,"nombre":"Sta. Rosa","rating":6.28,"region":"Litoral","rmse":1.45},{"bias":-0.46,"codigo":"84050","color":"#FF7F00","confianza":"Media","corr":0.74,"familia":"ML","lat":-0.02478,"lon":-79.38028,"mae":0.91,"modelo":"ML_GBR","n":28,"nombre":"La Concordia","rating":6.23,"region":"Litoral","rmse":1.11},{"bias":0.26,"codigo":"84147","color":"#FF7F00","confianza":"Baja","corr":0.7,"familia":"ML","lat":-1.21413,"lon":-78.57455,"mae":0.92,"modelo":"ML_GBR","n":10,"nombre":"Ambato","rating":6.23,"region":"Interandina","rmse":1.35},{"bias":0.26,"codigo":"84045","color":"#E69F00","confianza":"Media","corr":0.53,"familia":"ML","lat":0.25694,"lon":-78.40524,"mae":0.89,"modelo":"ML_ET","n":29,"nombre":"Inguincho","rating":6.19,"region":"Interandina","rmse":1.26},{"bias":-0.05,"codigo":"M1240","color":"#984EA3","confianza":"Media","corr":0.59,"familia":"ML","lat":0.32978,"lon":-78.1322,"mae":1.17,"modelo":"RIDGE_RICH","n":16,"nombre":"Ibarra","rating":6.1,"region":"Interandina","rmse":1.42},{"bias":-0.18,"codigo":"84270","color":"#984EA3","confianza":"Media","corr":0.64,"familia":"ML","lat":-4.0375,"lon":-79.2034,"mae":1.1,"modelo":"RIDGE_RICH","n":24,"nombre":"Loja Argelia","rating":6.01,"region":"Interandina","rmse":1.46},{"bias":-0.09,"codigo":"84140","color":"#984EA3","confianza":"Media","corr":0.67,"familia":"ML","lat":-1.07434,"lon":-79.4929,"mae":1.24,"modelo":"RIDGE_RICH","n":17,"nombre":"Pichilingue","rating":5.99,"region":"Litoral","rmse":1.49},{"bias":-0.05,"codigo":"M0024","color":"#984EA3","confianza":"Media","corr":0.54,"familia":"ML","lat":-0.1783,"lon":-78.48773,"mae":1.25,"modelo":"RIDGE_RICH","n":22,"nombre":"I\u00f1aquito","rating":5.93,"region":"Interandina","rmse":1.47},{"bias":-0.61,"codigo":"84018","color":"#984EA3","confianza":"Alta","corr":0.69,"familia":"ML","lat":0.97917,"lon":-79.62444,"mae":0.98,"modelo":"ML_HUBER","n":140,"nombre":"Esmeraldas","rating":5.78,"region":"Litoral","rmse":1.39},{"bias":0.01,"codigo":"84151","color":"#E69F00","confianza":"Media","corr":0.39,"familia":"ML","lat":-1.057,"lon":-77.584,"mae":1.28,"modelo":"ML_ET","n":15,"nombre":"Jumandy","rating":5.72,"region":"Amazonia","rmse":1.67},{"bias":-0.02,"codigo":"84239","color":"#984EA3","confianza":"Alta","corr":0.38,"familia":"ML","lat":-2.88917,"lon":-78.98417,"mae":1.28,"modelo":"RIDGE_RICH","n":44,"nombre":"Cuenca","rating":5.66,"region":"Interandina","rmse":1.76},{"bias":-0.34,"codigo":"84226","color":"#009E73","confianza":"Media","corr":0.56,"familia":"ML","lat":-2.55221,"lon":-78.94519,"mae":1.18,"modelo":"ML_RF","n":26,"nombre":"Ca\u00f1ar","rating":5.64,"region":"Interandina","rmse":1.47},{"bias":-0.38,"codigo":"84027","color":"#E69F00","confianza":"Media","corr":0.31,"familia":"ML","lat":0.81667,"lon":-77.7,"mae":1.01,"modelo":"ML_ET","n":19,"nombre":"Tulc\u00e1n","rating":5.6,"region":"Interandina","rmse":1.41},{"bias":-0.63,"codigo":"84160","color":"#E69F00","confianza":"Media","corr":0.77,"familia":"ML","lat":-1.3671,"lon":-78.60554,"mae":1.17,"modelo":"ML_ET","n":28,"nombre":"Querochaca","rating":5.56,"region":"Interandina","rmse":1.49},{"bias":-0.1,"codigo":"84179","color":"#E69F00","confianza":"Media","corr":0.41,"familia":"ML","lat":-1.5057,"lon":-77.956,"mae":1.32,"modelo":"ML_ET","n":28,"nombre":"Puyo","rating":5.55,"region":"Amazonia","rmse":1.72},{"bias":-0.75,"codigo":"M0037","color":"#4DAF4A","confianza":"Baja","corr":0.57,"familia":"ML","lat":-2.11805,"lon":-79.60038,"mae":1.3,"modelo":"LGBM_REG","n":10,"nombre":"Milagro","rating":5.04,"region":"Litoral","rmse":1.71},{"bias":-0.18,"codigo":"84176","color":"#4DAF4A","confianza":"Alta","corr":0.38,"familia":"ML","lat":-1.65333,"lon":-78.54889,"mae":1.63,"modelo":"LGBM_REG","n":31,"nombre":"Riobamba","rating":4.99,"region":"Interandina","rmse":2.01},{"bias":-0.59,"codigo":"84143","color":"#009E73","confianza":"Media","corr":0.34,"familia":"ML","lat":-1.01998,"lon":-78.59456,"mae":1.14,"modelo":"ML_RF","n":29,"nombre":"Rumipamba","rating":4.98,"region":"Interandina","rmse":1.99},{"bias":-0.3,"codigo":"84132","color":"#984EA3","confianza":"Media","corr":0.49,"familia":"ML","lat":-0.92003,"lon":-75.40303,"mae":1.68,"modelo":"RIDGE_RICH","n":24,"nombre":"N. Rocafu","rating":4.9,"region":"Amazonia","rmse":2.02},{"bias":-0.29,"codigo":"84135","color":"#4DAF4A","confianza":"Media","corr":0.32,"familia":"ML","lat":-1.17343,"lon":-80.38736,"mae":1.58,"modelo":"LGBM_REG","n":17,"nombre":"Portoviejo","rating":4.85,"region":"Litoral","rmse":1.98},{"bias":-0.01,"codigo":"84253","color":"#4DAF4A","confianza":"Media","corr":0.46,"familia":"ML","lat":-3.42333,"lon":-78.56694,"mae":2.03,"modelo":"LGBM_REG","n":19,"nombre":"Gualaquiza","rating":4.83,"region":"Amazonia","rmse":2.63},{"bias":-0.42,"codigo":"84063","color":"#E69F00","confianza":"Media","corr":0.41,"familia":"ML","lat":0.0925,"lon":-76.86944,"mae":1.58,"modelo":"ML_ET","n":27,"nombre":"Lago Agrio","rating":4.79,"region":"Amazonia","rmse":1.98},{"bias":-0.72,"codigo":"84265","color":"#4DAF4A","confianza":"Media","corr":0.35,"familia":"ML","lat":-3.99556,"lon":-79.37167,"mae":1.45,"modelo":"LGBM_REG","n":25,"nombre":"La Toma","rating":4.69,"region":"Interandina","rmse":1.79},{"bias":-1.11,"codigo":"84173","color":"#E69F00","confianza":"Media","corr":0.63,"familia":"ML","lat":-1.65083,"lon":-78.68521,"mae":1.5,"modelo":"ML_ET","n":28,"nombre":"ESPOCH","rating":4.6,"region":"Interandina","rmse":1.97},{"bias":-0.85,"codigo":"84099","color":"#009E73","confianza":"Media","corr":0.51,"familia":"ML","lat":-0.46056,"lon":-76.98806,"mae":1.52,"modelo":"ML_RF","n":27,"nombre":"El Coca","rating":4.47,"region":"Amazonia","rmse":2.27},{"bias":0.48,"codigo":"84076","color":"#4DAF4A","confianza":"Alta","corr":0.38,"familia":"ML","lat":-0.23179,"lon":-78.37043,"mae":1.79,"modelo":"LGBM_REG","n":33,"nombre":"La Tola","rating":4.39,"region":"Interandina","rmse":2.4},{"bias":0.16,"codigo":"84075","color":"#984EA3","confianza":"Media","corr":0.16,"familia":"ML","lat":-0.14083,"lon":-78.353,"mae":2.1,"modelo":"RIDGE_RICH","n":17,"nombre":"Tababela","rating":4.37,"region":"Interandina","rmse":2.46},{"bias":-0.71,"codigo":"84217","color":"#E69F00","confianza":"Media","corr":0.47,"familia":"ML","lat":-2.29861,"lon":-78.12056,"mae":1.84,"modelo":"ML_ET","n":27,"nombre":"Macas","rating":4.27,"region":"Amazonia","rmse":2.36},{"bias":0.02,"codigo":"84056","color":"#4DAF4A","confianza":"Media","corr":0.13,"familia":"ML","lat":0.01116,"lon":-78.25505,"mae":2.37,"modelo":"LGBM_REG","n":24,"nombre":"Tomal\u00f3n","rating":4.24,"region":"Interandina","rmse":3.11}],"metricas":{"calif_media":5.7,"estaciones":40,"mas_ganador":"RIDGE_RICH"},"modo":"continuous","ranking":[{"bias":-0.45,"color":"#E69F00","confianza":"Media","corr":0.42,"estaciones":39,"familia":"ML","mae":1.3,"modelo":"ML_ET","n":26,"rating":5.18,"rmse":1.84},{"bias":-0.5,"color":"#009E73","confianza":"Media","corr":0.42,"estaciones":39,"familia":"ML","mae":1.32,"modelo":"ML_RF","n":26,"rating":5.13,"rmse":1.85},{"bias":-0.62,"color":"#00A9A5","confianza":"Media","corr":0.42,"estaciones":39,"familia":"ML","mae":1.39,"modelo":"ML_HGB","n":26,"rating":4.96,"rmse":1.91},{"bias":-0.62,"color":"#FF7F00","confianza":"Media","corr":0.38,"estaciones":39,"familia":"ML","mae":1.44,"modelo":"ML_GBR","n":26,"rating":4.92,"rmse":1.98},{"bias":0.15,"color":"#984EA3","confianza":"Media","corr":0.35,"estaciones":40,"familia":"ML","mae":1.63,"modelo":"RIDGE_RICH","n":29,"rating":4.83,"rmse":2.06},{"bias":0.15,"color":"#4DAF4A","confianza":"Media","corr":0.36,"estaciones":40,"familia":"ML","mae":1.65,"modelo":"LGBM_REG","n":29,"rating":4.82,"rmse":2.08},{"bias":-1.51,"color":"#DC267F","confianza":"Alta","corr":0.38,"estaciones":40,"familia":"ML","mae":2.31,"modelo":"ML_XGB","n":150,"rating":3.46,"rmse":4.33},{"bias":-1.5,"color":"#4DAF4A","confianza":"Alta","corr":0.38,"estaciones":40,"familia":"ML","mae":2.3,"modelo":"ML_LGBM","n":150,"rating":3.46,"rmse":4.33},{"bias":-1.5,"color":"#E41A1C","confianza":"Alta","corr":0.37,"estaciones":40,"familia":"ML","mae":2.32,"modelo":"ML_CAT","n":150,"rating":3.45,"rmse":4.34},{"bias":-1.37,"color":"#984EA3","confianza":"Alta","corr":0.34,"estaciones":40,"familia":"ML","mae":2.4,"modelo":"ML_HUBER","n":150,"rating":3.42,"rmse":4.37},{"bias":-1.44,"color":"#FF7F00","confianza":"Alta","corr":0.33,"estaciones":40,"familia":"ML","mae":2.39,"modelo":"ML_ELASTICNET","n":150,"rating":3.39,"rmse":4.37},{"bias":-1.43,"color":"#377EB8","confianza":"Alta","corr":0.33,"estaciones":40,"familia":"ML","mae":2.39,"modelo":"ML_RIDGE","n":150,"rating":3.39,"rmse":4.37}],"sintesis_region":[{"modelo":"ML_ET","region":"Amazonia"},{"modelo":"RIDGE_RICH","region":"Insular"},{"modelo":"RIDGE_RICH","region":"Interandina"},{"modelo":"RIDGE_RICH","region":"Litoral"}],"ventana":"todo"}
