{"bloque":"tmin","bloques":[{"clave":"precip_det","etiqueta":"Precipitaci\u00f3n: detecci\u00f3n"},{"clave":"precip_cua","etiqueta":"Precipitaci\u00f3n: cuantificaci\u00f3n"},{"clave":"tmax","etiqueta":"Temperatura m\u00e1xima"},{"clave":"tmin","etiqueta":"Temperatura m\u00ednima"}],"estaciones":[{"codigo":"84099","nombre":"El Coca","region":"Amazonia"},{"codigo":"84253","nombre":"Gualaquiza","region":"Amazonia"},{"codigo":"84151","nombre":"Jumandy","region":"Amazonia"},{"codigo":"84063","nombre":"Lago Agrio","region":"Amazonia"},{"codigo":"84217","nombre":"Macas","region":"Amazonia"},{"codigo":"84132","nombre":"N. Rocafu","region":"Amazonia"},{"codigo":"84163","nombre":"Pastaza","region":"Amazonia"},{"codigo":"84179","nombre":"Puyo","region":"Amazonia"},{"codigo":"84001","nombre":"Baltra","region":"Insular"},{"codigo":"84008","nombre":"S. Cristobal","region":"Insular"},{"codigo":"84010","nombre":"S. Cristobal A","region":"Insular"},{"codigo":"84147","nombre":"Ambato","region":"Interandina"},{"codigo":"84226","nombre":"Ca\u00f1ar","region":"Interandina"},{"codigo":"84239","nombre":"Cuenca","region":"Interandina"},{"codigo":"84173","nombre":"ESPOCH","region":"Interandina"},{"codigo":"M1240","nombre":"Ibarra","region":"Interandina"},{"codigo":"84045","nombre":"Inguincho","region":"Interandina"},{"codigo":"84088","nombre":"Izobamba","region":"Interandina"},{"codigo":"M0024","nombre":"I\u00f1aquito","region":"Interandina"},{"codigo":"84076","nombre":"La Tola","region":"Interandina"},{"codigo":"84265","nombre":"La Toma","region":"Interandina"},{"codigo":"84123","nombre":"Latacunga","region":"Interandina"},{"codigo":"84270","nombre":"Loja Argelia","region":"Interandina"},{"codigo":"84160","nombre":"Querochaca","region":"Interandina"},{"codigo":"84176","nombre":"Riobamba","region":"Interandina"},{"codigo":"84143","nombre":"Rumipamba","region":"Interandina"},{"codigo":"84036","nombre":"S. Gabriel","region":"Interandina"},{"codigo":"84075","nombre":"Tababela","region":"Interandina"},{"codigo":"84056","nombre":"Tomal\u00f3n","region":"Interandina"},{"codigo":"84027","nombre":"Tulc\u00e1n","region":"Interandina"},{"codigo":"84018","nombre":"Esmeraldas","region":"Litoral"},{"codigo":"84203","nombre":"Guayaquil","region":"Litoral"},{"codigo":"84050","nombre":"La Concordia","region":"Litoral"},{"codigo":"84117","nombre":"Manta","region":"Litoral"},{"codigo":"M0037","nombre":"Milagro","region":"Litoral"},{"codigo":"84140","nombre":"Pichilingue","region":"Litoral"},{"codigo":"84135","nombre":"Portoviejo","region":"Litoral"},{"codigo":"84105","nombre":"Puerto Ila","region":"Litoral"},{"codigo":"84200","nombre":"Salinas","region":"Litoral"},{"codigo":"84252","nombre":"Sta. Rosa","region":"Litoral"}],"familia":"No convencionales","ganadores":[{"bias":0.03,"codigo":"84027","color":"#D55E00","confianza":"Baja","corr":0.96,"familia":"No convencionales","lat":0.81667,"lon":-77.7,"mae":0.31,"modelo":"METEOBLUE","n":7,"nombre":"Tulc\u00e1n","rating":8.52,"region":"Interandina","rmse":0.52},{"bias":-0.04,"codigo":"84217","color":"#00A9A5","confianza":"Baja","corr":0.68,"familia":"No convencionales","lat":-2.29861,"lon":-78.12056,"mae":0.35,"modelo":"NEMSGLOBAL","n":7,"nombre":"Macas","rating":8.28,"region":"Amazonia","rmse":0.43},{"bias":-0.12,"codigo":"84105","color":"#A6761D","confianza":"Baja","corr":0.53,"familia":"No convencionales","lat":-0.493,"lon":-79.34892,"mae":0.29,"modelo":"NEMSSA","n":7,"nombre":"Puerto Ila","rating":8.2,"region":"Litoral","rmse":0.38},{"bias":0.25,"codigo":"84135","color":"#A6761D","confianza":"Baja","corr":0.85,"familia":"No convencionales","lat":-1.17343,"lon":-80.38736,"mae":0.33,"modelo":"NEMSSA","n":7,"nombre":"Portoviejo","rating":8.19,"region":"Litoral","rmse":0.4},{"bias":0.2,"codigo":"84179","color":"#D55E00","confianza":"Baja","corr":0.75,"familia":"No convencionales","lat":-1.5057,"lon":-77.956,"mae":0.3,"modelo":"METEOBLUE","n":7,"nombre":"Puyo","rating":8.16,"region":"Amazonia","rmse":0.46},{"bias":0.17,"codigo":"84151","color":"#D55E00","confianza":"Baja","corr":0.59,"familia":"No convencionales","lat":-1.057,"lon":-77.584,"mae":0.32,"modelo":"METEOBLUE","n":7,"nombre":"Jumandy","rating":8.07,"region":"Amazonia","rmse":0.4},{"bias":0.01,"codigo":"84063","color":"#648FFF","confianza":"Baja","corr":0.55,"familia":"No convencionales","lat":0.0925,"lon":-76.86944,"mae":0.42,"modelo":"UMGLOBAL10","n":7,"nombre":"Lago Agrio","rating":7.99,"region":"Amazonia","rmse":0.5},{"bias":0.12,"codigo":"84132","color":"#D55E00","confianza":"Baja","corr":0.49,"familia":"No convencionales","lat":-0.92003,"lon":-75.40303,"mae":0.31,"modelo":"METEOBLUE","n":7,"nombre":"N. Rocafu","rating":7.98,"region":"Amazonia","rmse":0.51},{"bias":0.07,"codigo":"84163","color":"#CC79A7","confianza":"Baja","corr":0.37,"familia":"No convencionales","lat":-1.5,"lon":-78.06667,"mae":0.35,"modelo":"GEM15","n":7,"nombre":"Pastaza","rating":7.94,"region":"Amazonia","rmse":0.42},{"bias":0.12,"codigo":"84099","color":"#D55E00","confianza":"Baja","corr":0.26,"familia":"No convencionales","lat":-0.46056,"lon":-76.98806,"mae":0.33,"modelo":"METEOBLUE","n":7,"nombre":"El Coca","rating":7.85,"region":"Amazonia","rmse":0.39},{"bias":-0.18,"codigo":"84050","color":"#E69F00","confianza":"Baja","corr":0.36,"familia":"No convencionales","lat":-0.02478,"lon":-79.38028,"mae":0.36,"modelo":"NEMSGLOBAL_E","n":7,"nombre":"La Concordia","rating":7.69,"region":"Litoral","rmse":0.48},{"bias":0.13,"codigo":"84200","color":"#785EF0","confianza":"Baja","corr":-0.07,"familia":"No convencionales","lat":-2.2,"lon":-80.98972,"mae":0.29,"modelo":"MFGLOBAL","n":7,"nombre":"Salinas","rating":7.66,"region":"Litoral","rmse":0.36},{"bias":0.11,"codigo":"84252","color":"#D55E00","confianza":"Baja","corr":0.66,"familia":"No convencionales","lat":-3.43583,"lon":-79.98333,"mae":0.51,"modelo":"METEOBLUE","n":7,"nombre":"Sta. Rosa","rating":7.53,"region":"Litoral","rmse":0.74},{"bias":-0.11,"codigo":"84018","color":"#00A9A5","confianza":"Baja","corr":0.63,"familia":"No convencionales","lat":0.97917,"lon":-79.62444,"mae":0.53,"modelo":"NEMSGLOBAL","n":7,"nombre":"Esmeraldas","rating":7.52,"region":"Litoral","rmse":0.67},{"bias":0.28,"codigo":"84123","color":"#D55E00","confianza":"Baja","corr":0.93,"familia":"No convencionales","lat":-0.91333,"lon":-78.61556,"mae":0.58,"modelo":"METEOBLUE","n":7,"nombre":"Latacunga","rating":7.52,"region":"Interandina","rmse":0.64},{"bias":0.07,"codigo":"84140","color":"#A6761D","confianza":"Baja","corr":0.39,"familia":"No convencionales","lat":-1.07434,"lon":-79.4929,"mae":0.5,"modelo":"NEMSSA","n":7,"nombre":"Pichilingue","rating":7.46,"region":"Litoral","rmse":0.63},{"bias":-0.31,"codigo":"84001","color":"#00A9A5","confianza":"Baja","corr":0.33,"familia":"No convencionales","lat":-0.445,"lon":-90.269,"mae":0.4,"modelo":"NEMSGLOBAL","n":7,"nombre":"Baltra","rating":7.42,"region":"Insular","rmse":0.49},{"bias":0.47,"codigo":"84203","color":"#D55E00","confianza":"Baja","corr":0.54,"familia":"No convencionales","lat":-2.15333,"lon":-79.88333,"mae":0.47,"modelo":"METEOBLUE","n":7,"nombre":"Guayaquil","rating":7.16,"region":"Litoral","rmse":0.64},{"bias":-0.42,"codigo":"84117","color":"#E69F00","confianza":"Baja","corr":0.2,"familia":"No convencionales","lat":-0.95,"lon":-80.68333,"mae":0.47,"modelo":"NEMSGLOBAL_E","n":7,"nombre":"Manta","rating":6.89,"region":"Litoral","rmse":0.66},{"bias":-0.42,"codigo":"84036","color":"#D55E00","confianza":"Baja","corr":0.65,"familia":"No convencionales","lat":0.60417,"lon":-77.81944,"mae":0.68,"modelo":"METEOBLUE","n":7,"nombre":"S. Gabriel","rating":6.78,"region":"Interandina","rmse":0.81},{"bias":0.38,"codigo":"84045","color":"#CC79A7","confianza":"Baja","corr":0.23,"familia":"No convencionales","lat":0.25694,"lon":-78.40524,"mae":0.59,"modelo":"GEM15","n":7,"nombre":"Inguincho","rating":6.66,"region":"Interandina","rmse":0.74},{"bias":-0.58,"codigo":"84239","color":"#D55E00","confianza":"Baja","corr":0.94,"familia":"No convencionales","lat":-2.88917,"lon":-78.98417,"mae":0.88,"modelo":"METEOBLUE","n":7,"nombre":"Cuenca","rating":6.41,"region":"Interandina","rmse":1.03},{"bias":-0.71,"codigo":"84253","color":"#E69F00","confianza":"Baja","corr":0.58,"familia":"No convencionales","lat":-3.42333,"lon":-78.56694,"mae":0.71,"modelo":"NEMSGLOBAL_E","n":7,"nombre":"Gualaquiza","rating":6.4,"region":"Amazonia","rmse":0.84},{"bias":0.78,"codigo":"84008","color":"#D55E00","confianza":"Baja","corr":0.67,"familia":"No convencionales","lat":-0.90406,"lon":-89.61431,"mae":0.78,"modelo":"METEOBLUE","n":7,"nombre":"S. Cristobal","rating":6.31,"region":"Insular","rmse":0.84},{"bias":-0.08,"codigo":"84160","color":"#785EF0","confianza":"Baja","corr":0.44,"familia":"No convencionales","lat":-1.3671,"lon":-78.60554,"mae":1.0,"modelo":"MFGLOBAL","n":7,"nombre":"Querochaca","rating":6.28,"region":"Interandina","rmse":1.16},{"bias":0.21,"codigo":"84010","color":"#648FFF","confianza":"Baja","corr":-0.8,"familia":"No convencionales","lat":-0.909,"lon":-89.617,"mae":0.51,"modelo":"UMGLOBAL10","n":7,"nombre":"S. Cristobal A","rating":6.22,"region":"Insular","rmse":0.58},{"bias":0.39,"codigo":"84173","color":"#785EF0","confianza":"Baja","corr":0.41,"familia":"No convencionales","lat":-1.65083,"lon":-78.68521,"mae":0.85,"modelo":"MFGLOBAL","n":7,"nombre":"ESPOCH","rating":5.97,"region":"Interandina","rmse":1.3},{"bias":-0.62,"codigo":"M1240","color":"#D55E00","confianza":"Baja","corr":0.85,"familia":"No convencionales","lat":0.32978,"lon":-78.1322,"mae":1.14,"modelo":"METEOBLUE","n":7,"nombre":"Ibarra","rating":5.8,"region":"Interandina","rmse":1.28},{"bias":-0.41,"codigo":"84088","color":"#D55E00","confianza":"Baja","corr":0.27,"familia":"No convencionales","lat":-0.36593,"lon":-78.55513,"mae":0.96,"modelo":"METEOBLUE","n":7,"nombre":"Izobamba","rating":5.72,"region":"Interandina","rmse":1.22},{"bias":-0.74,"codigo":"84226","color":"#D55E00","confianza":"Baja","corr":0.62,"familia":"No convencionales","lat":-2.55221,"lon":-78.94519,"mae":1.16,"modelo":"METEOBLUE","n":7,"nombre":"Ca\u00f1ar","rating":5.5,"region":"Interandina","rmse":1.27},{"bias":0.56,"codigo":"84075","color":"#A6761D","confianza":"Baja","corr":0.29,"familia":"No convencionales","lat":-0.14083,"lon":-78.353,"mae":1.32,"modelo":"NEMSSA","n":7,"nombre":"Tababela","rating":5.02,"region":"Interandina","rmse":1.51},{"bias":-1.34,"codigo":"84143","color":"#D55E00","confianza":"Baja","corr":0.76,"familia":"No convencionales","lat":-1.01998,"lon":-78.59456,"mae":1.52,"modelo":"METEOBLUE","n":7,"nombre":"Rumipamba","rating":4.72,"region":"Interandina","rmse":1.75},{"bias":-1.68,"codigo":"M0037","color":"#A6761D","confianza":"Baja","corr":0.82,"familia":"No convencionales","lat":-2.11805,"lon":-79.60038,"mae":1.68,"modelo":"NEMSSA","n":7,"nombre":"Milagro","rating":4.55,"region":"Litoral","rmse":1.77},{"bias":-0.96,"codigo":"84056","color":"#A6761D","confianza":"Baja","corr":0.79,"familia":"No convencionales","lat":0.01116,"lon":-78.25505,"mae":1.86,"modelo":"NEMSSA","n":7,"nombre":"Tomal\u00f3n","rating":4.38,"region":"Interandina","rmse":2.43},{"bias":-0.97,"codigo":"84076","color":"#D55E00","confianza":"Baja","corr":0.42,"familia":"No convencionales","lat":-0.23179,"lon":-78.37043,"mae":1.44,"modelo":"METEOBLUE","n":7,"nombre":"La Tola","rating":4.28,"region":"Interandina","rmse":2.59},{"bias":-1.72,"codigo":"84176","color":"#D55E00","confianza":"Baja","corr":0.45,"familia":"No convencionales","lat":-1.65333,"lon":-78.54889,"mae":1.72,"modelo":"METEOBLUE","n":7,"nombre":"Riobamba","rating":4.11,"region":"Interandina","rmse":1.94},{"bias":-1.22,"codigo":"84270","color":"#CC79A7","confianza":"Baja","corr":-0.04,"familia":"No convencionales","lat":-4.0375,"lon":-79.2034,"mae":1.46,"modelo":"GEM15","n":7,"nombre":"Loja Argelia","rating":4.09,"region":"Interandina","rmse":1.74},{"bias":-2.59,"codigo":"M0024","color":"#785EF0","confianza":"Baja","corr":0.61,"familia":"No convencionales","lat":-0.1783,"lon":-78.48773,"mae":2.59,"modelo":"MFGLOBAL","n":7,"nombre":"I\u00f1aquito","rating":3.41,"region":"Interandina","rmse":2.8},{"bias":-2.22,"codigo":"84147","color":"#A6761D","confianza":"Baja","corr":0.32,"familia":"No convencionales","lat":-1.21413,"lon":-78.57455,"mae":2.22,"modelo":"NEMSSA","n":7,"nombre":"Ambato","rating":3.4,"region":"Interandina","rmse":2.55},{"bias":-2.95,"codigo":"84265","color":"#D55E00","confianza":"Baja","corr":0.76,"familia":"No convencionales","lat":-3.99556,"lon":-79.37167,"mae":2.95,"modelo":"METEOBLUE","n":7,"nombre":"La Toma","rating":3.32,"region":"Interandina","rmse":3.22}],"metricas":{"calif_media":6.4,"estaciones":40,"mas_ganador":"METEOBLUE"},"modo":"continuous","ranking":[{"bias":-0.36,"color":"#D55E00","confianza":"Baja","corr":0.38,"estaciones":39,"familia":"No convencionales","mae":1.02,"modelo":"METEOBLUE","n":7,"rating":5.96,"rmse":1.21},{"bias":-0.05,"color":"#785EF0","confianza":"Baja","corr":0.19,"estaciones":39,"familia":"No convencionales","mae":1.55,"modelo":"MFGLOBAL","n":7,"rating":4.79,"rmse":1.76},{"bias":-1.24,"color":"#648FFF","confianza":"Baja","corr":0.24,"estaciones":40,"familia":"No convencionales","mae":1.73,"modelo":"UMGLOBAL10","n":7,"rating":4.64,"rmse":1.96},{"bias":-1.53,"color":"#A6761D","confianza":"Baja","corr":0.26,"estaciones":37,"familia":"No convencionales","mae":1.85,"modelo":"NEMSSA","n":7,"rating":4.62,"rmse":2.11},{"bias":-1.84,"color":"#CC79A7","confianza":"Baja","corr":0.29,"estaciones":40,"familia":"No convencionales","mae":2.06,"modelo":"GEM15","n":7,"rating":4.53,"rmse":2.28},{"bias":-1.8,"color":"#00A9A5","confianza":"Baja","corr":0.13,"estaciones":40,"familia":"No convencionales","mae":2.24,"modelo":"NEMSGLOBAL","n":7,"rating":4.27,"rmse":2.48},{"bias":-1.4,"color":"#E69F00","confianza":"Baja","corr":0.14,"estaciones":40,"familia":"No convencionales","mae":2.1,"modelo":"NEMSGLOBAL_E","n":7,"rating":4.09,"rmse":2.35},{"bias":-2.21,"color":"#B33DC6","confianza":"Baja","corr":0.19,"estaciones":36,"familia":"No convencionales","mae":2.36,"modelo":"SA01","n":7,"rating":3.73,"rmse":2.67}],"sintesis_region":[{"modelo":"METEOBLUE","region":"Amazonia"},{"modelo":"NEMSGLOBAL","region":"Insular"},{"modelo":"METEOBLUE","region":"Interandina"},{"modelo":"NEMSSA","region":"Litoral"}],"ventana":"7"}
