{"bloque":"tmin","bloques":[{"clave":"precip_det","etiqueta":"Precipitaci\u00f3n: detecci\u00f3n"},{"clave":"precip_cua","etiqueta":"Precipitaci\u00f3n: cuantificaci\u00f3n"},{"clave":"tmax","etiqueta":"Temperatura m\u00e1xima"},{"clave":"tmin","etiqueta":"Temperatura m\u00ednima"}],"estaciones":[{"codigo":"84099","nombre":"El Coca","region":"Amazonia"},{"codigo":"84253","nombre":"Gualaquiza","region":"Amazonia"},{"codigo":"84151","nombre":"Jumandy","region":"Amazonia"},{"codigo":"84063","nombre":"Lago Agrio","region":"Amazonia"},{"codigo":"84217","nombre":"Macas","region":"Amazonia"},{"codigo":"84132","nombre":"N. Rocafu","region":"Amazonia"},{"codigo":"84163","nombre":"Pastaza","region":"Amazonia"},{"codigo":"84179","nombre":"Puyo","region":"Amazonia"},{"codigo":"84001","nombre":"Baltra","region":"Insular"},{"codigo":"84008","nombre":"S. Cristobal","region":"Insular"},{"codigo":"84010","nombre":"S. Cristobal A","region":"Insular"},{"codigo":"84147","nombre":"Ambato","region":"Interandina"},{"codigo":"84226","nombre":"Ca\u00f1ar","region":"Interandina"},{"codigo":"84239","nombre":"Cuenca","region":"Interandina"},{"codigo":"84173","nombre":"ESPOCH","region":"Interandina"},{"codigo":"M1240","nombre":"Ibarra","region":"Interandina"},{"codigo":"84045","nombre":"Inguincho","region":"Interandina"},{"codigo":"84088","nombre":"Izobamba","region":"Interandina"},{"codigo":"M0024","nombre":"I\u00f1aquito","region":"Interandina"},{"codigo":"84076","nombre":"La Tola","region":"Interandina"},{"codigo":"84265","nombre":"La Toma","region":"Interandina"},{"codigo":"84123","nombre":"Latacunga","region":"Interandina"},{"codigo":"84270","nombre":"Loja Argelia","region":"Interandina"},{"codigo":"84160","nombre":"Querochaca","region":"Interandina"},{"codigo":"84176","nombre":"Riobamba","region":"Interandina"},{"codigo":"84143","nombre":"Rumipamba","region":"Interandina"},{"codigo":"84036","nombre":"S. Gabriel","region":"Interandina"},{"codigo":"84075","nombre":"Tababela","region":"Interandina"},{"codigo":"84056","nombre":"Tomal\u00f3n","region":"Interandina"},{"codigo":"84027","nombre":"Tulc\u00e1n","region":"Interandina"},{"codigo":"84018","nombre":"Esmeraldas","region":"Litoral"},{"codigo":"84203","nombre":"Guayaquil","region":"Litoral"},{"codigo":"84050","nombre":"La Concordia","region":"Litoral"},{"codigo":"84117","nombre":"Manta","region":"Litoral"},{"codigo":"M0037","nombre":"Milagro","region":"Litoral"},{"codigo":"84140","nombre":"Pichilingue","region":"Litoral"},{"codigo":"84135","nombre":"Portoviejo","region":"Litoral"},{"codigo":"84105","nombre":"Puerto Ila","region":"Litoral"},{"codigo":"84200","nombre":"Salinas","region":"Litoral"},{"codigo":"84252","nombre":"Sta. Rosa","region":"Litoral"}],"familia":"Postprocesamiento","ganadores":[{"bias":-0.06,"codigo":"84200","color":"#0B6E4F","confianza":"Alta","corr":0.58,"familia":"Postprocesamiento","lat":-2.2,"lon":-80.98972,"mae":0.23,"modelo":"CONSENSO_OP_TOP5","n":30,"nombre":"Salinas","rating":8.58,"region":"Litoral","rmse":0.28},{"bias":0.04,"codigo":"84132","color":"#111111","confianza":"Alta","corr":0.66,"familia":"Postprocesamiento","lat":-0.92003,"lon":-75.40303,"mae":0.33,"modelo":"BEST_OP_CV","n":30,"nombre":"N. Rocafu","rating":8.25,"region":"Amazonia","rmse":0.46},{"bias":0.23,"codigo":"84010","color":"#0B6E4F","confianza":"Alta","corr":0.58,"familia":"Postprocesamiento","lat":-0.909,"lon":-89.617,"mae":0.32,"modelo":"CONSENSO_OP_TOP5","n":30,"nombre":"S. Cristobal A","rating":8.02,"region":"Insular","rmse":0.39},{"bias":-0.12,"codigo":"84001","color":"#8A2BE2","confianza":"Alta","corr":0.72,"familia":"Postprocesamiento","lat":-0.445,"lon":-90.269,"mae":0.47,"modelo":"ENS_MEAN","n":30,"nombre":"Baltra","rating":7.8,"region":"Insular","rmse":0.56},{"bias":-0.04,"codigo":"84151","color":"#0B6E4F","confianza":"Alta","corr":0.59,"familia":"Postprocesamiento","lat":-1.057,"lon":-77.584,"mae":0.46,"modelo":"CONSENSO_OP_TOP5","n":30,"nombre":"Jumandy","rating":7.76,"region":"Amazonia","rmse":0.63},{"bias":0.05,"codigo":"84008","color":"#0B6E4F","confianza":"Alta","corr":0.21,"familia":"Postprocesamiento","lat":-0.90406,"lon":-89.61431,"mae":0.4,"modelo":"CONSENSO_OP_TOP5","n":30,"nombre":"S. Cristobal","rating":7.67,"region":"Insular","rmse":0.49},{"bias":-0.12,"codigo":"84203","color":"#A65628","confianza":"Alta","corr":0.56,"familia":"Postprocesamiento","lat":-2.15333,"lon":-79.88333,"mae":0.43,"modelo":"BC_CLASSIC_METEOBLUE","n":30,"nombre":"Guayaquil","rating":7.64,"region":"Litoral","rmse":0.66},{"bias":0.02,"codigo":"84135","color":"#377EB8","confianza":"Alta","corr":0.5,"familia":"Postprocesamiento","lat":-1.17343,"lon":-80.38736,"mae":0.55,"modelo":"BC_CLASSIC_IFSHRES","n":30,"nombre":"Portoviejo","rating":7.5,"region":"Litoral","rmse":0.67},{"bias":-0.21,"codigo":"84105","color":"#7570B3","confianza":"Alta","corr":0.54,"familia":"Postprocesamiento","lat":-0.493,"lon":-79.34892,"mae":0.51,"modelo":"BC_CLASSIC_ICON","n":30,"nombre":"Puerto Ila","rating":7.4,"region":"Litoral","rmse":0.61},{"bias":0.09,"codigo":"84050","color":"#B33DC6","confianza":"Alta","corr":0.34,"familia":"Postprocesamiento","lat":-0.02478,"lon":-79.38028,"mae":0.49,"modelo":"BC_CLASSIC_AIFS025","n":30,"nombre":"La Concordia","rating":7.37,"region":"Litoral","rmse":0.66},{"bias":-0.24,"codigo":"84252","color":"#A65628","confianza":"Alta","corr":0.7,"familia":"Postprocesamiento","lat":-3.43583,"lon":-79.98333,"mae":0.58,"modelo":"BC_CLASSIC_METEOBLUE","n":30,"nombre":"Sta. Rosa","rating":7.31,"region":"Litoral","rmse":0.68},{"bias":0.14,"codigo":"84140","color":"#8A2BE2","confianza":"Alta","corr":0.46,"familia":"Postprocesamiento","lat":-1.07434,"lon":-79.4929,"mae":0.58,"modelo":"ENS_MEAN","n":30,"nombre":"Pichilingue","rating":7.21,"region":"Litoral","rmse":0.71},{"bias":-0.18,"codigo":"84117","color":"#A65628","confianza":"Alta","corr":0.45,"familia":"Postprocesamiento","lat":-0.95,"lon":-80.68333,"mae":0.54,"modelo":"BC_CLASSIC_METEOBLUE","n":30,"nombre":"Manta","rating":7.1,"region":"Litoral","rmse":0.82},{"bias":-0.1,"codigo":"84217","color":"#B33DC6","confianza":"Alta","corr":0.42,"familia":"Postprocesamiento","lat":-2.29861,"lon":-78.12056,"mae":0.63,"modelo":"BC_CLASSIC_AIFS025","n":30,"nombre":"Macas","rating":7.03,"region":"Amazonia","rmse":0.82},{"bias":-0.03,"codigo":"84123","color":"#1F78B4","confianza":"Alta","corr":0.81,"familia":"Postprocesamiento","lat":-0.91333,"lon":-78.61556,"mae":0.86,"modelo":"QM_METEOBLUE","n":30,"nombre":"Latacunga","rating":6.97,"region":"Interandina","rmse":1.04},{"bias":-0.07,"codigo":"84179","color":"#8A2BE2","confianza":"Alta","corr":0.6,"familia":"Postprocesamiento","lat":-1.5057,"lon":-77.956,"mae":0.78,"modelo":"ENS_MEAN","n":30,"nombre":"Puyo","rating":6.87,"region":"Amazonia","rmse":0.98},{"bias":-0.16,"codigo":"84163","color":"#17A398","confianza":"Alta","corr":0.32,"familia":"Postprocesamiento","lat":-1.5,"lon":-78.06667,"mae":0.64,"modelo":"ENS_MEDIAN","n":30,"nombre":"Pastaza","rating":6.86,"region":"Amazonia","rmse":0.81},{"bias":0.13,"codigo":"84239","color":"#1F78B4","confianza":"Alta","corr":0.79,"familia":"Postprocesamiento","lat":-2.88917,"lon":-78.98417,"mae":0.84,"modelo":"QM_METEOBLUE","n":30,"nombre":"Cuenca","rating":6.82,"region":"Interandina","rmse":1.04},{"bias":-0.05,"codigo":"84045","color":"#0B6E4F","confianza":"Alta","corr":0.33,"familia":"Postprocesamiento","lat":0.25694,"lon":-78.40524,"mae":0.74,"modelo":"CONSENSO_OP_TOP5","n":30,"nombre":"Inguincho","rating":6.75,"region":"Interandina","rmse":0.95},{"bias":-0.08,"codigo":"84253","color":"#0B6E4F","confianza":"Alta","corr":0.14,"familia":"Postprocesamiento","lat":-3.42333,"lon":-78.56694,"mae":0.65,"modelo":"CONSENSO_OP_TOP5","n":30,"nombre":"Gualaquiza","rating":6.73,"region":"Amazonia","rmse":0.86},{"bias":-0.0,"codigo":"84226","color":"#0B6E4F","confianza":"Alta","corr":0.64,"familia":"Postprocesamiento","lat":-2.55221,"lon":-78.94519,"mae":0.92,"modelo":"CONSENSO_OP_TOP5","n":30,"nombre":"Ca\u00f1ar","rating":6.67,"region":"Interandina","rmse":1.18},{"bias":-0.2,"codigo":"84018","color":"#0B6E4F","confianza":"Alta","corr":-0.02,"familia":"Postprocesamiento","lat":0.97917,"lon":-79.62444,"mae":0.64,"modelo":"CONSENSO_OP_TOP5","n":30,"nombre":"Esmeraldas","rating":6.53,"region":"Litoral","rmse":0.76},{"bias":-0.13,"codigo":"84063","color":"#B2DF8A","confianza":"Alta","corr":0.29,"familia":"Postprocesamiento","lat":0.0925,"lon":-76.86944,"mae":0.75,"modelo":"QM_IFS025","n":30,"nombre":"Lago Agrio","rating":6.46,"region":"Amazonia","rmse":1.1},{"bias":0.38,"codigo":"84075","color":"#111111","confianza":"Alta","corr":0.75,"familia":"Postprocesamiento","lat":-0.14083,"lon":-78.353,"mae":0.82,"modelo":"BEST_OP_CV","n":30,"nombre":"Tababela","rating":6.39,"region":"Interandina","rmse":1.21},{"bias":-0.24,"codigo":"84099","color":"#111111","confianza":"Alta","corr":-0.0,"familia":"Postprocesamiento","lat":-0.46056,"lon":-76.98806,"mae":0.69,"modelo":"BEST_OP_CV","n":30,"nombre":"El Coca","rating":6.34,"region":"Amazonia","rmse":0.83},{"bias":0.14,"codigo":"84076","color":"#17A398","confianza":"Alta","corr":0.72,"familia":"Postprocesamiento","lat":-0.23179,"lon":-78.37043,"mae":1.06,"modelo":"ENS_MEDIAN","n":30,"nombre":"La Tola","rating":6.29,"region":"Interandina","rmse":1.3},{"bias":-0.16,"codigo":"84088","color":"#7570B3","confianza":"Alta","corr":0.66,"familia":"Postprocesamiento","lat":-0.36593,"lon":-78.55513,"mae":1.0,"modelo":"BC_CLASSIC_ICON","n":30,"nombre":"Izobamba","rating":6.29,"region":"Interandina","rmse":1.27},{"bias":-0.04,"codigo":"84027","color":"#A65628","confianza":"Alta","corr":0.65,"familia":"Postprocesamiento","lat":0.81667,"lon":-77.7,"mae":1.07,"modelo":"BC_CLASSIC_METEOBLUE","n":30,"nombre":"Tulc\u00e1n","rating":6.29,"region":"Interandina","rmse":1.4},{"bias":-0.03,"codigo":"84036","color":"#1F78B4","confianza":"Alta","corr":0.67,"familia":"Postprocesamiento","lat":0.60417,"lon":-77.81944,"mae":1.21,"modelo":"QM_METEOBLUE","n":30,"nombre":"S. Gabriel","rating":6.1,"region":"Interandina","rmse":1.51},{"bias":-0.25,"codigo":"84147","color":"#111111","confianza":"Alta","corr":0.3,"familia":"Postprocesamiento","lat":-1.21413,"lon":-78.57455,"mae":0.99,"modelo":"BEST_OP_CV","n":30,"nombre":"Ambato","rating":5.82,"region":"Interandina","rmse":1.34},{"bias":-0.0,"codigo":"M1240","color":"#0B6E4F","confianza":"Alta","corr":0.37,"familia":"Postprocesamiento","lat":0.32978,"lon":-78.1322,"mae":1.28,"modelo":"CONSENSO_OP_TOP5","n":30,"nombre":"Ibarra","rating":5.8,"region":"Interandina","rmse":1.51},{"bias":-0.02,"codigo":"84160","color":"#B33DC6","confianza":"Alta","corr":0.44,"familia":"Postprocesamiento","lat":-1.3671,"lon":-78.60554,"mae":1.35,"modelo":"BC_CLASSIC_AIFS025","n":30,"nombre":"Querochaca","rating":5.66,"region":"Interandina","rmse":1.7},{"bias":0.06,"codigo":"M0024","color":"#377EB8","confianza":"Alta","corr":0.46,"familia":"Postprocesamiento","lat":-0.1783,"lon":-78.48773,"mae":1.3,"modelo":"BC_CLASSIC_IFSHRES","n":30,"nombre":"I\u00f1aquito","rating":5.65,"region":"Interandina","rmse":1.74},{"bias":-0.32,"codigo":"84173","color":"#111111","confianza":"Alta","corr":0.41,"familia":"Postprocesamiento","lat":-1.65083,"lon":-78.68521,"mae":1.11,"modelo":"BEST_OP_CV","n":30,"nombre":"ESPOCH","rating":5.6,"region":"Interandina","rmse":1.46},{"bias":0.03,"codigo":"84143","color":"#1B9E77","confianza":"Alta","corr":0.15,"familia":"Postprocesamiento","lat":-1.01998,"lon":-78.59456,"mae":1.19,"modelo":"BC_CLASSIC_IFS025","n":30,"nombre":"Rumipamba","rating":5.55,"region":"Interandina","rmse":1.68},{"bias":-0.02,"codigo":"84176","color":"#377EB8","confianza":"Alta","corr":0.23,"familia":"Postprocesamiento","lat":-1.65333,"lon":-78.54889,"mae":1.35,"modelo":"BC_CLASSIC_IFSHRES","n":30,"nombre":"Riobamba","rating":5.38,"region":"Interandina","rmse":1.9},{"bias":-0.19,"codigo":"84265","color":"#111111","confianza":"Alta","corr":0.55,"familia":"Postprocesamiento","lat":-3.99556,"lon":-79.37167,"mae":1.49,"modelo":"BEST_OP_CV","n":30,"nombre":"La Toma","rating":5.26,"region":"Interandina","rmse":1.97},{"bias":-0.05,"codigo":"84270","color":"#1B9E77","confianza":"Alta","corr":0.46,"familia":"Postprocesamiento","lat":-4.0375,"lon":-79.2034,"mae":1.63,"modelo":"BC_CLASSIC_IFS025","n":30,"nombre":"Loja Argelia","rating":5.2,"region":"Interandina","rmse":2.13},{"bias":0.16,"codigo":"84056","color":"#A65628","confianza":"Alta","corr":0.58,"familia":"Postprocesamiento","lat":0.01116,"lon":-78.25505,"mae":1.86,"modelo":"BC_CLASSIC_METEOBLUE","n":30,"nombre":"Tomal\u00f3n","rating":4.96,"region":"Interandina","rmse":2.24},{"bias":-1.79,"codigo":"M0037","color":"#7570B3","confianza":"Media","corr":0.63,"familia":"Postprocesamiento","lat":-2.11805,"lon":-79.60038,"mae":1.8,"modelo":"BC_CLASSIC_ICON","n":23,"nombre":"Milagro","rating":4.16,"region":"Litoral","rmse":2.03}],"metricas":{"calif_media":6.6,"estaciones":40,"mas_ganador":"CONSENSO_OP_TOP5"},"modo":"continuous","ranking":[{"bias":-0.08,"color":"#111111","confianza":"Alta","corr":0.41,"estaciones":40,"familia":"Postprocesamiento","mae":0.92,"modelo":"BEST_OP_CV","n":30,"rating":6.3,"rmse":1.18},{"bias":-0.06,"color":"#0B6E4F","confianza":"Alta","corr":0.38,"estaciones":40,"familia":"Postprocesamiento","mae":0.93,"modelo":"CONSENSO_OP_TOP5","n":30,"rating":6.28,"rmse":1.17},{"bias":-0.17,"color":"#A65628","confianza":"Alta","corr":0.38,"estaciones":40,"familia":"Postprocesamiento","mae":0.99,"modelo":"BC_CLASSIC_METEOBLUE","n":30,"rating":6.09,"rmse":1.25},{"bias":0.07,"color":"#377EB8","confianza":"Alta","corr":0.34,"estaciones":40,"familia":"Postprocesamiento","mae":1.1,"modelo":"BC_CLASSIC_IFSHRES","n":30,"rating":5.82,"rmse":1.36},{"bias":-0.15,"color":"#7570B3","confianza":"Alta","corr":0.3,"estaciones":40,"familia":"Postprocesamiento","mae":1.12,"modelo":"BC_CLASSIC_ICON","n":30,"rating":5.72,"rmse":1.4},{"bias":-0.0,"color":"#B33DC6","confianza":"Alta","corr":0.24,"estaciones":40,"familia":"Postprocesamiento","mae":1.1,"modelo":"BC_CLASSIC_AIFS025","n":30,"rating":5.71,"rmse":1.38},{"bias":-0.37,"color":"#1F78B4","confianza":"Alta","corr":0.44,"estaciones":40,"familia":"Postprocesamiento","mae":1.15,"modelo":"QM_METEOBLUE","n":30,"rating":5.64,"rmse":1.4},{"bias":0.05,"color":"#1B9E77","confianza":"Alta","corr":0.25,"estaciones":40,"familia":"Postprocesamiento","mae":1.17,"modelo":"BC_CLASSIC_IFS025","n":30,"rating":5.55,"rmse":1.48},{"bias":-0.21,"color":"#E7298A","confianza":"Alta","corr":0.23,"estaciones":40,"familia":"Postprocesamiento","mae":1.17,"modelo":"BC_CLASSIC_GFS05","n":30,"rating":5.47,"rmse":1.47},{"bias":-0.67,"color":"#17A398","confianza":"Alta","corr":0.52,"estaciones":40,"familia":"Postprocesamiento","mae":1.29,"modelo":"ENS_MEDIAN","n":30,"rating":5.43,"rmse":1.5},{"bias":-0.78,"color":"#8A2BE2","confianza":"Alta","corr":0.54,"estaciones":40,"familia":"Postprocesamiento","mae":1.33,"modelo":"ENS_MEAN","n":30,"rating":5.39,"rmse":1.52},{"bias":0.22,"color":"#CC79A7","confianza":"Alta","corr":0.37,"estaciones":40,"familia":"Postprocesamiento","mae":1.31,"modelo":"QM_IFSHRES","n":30,"rating":5.31,"rmse":1.57},{"bias":-0.13,"color":"#A6761D","confianza":"Alta","corr":0.17,"estaciones":40,"familia":"Postprocesamiento","mae":1.22,"modelo":"EMOS_GAUSS","n":30,"rating":5.25,"rmse":1.47},{"bias":-0.25,"color":"#FB9A99","confianza":"Alta","corr":0.34,"estaciones":40,"familia":"Postprocesamiento","mae":1.5,"modelo":"QM_ICON","n":30,"rating":5.08,"rmse":1.76},{"bias":-0.07,"color":"#009E73","confianza":"Alta","corr":0.31,"estaciones":40,"familia":"Postprocesamiento","mae":1.52,"modelo":"QM_AIFS025","n":30,"rating":5.01,"rmse":1.78},{"bias":-0.48,"color":"#FDBF6F","confianza":"Alta","corr":0.3,"estaciones":40,"familia":"Postprocesamiento","mae":1.62,"modelo":"QM_GFS05","n":30,"rating":4.74,"rmse":1.9},{"bias":0.08,"color":"#B2DF8A","confianza":"Alta","corr":0.27,"estaciones":40,"familia":"Postprocesamiento","mae":1.68,"modelo":"QM_IFS025","n":30,"rating":4.73,"rmse":1.96},{"bias":0.33,"color":"#DC267F","confianza":"Media","corr":0.06,"estaciones":40,"familia":"Postprocesamiento","mae":5.95,"modelo":"NGR","n":25,"rating":2.23,"rmse":6.16}],"sintesis_region":[{"modelo":"BEST_OP_CV","region":"Amazonia"},{"modelo":"CONSENSO_OP_TOP5","region":"Insular"},{"modelo":"BEST_OP_CV","region":"Interandina"},{"modelo":"BC_CLASSIC_METEOBLUE","region":"Litoral"}],"ventana":"30"}
