{"bloque":"tmin","bloques":[{"clave":"precip_det","etiqueta":"Precipitaci\u00f3n: detecci\u00f3n"},{"clave":"precip_cua","etiqueta":"Precipitaci\u00f3n: cuantificaci\u00f3n"},{"clave":"tmax","etiqueta":"Temperatura m\u00e1xima"},{"clave":"tmin","etiqueta":"Temperatura m\u00ednima"}],"estaciones":[{"codigo":"84099","nombre":"El Coca","region":"Amazonia"},{"codigo":"84253","nombre":"Gualaquiza","region":"Amazonia"},{"codigo":"84151","nombre":"Jumandy","region":"Amazonia"},{"codigo":"84063","nombre":"Lago Agrio","region":"Amazonia"},{"codigo":"84217","nombre":"Macas","region":"Amazonia"},{"codigo":"84132","nombre":"N. Rocafu","region":"Amazonia"},{"codigo":"84163","nombre":"Pastaza","region":"Amazonia"},{"codigo":"84179","nombre":"Puyo","region":"Amazonia"},{"codigo":"84001","nombre":"Baltra","region":"Insular"},{"codigo":"84008","nombre":"S. Cristobal","region":"Insular"},{"codigo":"84010","nombre":"S. Cristobal A","region":"Insular"},{"codigo":"84147","nombre":"Ambato","region":"Interandina"},{"codigo":"84226","nombre":"Ca\u00f1ar","region":"Interandina"},{"codigo":"84239","nombre":"Cuenca","region":"Interandina"},{"codigo":"84173","nombre":"ESPOCH","region":"Interandina"},{"codigo":"M1240","nombre":"Ibarra","region":"Interandina"},{"codigo":"84045","nombre":"Inguincho","region":"Interandina"},{"codigo":"84088","nombre":"Izobamba","region":"Interandina"},{"codigo":"M0024","nombre":"I\u00f1aquito","region":"Interandina"},{"codigo":"84076","nombre":"La Tola","region":"Interandina"},{"codigo":"84265","nombre":"La Toma","region":"Interandina"},{"codigo":"84123","nombre":"Latacunga","region":"Interandina"},{"codigo":"84270","nombre":"Loja Argelia","region":"Interandina"},{"codigo":"84160","nombre":"Querochaca","region":"Interandina"},{"codigo":"84176","nombre":"Riobamba","region":"Interandina"},{"codigo":"84143","nombre":"Rumipamba","region":"Interandina"},{"codigo":"84036","nombre":"S. Gabriel","region":"Interandina"},{"codigo":"84075","nombre":"Tababela","region":"Interandina"},{"codigo":"84056","nombre":"Tomal\u00f3n","region":"Interandina"},{"codigo":"84027","nombre":"Tulc\u00e1n","region":"Interandina"},{"codigo":"84018","nombre":"Esmeraldas","region":"Litoral"},{"codigo":"84203","nombre":"Guayaquil","region":"Litoral"},{"codigo":"84050","nombre":"La Concordia","region":"Litoral"},{"codigo":"84117","nombre":"Manta","region":"Litoral"},{"codigo":"M0037","nombre":"Milagro","region":"Litoral"},{"codigo":"84140","nombre":"Pichilingue","region":"Litoral"},{"codigo":"84135","nombre":"Portoviejo","region":"Litoral"},{"codigo":"84105","nombre":"Puerto Ila","region":"Litoral"},{"codigo":"84200","nombre":"Salinas","region":"Litoral"},{"codigo":"84252","nombre":"Sta. Rosa","region":"Litoral"}],"familia":"Postprocesamiento","ganadores":[{"bias":-0.14,"codigo":"84200","color":"#17A398","confianza":"Media","corr":0.79,"familia":"Postprocesamiento","lat":-2.2,"lon":-80.98972,"mae":0.26,"modelo":"ENS_MEDIAN","n":15,"nombre":"Salinas","rating":8.51,"region":"Litoral","rmse":0.33},{"bias":0.03,"codigo":"84132","color":"#7570B3","confianza":"Media","corr":0.68,"familia":"Postprocesamiento","lat":-0.92003,"lon":-75.40303,"mae":0.3,"modelo":"BC_CLASSIC_ICON","n":15,"nombre":"N. Rocafu","rating":8.37,"region":"Amazonia","rmse":0.43},{"bias":-0.0,"codigo":"84151","color":"#A65628","confianza":"Media","corr":0.51,"familia":"Postprocesamiento","lat":-1.057,"lon":-77.584,"mae":0.35,"modelo":"BC_CLASSIC_METEOBLUE","n":15,"nombre":"Jumandy","rating":8.17,"region":"Amazonia","rmse":0.44},{"bias":-0.05,"codigo":"84163","color":"#0B6E4F","confianza":"Media","corr":0.65,"familia":"Postprocesamiento","lat":-1.5,"lon":-78.06667,"mae":0.36,"modelo":"CONSENSO_OP_TOP5","n":15,"nombre":"Pastaza","rating":8.07,"region":"Amazonia","rmse":0.55},{"bias":-0.2,"codigo":"84001","color":"#1B9E77","confianza":"Media","corr":0.76,"familia":"Postprocesamiento","lat":-0.445,"lon":-90.269,"mae":0.39,"modelo":"BC_CLASSIC_IFS025","n":15,"nombre":"Baltra","rating":7.99,"region":"Insular","rmse":0.47},{"bias":0.21,"codigo":"84135","color":"#FB9A99","confianza":"Media","corr":0.64,"familia":"Postprocesamiento","lat":-1.17343,"lon":-80.38736,"mae":0.43,"modelo":"QM_ICON","n":15,"nombre":"Portoviejo","rating":7.71,"region":"Litoral","rmse":0.53},{"bias":0.31,"codigo":"84010","color":"#7570B3","confianza":"Media","corr":0.49,"familia":"Postprocesamiento","lat":-0.909,"lon":-89.617,"mae":0.36,"modelo":"BC_CLASSIC_ICON","n":15,"nombre":"S. Cristobal A","rating":7.71,"region":"Insular","rmse":0.42},{"bias":0.18,"codigo":"84008","color":"#1F78B4","confianza":"Media","corr":0.49,"familia":"Postprocesamiento","lat":-0.90406,"lon":-89.61431,"mae":0.42,"modelo":"QM_METEOBLUE","n":15,"nombre":"S. Cristobal","rating":7.66,"region":"Insular","rmse":0.5},{"bias":-0.04,"codigo":"84105","color":"#E7298A","confianza":"Media","corr":0.38,"familia":"Postprocesamiento","lat":-0.493,"lon":-79.34892,"mae":0.48,"modelo":"BC_CLASSIC_GFS05","n":15,"nombre":"Puerto Ila","rating":7.64,"region":"Litoral","rmse":0.53},{"bias":-0.06,"codigo":"84252","color":"#1F78B4","confianza":"Media","corr":0.74,"familia":"Postprocesamiento","lat":-3.43583,"lon":-79.98333,"mae":0.61,"modelo":"QM_METEOBLUE","n":15,"nombre":"Sta. Rosa","rating":7.52,"region":"Litoral","rmse":0.71},{"bias":0.22,"codigo":"84050","color":"#FDBF6F","confianza":"Media","corr":0.38,"familia":"Postprocesamiento","lat":-0.02478,"lon":-79.38028,"mae":0.51,"modelo":"QM_GFS05","n":15,"nombre":"La Concordia","rating":7.13,"region":"Litoral","rmse":0.71},{"bias":0.01,"codigo":"84179","color":"#00A9A5","confianza":"Media","corr":0.61,"familia":"Postprocesamiento","lat":-1.5057,"lon":-77.956,"mae":0.72,"modelo":"BC_CLASSIC_IFSHRES","n":15,"nombre":"Puyo","rating":7.13,"region":"Amazonia","rmse":0.9},{"bias":-0.01,"codigo":"84140","color":"#E7298A","confianza":"Media","corr":0.1,"familia":"Postprocesamiento","lat":-1.07434,"lon":-79.4929,"mae":0.56,"modelo":"BC_CLASSIC_GFS05","n":15,"nombre":"Pichilingue","rating":7.08,"region":"Litoral","rmse":0.73},{"bias":0.19,"codigo":"84075","color":"#A65628","confianza":"Media","corr":0.82,"familia":"Postprocesamiento","lat":-0.14083,"lon":-78.353,"mae":0.71,"modelo":"BC_CLASSIC_METEOBLUE","n":15,"nombre":"Tababela","rating":7.06,"region":"Interandina","rmse":0.91},{"bias":0.13,"codigo":"84117","color":"#111111","confianza":"Media","corr":0.37,"familia":"Postprocesamiento","lat":-0.95,"lon":-80.68333,"mae":0.56,"modelo":"BEST_OP_CV","n":15,"nombre":"Manta","rating":7.03,"region":"Litoral","rmse":0.87},{"bias":0.03,"codigo":"84203","color":"#111111","confianza":"Media","corr":-0.14,"familia":"Postprocesamiento","lat":-2.15333,"lon":-79.88333,"mae":0.52,"modelo":"BEST_OP_CV","n":15,"nombre":"Guayaquil","rating":6.85,"region":"Litoral","rmse":0.8},{"bias":0.14,"codigo":"84045","color":"#00A9A5","confianza":"Media","corr":0.31,"familia":"Postprocesamiento","lat":0.25694,"lon":-78.40524,"mae":0.63,"modelo":"QM_AIFS025","n":15,"nombre":"Inguincho","rating":6.84,"region":"Interandina","rmse":0.86},{"bias":-0.25,"codigo":"84063","color":"#1B9E77","confianza":"Media","corr":0.65,"familia":"Postprocesamiento","lat":0.0925,"lon":-76.86944,"mae":0.78,"modelo":"BC_CLASSIC_IFS025","n":15,"nombre":"Lago Agrio","rating":6.68,"region":"Amazonia","rmse":0.96},{"bias":-0.11,"codigo":"84099","color":"#0B6E4F","confianza":"Media","corr":0.1,"familia":"Postprocesamiento","lat":-0.46056,"lon":-76.98806,"mae":0.67,"modelo":"CONSENSO_OP_TOP5","n":15,"nombre":"El Coca","rating":6.63,"region":"Amazonia","rmse":0.86},{"bias":0.0,"codigo":"M1240","color":"#FB9A99","confianza":"Media","corr":0.63,"familia":"Postprocesamiento","lat":0.32978,"lon":-78.1322,"mae":0.95,"modelo":"QM_ICON","n":15,"nombre":"Ibarra","rating":6.59,"region":"Interandina","rmse":1.22},{"bias":-0.15,"codigo":"84217","color":"#785EF0","confianza":"Media","corr":0.24,"familia":"Postprocesamiento","lat":-2.29861,"lon":-78.12056,"mae":0.72,"modelo":"BC_CLASSIC_AIFS025","n":15,"nombre":"Macas","rating":6.53,"region":"Amazonia","rmse":0.97},{"bias":0.02,"codigo":"84239","color":"#1F78B4","confianza":"Media","corr":0.57,"familia":"Postprocesamiento","lat":-2.88917,"lon":-78.98417,"mae":1.02,"modelo":"QM_METEOBLUE","n":15,"nombre":"Cuenca","rating":6.35,"region":"Interandina","rmse":1.33},{"bias":-0.46,"codigo":"84018","color":"#111111","confianza":"Media","corr":0.22,"familia":"Postprocesamiento","lat":0.97917,"lon":-79.62444,"mae":0.72,"modelo":"BEST_OP_CV","n":15,"nombre":"Esmeraldas","rating":6.29,"region":"Litoral","rmse":0.81},{"bias":-0.41,"codigo":"84088","color":"#FB9A99","confianza":"Media","corr":0.73,"familia":"Postprocesamiento","lat":-0.36593,"lon":-78.55513,"mae":0.94,"modelo":"QM_ICON","n":15,"nombre":"Izobamba","rating":6.23,"region":"Interandina","rmse":1.12},{"bias":-0.13,"codigo":"84036","color":"#111111","confianza":"Media","corr":0.71,"familia":"Postprocesamiento","lat":0.60417,"lon":-77.81944,"mae":1.11,"modelo":"BEST_OP_CV","n":15,"nombre":"S. Gabriel","rating":6.22,"region":"Interandina","rmse":1.3},{"bias":-0.08,"codigo":"84253","color":"#0B6E4F","confianza":"Media","corr":-0.11,"familia":"Postprocesamiento","lat":-3.42333,"lon":-78.56694,"mae":0.77,"modelo":"CONSENSO_OP_TOP5","n":15,"nombre":"Gualaquiza","rating":6.15,"region":"Amazonia","rmse":1.08},{"bias":0.43,"codigo":"84123","color":"#00A9A5","confianza":"Media","corr":0.71,"familia":"Postprocesamiento","lat":-0.91333,"lon":-78.61556,"mae":0.97,"modelo":"BC_CLASSIC_IFSHRES","n":15,"nombre":"Latacunga","rating":6.02,"region":"Interandina","rmse":1.32},{"bias":-0.15,"codigo":"84076","color":"#1F78B4","confianza":"Media","corr":0.67,"familia":"Postprocesamiento","lat":-0.23179,"lon":-78.37043,"mae":1.04,"modelo":"QM_METEOBLUE","n":15,"nombre":"La Tola","rating":6.0,"region":"Interandina","rmse":1.71},{"bias":-0.02,"codigo":"84160","color":"#1F78B4","confianza":"Media","corr":0.66,"familia":"Postprocesamiento","lat":-1.3671,"lon":-78.60554,"mae":1.28,"modelo":"QM_METEOBLUE","n":15,"nombre":"Querochaca","rating":5.93,"region":"Interandina","rmse":1.7},{"bias":-0.29,"codigo":"84173","color":"#A65628","confianza":"Media","corr":0.36,"familia":"Postprocesamiento","lat":-1.65083,"lon":-78.68521,"mae":0.99,"modelo":"BC_CLASSIC_METEOBLUE","n":15,"nombre":"ESPOCH","rating":5.91,"region":"Interandina","rmse":1.2},{"bias":-0.12,"codigo":"84027","color":"#0B6E4F","confianza":"Media","corr":0.52,"familia":"Postprocesamiento","lat":0.81667,"lon":-77.7,"mae":1.19,"modelo":"CONSENSO_OP_TOP5","n":15,"nombre":"Tulc\u00e1n","rating":5.84,"region":"Interandina","rmse":1.54},{"bias":0.07,"codigo":"84143","color":"#A65628","confianza":"Media","corr":0.27,"familia":"Postprocesamiento","lat":-1.01998,"lon":-78.59456,"mae":1.15,"modelo":"BC_CLASSIC_METEOBLUE","n":15,"nombre":"Rumipamba","rating":5.78,"region":"Interandina","rmse":1.45},{"bias":-0.36,"codigo":"M0024","color":"#785EF0","confianza":"Media","corr":0.49,"familia":"Postprocesamiento","lat":-0.1783,"lon":-78.48773,"mae":1.11,"modelo":"BC_CLASSIC_AIFS025","n":15,"nombre":"I\u00f1aquito","rating":5.55,"region":"Interandina","rmse":1.61},{"bias":-0.41,"codigo":"84226","color":"#0B6E4F","confianza":"Media","corr":0.24,"familia":"Postprocesamiento","lat":-2.55221,"lon":-78.94519,"mae":1.09,"modelo":"CONSENSO_OP_TOP5","n":15,"nombre":"Ca\u00f1ar","rating":5.46,"region":"Interandina","rmse":1.34},{"bias":-0.46,"codigo":"84147","color":"#111111","confianza":"Media","corr":0.2,"familia":"Postprocesamiento","lat":-1.21413,"lon":-78.57455,"mae":1.01,"modelo":"BEST_OP_CV","n":15,"nombre":"Ambato","rating":5.39,"region":"Interandina","rmse":1.46},{"bias":0.0,"codigo":"84270","color":"#FB9A99","confianza":"Media","corr":0.28,"familia":"Postprocesamiento","lat":-4.0375,"lon":-79.2034,"mae":1.56,"modelo":"QM_ICON","n":15,"nombre":"Loja Argelia","rating":5.35,"region":"Interandina","rmse":1.77},{"bias":-0.01,"codigo":"84056","color":"#E7298A","confianza":"Media","corr":0.75,"familia":"Postprocesamiento","lat":0.01116,"lon":-78.25505,"mae":1.9,"modelo":"BC_CLASSIC_GFS05","n":15,"nombre":"Tomal\u00f3n","rating":5.28,"region":"Interandina","rmse":2.33},{"bias":-0.43,"codigo":"84265","color":"#111111","confianza":"Media","corr":0.72,"familia":"Postprocesamiento","lat":-3.99556,"lon":-79.37167,"mae":1.78,"modelo":"BEST_OP_CV","n":15,"nombre":"La Toma","rating":4.85,"region":"Interandina","rmse":2.14},{"bias":-0.27,"codigo":"84176","color":"#A65628","confianza":"Media","corr":-0.04,"familia":"Postprocesamiento","lat":-1.65333,"lon":-78.54889,"mae":1.86,"modelo":"BC_CLASSIC_METEOBLUE","n":15,"nombre":"Riobamba","rating":4.15,"region":"Interandina","rmse":2.53},{"bias":-1.98,"codigo":"M0037","color":"#7570B3","confianza":"Media","corr":0.67,"familia":"Postprocesamiento","lat":-2.11805,"lon":-79.60038,"mae":1.99,"modelo":"BC_CLASSIC_ICON","n":15,"nombre":"Milagro","rating":3.98,"region":"Litoral","rmse":2.21}],"metricas":{"calif_media":6.5,"estaciones":40,"mas_ganador":"BEST_OP_CV"},"modo":"continuous","ranking":[{"bias":-0.2,"color":"#0B6E4F","confianza":"Media","corr":0.31,"estaciones":40,"familia":"Postprocesamiento","mae":0.95,"modelo":"CONSENSO_OP_TOP5","n":15,"rating":6.13,"rmse":1.2},{"bias":-0.25,"color":"#111111","confianza":"Media","corr":0.38,"estaciones":40,"familia":"Postprocesamiento","mae":0.95,"modelo":"BEST_OP_CV","n":15,"rating":6.09,"rmse":1.23},{"bias":-0.29,"color":"#A65628","confianza":"Media","corr":0.36,"estaciones":40,"familia":"Postprocesamiento","mae":1.0,"modelo":"BC_CLASSIC_METEOBLUE","n":15,"rating":5.95,"rmse":1.28},{"bias":-0.06,"color":"#785EF0","confianza":"Media","corr":0.26,"estaciones":40,"familia":"Postprocesamiento","mae":1.05,"modelo":"BC_CLASSIC_AIFS025","n":15,"rating":5.84,"rmse":1.29},{"bias":-0.05,"color":"#00A9A5","confianza":"Media","corr":0.25,"estaciones":40,"familia":"Postprocesamiento","mae":1.06,"modelo":"BC_CLASSIC_IFSHRES","n":15,"rating":5.76,"rmse":1.33},{"bias":-0.21,"color":"#7570B3","confianza":"Media","corr":0.27,"estaciones":40,"familia":"Postprocesamiento","mae":1.11,"modelo":"BC_CLASSIC_ICON","n":15,"rating":5.75,"rmse":1.39},{"bias":-0.18,"color":"#E7298A","confianza":"Media","corr":0.23,"estaciones":40,"familia":"Postprocesamiento","mae":1.09,"modelo":"BC_CLASSIC_GFS05","n":15,"rating":5.69,"rmse":1.36},{"bias":-0.06,"color":"#1B9E77","confianza":"Media","corr":0.2,"estaciones":40,"familia":"Postprocesamiento","mae":1.13,"modelo":"BC_CLASSIC_IFS025","n":15,"rating":5.61,"rmse":1.39},{"bias":-0.58,"color":"#1F78B4","confianza":"Media","corr":0.42,"estaciones":40,"familia":"Postprocesamiento","mae":1.21,"modelo":"QM_METEOBLUE","n":15,"rating":5.52,"rmse":1.48},{"bias":-0.69,"color":"#17A398","confianza":"Media","corr":0.44,"estaciones":40,"familia":"Postprocesamiento","mae":1.35,"modelo":"ENS_MEDIAN","n":15,"rating":5.3,"rmse":1.57},{"bias":-0.24,"color":"#E69F00","confianza":"Media","corr":0.15,"estaciones":40,"familia":"Postprocesamiento","mae":1.22,"modelo":"EMOS_GAUSS","n":15,"rating":5.28,"rmse":1.47},{"bias":-0.81,"color":"#8A2BE2","confianza":"Media","corr":0.47,"estaciones":40,"familia":"Postprocesamiento","mae":1.4,"modelo":"ENS_MEAN","n":15,"rating":5.27,"rmse":1.61},{"bias":0.17,"color":"#377EB8","confianza":"Media","corr":0.26,"estaciones":40,"familia":"Postprocesamiento","mae":1.39,"modelo":"QM_IFSHRES","n":15,"rating":5.08,"rmse":1.65},{"bias":-0.3,"color":"#FB9A99","confianza":"Media","corr":0.26,"estaciones":40,"familia":"Postprocesamiento","mae":1.56,"modelo":"QM_ICON","n":15,"rating":4.98,"rmse":1.85},{"bias":-0.13,"color":"#00A9A5","confianza":"Media","corr":0.3,"estaciones":40,"familia":"Postprocesamiento","mae":1.61,"modelo":"QM_AIFS025","n":15,"rating":4.95,"rmse":1.85},{"bias":-0.48,"color":"#FDBF6F","confianza":"Media","corr":0.28,"estaciones":40,"familia":"Postprocesamiento","mae":1.69,"modelo":"QM_GFS05","n":15,"rating":4.65,"rmse":1.95},{"bias":0.05,"color":"#B2DF8A","confianza":"Media","corr":0.18,"estaciones":40,"familia":"Postprocesamiento","mae":1.83,"modelo":"QM_IFS025","n":15,"rating":4.46,"rmse":2.09},{"bias":0.16,"color":"#0072B2","confianza":"Media","corr":0.08,"estaciones":40,"familia":"Postprocesamiento","mae":6.01,"modelo":"NGR","n":15,"rating":2.25,"rmse":6.16}],"sintesis_region":[{"modelo":"CONSENSO_OP_TOP5","region":"Amazonia"},{"modelo":"BC_CLASSIC_IFS025","region":"Insular"},{"modelo":"BC_CLASSIC_METEOBLUE","region":"Interandina"},{"modelo":"BEST_OP_CV","region":"Litoral"}],"ventana":"15"}
