{"bloque":"tmin","bloques":[{"clave":"precip_det","etiqueta":"Precipitaci\u00f3n: detecci\u00f3n"},{"clave":"precip_cua","etiqueta":"Precipitaci\u00f3n: cuantificaci\u00f3n"},{"clave":"tmax","etiqueta":"Temperatura m\u00e1xima"},{"clave":"tmin","etiqueta":"Temperatura m\u00ednima"}],"estaciones":[{"codigo":"84099","nombre":"El Coca","region":"Amazonia"},{"codigo":"84253","nombre":"Gualaquiza","region":"Amazonia"},{"codigo":"84151","nombre":"Jumandy","region":"Amazonia"},{"codigo":"84063","nombre":"Lago Agrio","region":"Amazonia"},{"codigo":"84217","nombre":"Macas","region":"Amazonia"},{"codigo":"84132","nombre":"N. Rocafu","region":"Amazonia"},{"codigo":"84163","nombre":"Pastaza","region":"Amazonia"},{"codigo":"84179","nombre":"Puyo","region":"Amazonia"},{"codigo":"84001","nombre":"Baltra","region":"Insular"},{"codigo":"84008","nombre":"S. Cristobal","region":"Insular"},{"codigo":"84010","nombre":"S. Cristobal A","region":"Insular"},{"codigo":"84147","nombre":"Ambato","region":"Interandina"},{"codigo":"84226","nombre":"Ca\u00f1ar","region":"Interandina"},{"codigo":"84239","nombre":"Cuenca","region":"Interandina"},{"codigo":"84173","nombre":"ESPOCH","region":"Interandina"},{"codigo":"M1240","nombre":"Ibarra","region":"Interandina"},{"codigo":"84045","nombre":"Inguincho","region":"Interandina"},{"codigo":"84088","nombre":"Izobamba","region":"Interandina"},{"codigo":"M0024","nombre":"I\u00f1aquito","region":"Interandina"},{"codigo":"84076","nombre":"La Tola","region":"Interandina"},{"codigo":"84265","nombre":"La Toma","region":"Interandina"},{"codigo":"84123","nombre":"Latacunga","region":"Interandina"},{"codigo":"84270","nombre":"Loja Argelia","region":"Interandina"},{"codigo":"84160","nombre":"Querochaca","region":"Interandina"},{"codigo":"84176","nombre":"Riobamba","region":"Interandina"},{"codigo":"84143","nombre":"Rumipamba","region":"Interandina"},{"codigo":"84036","nombre":"S. Gabriel","region":"Interandina"},{"codigo":"84075","nombre":"Tababela","region":"Interandina"},{"codigo":"84056","nombre":"Tomal\u00f3n","region":"Interandina"},{"codigo":"84027","nombre":"Tulc\u00e1n","region":"Interandina"},{"codigo":"84018","nombre":"Esmeraldas","region":"Litoral"},{"codigo":"84203","nombre":"Guayaquil","region":"Litoral"},{"codigo":"84050","nombre":"La Concordia","region":"Litoral"},{"codigo":"84117","nombre":"Manta","region":"Litoral"},{"codigo":"M0037","nombre":"Milagro","region":"Litoral"},{"codigo":"84140","nombre":"Pichilingue","region":"Litoral"},{"codigo":"84135","nombre":"Portoviejo","region":"Litoral"},{"codigo":"84105","nombre":"Puerto Ila","region":"Litoral"},{"codigo":"84200","nombre":"Salinas","region":"Litoral"},{"codigo":"84252","nombre":"Sta. Rosa","region":"Litoral"}],"familia":"Postprocesamiento","ganadores":[{"bias":-0.11,"codigo":"84200","color":"#0B6E4F","confianza":"Alta","corr":0.95,"familia":"Postprocesamiento","lat":-2.2,"lon":-80.98972,"mae":0.37,"modelo":"CONSENSO_OP_TOP5","n":156,"nombre":"Salinas","rating":8.29,"region":"Litoral","rmse":0.48},{"bias":-0.16,"codigo":"84105","color":"#111111","confianza":"Alta","corr":0.82,"familia":"Postprocesamiento","lat":-0.493,"lon":-79.34892,"mae":0.49,"modelo":"BEST_OP_CV","n":176,"nombre":"Puerto Ila","rating":7.74,"region":"Litoral","rmse":0.61},{"bias":0.0,"codigo":"84135","color":"#0B6E4F","confianza":"Alta","corr":0.75,"familia":"Postprocesamiento","lat":-1.17343,"lon":-80.38736,"mae":0.55,"modelo":"CONSENSO_OP_TOP5","n":161,"nombre":"Portoviejo","rating":7.73,"region":"Litoral","rmse":0.7},{"bias":-0.06,"codigo":"84001","color":"#8A2BE2","confianza":"Alta","corr":0.94,"familia":"Postprocesamiento","lat":-0.445,"lon":-90.269,"mae":0.61,"modelo":"ENS_MEAN","n":159,"nombre":"Baltra","rating":7.66,"region":"Insular","rmse":0.75},{"bias":-0.02,"codigo":"84252","color":"#111111","confianza":"Alta","corr":0.84,"familia":"Postprocesamiento","lat":-3.43583,"lon":-79.98333,"mae":0.65,"modelo":"BEST_OP_CV","n":192,"nombre":"Sta. Rosa","rating":7.49,"region":"Litoral","rmse":0.83},{"bias":0.19,"codigo":"84008","color":"#0B6E4F","confianza":"Alta","corr":0.92,"familia":"Postprocesamiento","lat":-0.90406,"lon":-89.61431,"mae":0.64,"modelo":"CONSENSO_OP_TOP5","n":165,"nombre":"S. Cristobal","rating":7.31,"region":"Insular","rmse":0.86},{"bias":0.09,"codigo":"84132","color":"#17A398","confianza":"Alta","corr":0.48,"familia":"Postprocesamiento","lat":-0.92003,"lon":-75.40303,"mae":0.56,"modelo":"ENS_MEDIAN","n":105,"nombre":"N. Rocafu","rating":7.28,"region":"Amazonia","rmse":0.76},{"bias":-0.07,"codigo":"84151","color":"#111111","confianza":"Alta","corr":0.57,"familia":"Postprocesamiento","lat":-1.057,"lon":-77.584,"mae":0.62,"modelo":"BEST_OP_CV","n":91,"nombre":"Jumandy","rating":7.17,"region":"Amazonia","rmse":0.89},{"bias":0.02,"codigo":"84063","color":"#1F78B4","confianza":"Alta","corr":0.45,"familia":"Postprocesamiento","lat":0.0925,"lon":-76.86944,"mae":0.64,"modelo":"QM_METEOBLUE","n":166,"nombre":"Lago Agrio","rating":7.11,"region":"Amazonia","rmse":0.87},{"bias":-0.1,"codigo":"84099","color":"#0B6E4F","confianza":"Alta","corr":0.5,"familia":"Postprocesamiento","lat":-0.46056,"lon":-76.98806,"mae":0.64,"modelo":"CONSENSO_OP_TOP5","n":181,"nombre":"El Coca","rating":7.11,"region":"Amazonia","rmse":0.79},{"bias":-0.37,"codigo":"84117","color":"#A65628","confianza":"Alta","corr":0.87,"familia":"Postprocesamiento","lat":-0.95,"lon":-80.68333,"mae":0.63,"modelo":"BC_CLASSIC_METEOBLUE","n":162,"nombre":"Manta","rating":7.05,"region":"Litoral","rmse":0.86},{"bias":0.13,"codigo":"84140","color":"#8A2BE2","confianza":"Alta","corr":0.55,"familia":"Postprocesamiento","lat":-1.07434,"lon":-79.4929,"mae":0.59,"modelo":"ENS_MEAN","n":162,"nombre":"Pichilingue","rating":7.04,"region":"Litoral","rmse":0.97},{"bias":-0.01,"codigo":"84050","color":"#111111","confianza":"Alta","corr":0.52,"familia":"Postprocesamiento","lat":-0.02478,"lon":-79.38028,"mae":0.63,"modelo":"BEST_OP_CV","n":186,"nombre":"La Concordia","rating":7.04,"region":"Litoral","rmse":1.11},{"bias":0.42,"codigo":"84010","color":"#0B6E4F","confianza":"Alta","corr":0.93,"familia":"Postprocesamiento","lat":-0.909,"lon":-89.617,"mae":0.66,"modelo":"CONSENSO_OP_TOP5","n":174,"nombre":"S. Cristobal A","rating":7.0,"region":"Insular","rmse":0.87},{"bias":-0.22,"codigo":"84018","color":"#FDBF6F","confianza":"Alta","corr":0.49,"familia":"Postprocesamiento","lat":0.97917,"lon":-79.62444,"mae":0.65,"modelo":"QM_GFS05","n":134,"nombre":"Esmeraldas","rating":6.91,"region":"Litoral","rmse":0.8},{"bias":0.02,"codigo":"84179","color":"#17A398","confianza":"Alta","corr":0.39,"familia":"Postprocesamiento","lat":-1.5057,"lon":-77.956,"mae":0.73,"modelo":"ENS_MEDIAN","n":150,"nombre":"Puyo","rating":6.8,"region":"Amazonia","rmse":1.02},{"bias":0.0,"codigo":"84226","color":"#111111","confianza":"Alta","corr":0.6,"familia":"Postprocesamiento","lat":-2.55221,"lon":-78.94519,"mae":1.07,"modelo":"BEST_OP_CV","n":151,"nombre":"Ca\u00f1ar","rating":6.35,"region":"Interandina","rmse":1.33},{"bias":0.17,"codigo":"84075","color":"#A65628","confianza":"Alta","corr":0.77,"familia":"Postprocesamiento","lat":-0.14083,"lon":-78.353,"mae":1.01,"modelo":"BC_CLASSIC_METEOBLUE","n":172,"nombre":"Tababela","rating":6.31,"region":"Interandina","rmse":1.34},{"bias":-0.2,"codigo":"84163","color":"#0B6E4F","confianza":"Alta","corr":0.34,"familia":"Postprocesamiento","lat":-1.5,"lon":-78.06667,"mae":0.83,"modelo":"CONSENSO_OP_TOP5","n":181,"nombre":"Pastaza","rating":6.26,"region":"Amazonia","rmse":1.12},{"bias":0.03,"codigo":"84217","color":"#E69F00","confianza":"Alta","corr":0.32,"familia":"Postprocesamiento","lat":-2.29861,"lon":-78.12056,"mae":0.98,"modelo":"EMOS_GAUSS","n":195,"nombre":"Macas","rating":6.26,"region":"Amazonia","rmse":1.2},{"bias":-0.0,"codigo":"84203","color":"#A65628","confianza":"Alta","corr":0.46,"familia":"Postprocesamiento","lat":-2.15333,"lon":-79.88333,"mae":0.9,"modelo":"BC_CLASSIC_METEOBLUE","n":162,"nombre":"Guayaquil","rating":6.11,"region":"Litoral","rmse":1.93},{"bias":0.05,"codigo":"84027","color":"#0B6E4F","confianza":"Alta","corr":0.63,"familia":"Postprocesamiento","lat":0.81667,"lon":-77.7,"mae":1.23,"modelo":"CONSENSO_OP_TOP5","n":104,"nombre":"Tulc\u00e1n","rating":5.98,"region":"Interandina","rmse":1.55},{"bias":-0.13,"codigo":"84076","color":"#17A398","confianza":"Alta","corr":0.57,"familia":"Postprocesamiento","lat":-0.23179,"lon":-78.37043,"mae":1.23,"modelo":"ENS_MEDIAN","n":134,"nombre":"La Tola","rating":5.78,"region":"Interandina","rmse":1.61},{"bias":0.01,"codigo":"M1240","color":"#1F78B4","confianza":"Alta","corr":0.31,"familia":"Postprocesamiento","lat":0.32978,"lon":-78.1322,"mae":1.38,"modelo":"QM_METEOBLUE","n":168,"nombre":"Ibarra","rating":5.53,"region":"Interandina","rmse":1.7},{"bias":-0.03,"codigo":"84270","color":"#00A9A5","confianza":"Alta","corr":-0.09,"familia":"Postprocesamiento","lat":-4.0375,"lon":-79.2034,"mae":1.46,"modelo":"BC_CLASSIC_IFSHRES","n":159,"nombre":"Loja Argelia","rating":4.69,"region":"Interandina","rmse":2.63},{"bias":0.02,"codigo":"84088","color":"#0B6E4F","confianza":"Alta","corr":0.06,"familia":"Postprocesamiento","lat":-0.36593,"lon":-78.55513,"mae":1.49,"modelo":"CONSENSO_OP_TOP5","n":187,"nombre":"Izobamba","rating":4.65,"region":"Interandina","rmse":3.25},{"bias":0.57,"codigo":"84056","color":"#0B6E4F","confianza":"Alta","corr":0.35,"familia":"Postprocesamiento","lat":0.01116,"lon":-78.25505,"mae":1.61,"modelo":"CONSENSO_OP_TOP5","n":188,"nombre":"Tomal\u00f3n","rating":4.58,"region":"Interandina","rmse":1.99},{"bias":-0.03,"codigo":"84036","color":"#8A2BE2","confianza":"Alta","corr":-0.05,"familia":"Postprocesamiento","lat":0.60417,"lon":-77.81944,"mae":1.54,"modelo":"ENS_MEAN","n":161,"nombre":"S. Gabriel","rating":4.57,"region":"Interandina","rmse":2.99},{"bias":-0.28,"codigo":"84173","color":"#111111","confianza":"Alta","corr":0.28,"familia":"Postprocesamiento","lat":-1.65083,"lon":-78.68521,"mae":1.58,"modelo":"BEST_OP_CV","n":167,"nombre":"ESPOCH","rating":4.53,"region":"Interandina","rmse":2.8},{"bias":-0.08,"codigo":"84143","color":"#1B9E77","confianza":"Alta","corr":-0.13,"familia":"Postprocesamiento","lat":-1.01998,"lon":-78.59456,"mae":1.72,"modelo":"BC_CLASSIC_IFS025","n":168,"nombre":"Rumipamba","rating":4.31,"region":"Interandina","rmse":2.87},{"bias":-1.09,"codigo":"84147","color":"#111111","confianza":"Alta","corr":0.47,"familia":"Postprocesamiento","lat":-1.21413,"lon":-78.57455,"mae":1.64,"modelo":"BEST_OP_CV","n":82,"nombre":"Ambato","rating":4.29,"region":"Interandina","rmse":2.12},{"bias":-0.86,"codigo":"84239","color":"#1F78B4","confianza":"Alta","corr":0.44,"familia":"Postprocesamiento","lat":-2.88917,"lon":-78.98417,"mae":1.66,"modelo":"QM_METEOBLUE","n":200,"nombre":"Cuenca","rating":4.26,"region":"Interandina","rmse":2.39},{"bias":0.15,"codigo":"84160","color":"#8A2BE2","confianza":"Alta","corr":-0.1,"familia":"Postprocesamiento","lat":-1.3671,"lon":-78.60554,"mae":1.72,"modelo":"ENS_MEAN","n":147,"nombre":"Querochaca","rating":4.24,"region":"Interandina","rmse":2.86},{"bias":-1.25,"codigo":"84253","color":"#0B6E4F","confianza":"Alta","corr":0.34,"familia":"Postprocesamiento","lat":-3.42333,"lon":-78.56694,"mae":1.54,"modelo":"CONSENSO_OP_TOP5","n":116,"nombre":"Gualaquiza","rating":4.2,"region":"Amazonia","rmse":2.09},{"bias":-1.79,"codigo":"M0037","color":"#7570B3","confianza":"Media","corr":0.63,"familia":"Postprocesamiento","lat":-2.11805,"lon":-79.60038,"mae":1.8,"modelo":"BC_CLASSIC_ICON","n":23,"nombre":"Milagro","rating":4.16,"region":"Litoral","rmse":2.03},{"bias":-0.46,"codigo":"M0024","color":"#E7298A","confianza":"Alta","corr":0.1,"familia":"Postprocesamiento","lat":-0.1783,"lon":-78.48773,"mae":1.63,"modelo":"BC_CLASSIC_GFS05","n":158,"nombre":"I\u00f1aquito","rating":4.12,"region":"Interandina","rmse":2.86},{"bias":0.81,"codigo":"84045","color":"#0B6E4F","confianza":"Alta","corr":-0.01,"familia":"Postprocesamiento","lat":0.25694,"lon":-78.40524,"mae":1.34,"modelo":"CONSENSO_OP_TOP5","n":164,"nombre":"Inguincho","rating":3.99,"region":"Interandina","rmse":2.92},{"bias":-0.78,"codigo":"84265","color":"#0072B2","confianza":"Alta","corr":-0.05,"familia":"Postprocesamiento","lat":-3.99556,"lon":-79.37167,"mae":1.87,"modelo":"NGR","n":30,"nombre":"La Toma","rating":3.83,"region":"Interandina","rmse":2.13},{"bias":-0.71,"codigo":"84176","color":"#377EB8","confianza":"Alta","corr":-0.05,"familia":"Postprocesamiento","lat":-1.65333,"lon":-78.54889,"mae":2.0,"modelo":"QM_IFSHRES","n":113,"nombre":"Riobamba","rating":3.46,"region":"Interandina","rmse":3.23},{"bias":0.97,"codigo":"84123","color":"#A65628","confianza":"Alta","corr":-0.01,"familia":"Postprocesamiento","lat":-0.91333,"lon":-78.61556,"mae":1.76,"modelo":"BC_CLASSIC_METEOBLUE","n":162,"nombre":"Latacunga","rating":3.28,"region":"Interandina","rmse":4.44}],"metricas":{"calif_media":5.8,"estaciones":40,"mas_ganador":"CONSENSO_OP_TOP5"},"modo":"continuous","ranking":[{"bias":-0.15,"color":"#0B6E4F","confianza":"Alta","corr":0.42,"estaciones":40,"familia":"Postprocesamiento","mae":1.13,"modelo":"CONSENSO_OP_TOP5","n":156,"rating":5.71,"rmse":1.74},{"bias":-0.12,"color":"#111111","confianza":"Alta","corr":0.42,"estaciones":40,"familia":"Postprocesamiento","mae":1.14,"modelo":"BEST_OP_CV","n":156,"rating":5.69,"rmse":1.76},{"bias":-0.22,"color":"#A65628","confianza":"Alta","corr":0.41,"estaciones":40,"familia":"Postprocesamiento","mae":1.19,"modelo":"BC_CLASSIC_METEOBLUE","n":156,"rating":5.54,"rmse":1.81},{"bias":-0.11,"color":"#00A9A5","confianza":"Alta","corr":0.39,"estaciones":40,"familia":"Postprocesamiento","mae":1.24,"modelo":"BC_CLASSIC_IFSHRES","n":156,"rating":5.45,"rmse":1.85},{"bias":-0.14,"color":"#7570B3","confianza":"Alta","corr":0.37,"estaciones":40,"familia":"Postprocesamiento","mae":1.3,"modelo":"BC_CLASSIC_ICON","n":156,"rating":5.4,"rmse":1.88},{"bias":-0.13,"color":"#785EF0","confianza":"Alta","corr":0.36,"estaciones":40,"familia":"Postprocesamiento","mae":1.27,"modelo":"BC_CLASSIC_AIFS025","n":156,"rating":5.38,"rmse":1.86},{"bias":-0.2,"color":"#E7298A","confianza":"Alta","corr":0.35,"estaciones":40,"familia":"Postprocesamiento","mae":1.3,"modelo":"BC_CLASSIC_GFS05","n":156,"rating":5.33,"rmse":1.9},{"bias":-0.12,"color":"#1B9E77","confianza":"Alta","corr":0.36,"estaciones":40,"familia":"Postprocesamiento","mae":1.3,"modelo":"BC_CLASSIC_IFS025","n":155,"rating":5.31,"rmse":1.9},{"bias":-0.31,"color":"#1F78B4","confianza":"Alta","corr":0.41,"estaciones":40,"familia":"Postprocesamiento","mae":1.3,"modelo":"QM_METEOBLUE","n":156,"rating":5.27,"rmse":1.9},{"bias":-0.47,"color":"#8A2BE2","confianza":"Alta","corr":0.39,"estaciones":40,"familia":"Postprocesamiento","mae":1.43,"modelo":"ENS_MEAN","n":145,"rating":5.09,"rmse":1.96},{"bias":-0.42,"color":"#17A398","confianza":"Alta","corr":0.4,"estaciones":40,"familia":"Postprocesamiento","mae":1.42,"modelo":"ENS_MEDIAN","n":145,"rating":5.09,"rmse":1.98},{"bias":-0.21,"color":"#E69F00","confianza":"Alta","corr":0.29,"estaciones":40,"familia":"Postprocesamiento","mae":1.36,"modelo":"EMOS_GAUSS","n":156,"rating":5.04,"rmse":1.94},{"bias":-0.12,"color":"#377EB8","confianza":"Alta","corr":0.39,"estaciones":40,"familia":"Postprocesamiento","mae":1.38,"modelo":"QM_IFSHRES","n":156,"rating":5.0,"rmse":1.98},{"bias":-0.17,"color":"#00A9A5","confianza":"Alta","corr":0.37,"estaciones":40,"familia":"Postprocesamiento","mae":1.55,"modelo":"QM_AIFS025","n":156,"rating":4.92,"rmse":2.1},{"bias":-0.22,"color":"#FB9A99","confianza":"Alta","corr":0.38,"estaciones":40,"familia":"Postprocesamiento","mae":1.53,"modelo":"QM_ICON","n":156,"rating":4.91,"rmse":2.09},{"bias":-0.17,"color":"#B2DF8A","confianza":"Alta","corr":0.36,"estaciones":40,"familia":"Postprocesamiento","mae":1.63,"modelo":"QM_IFS025","n":156,"rating":4.71,"rmse":2.18},{"bias":-0.34,"color":"#FDBF6F","confianza":"Alta","corr":0.32,"estaciones":40,"familia":"Postprocesamiento","mae":1.65,"modelo":"QM_GFS05","n":156,"rating":4.7,"rmse":2.18},{"bias":0.4,"color":"#0072B2","confianza":"Media","corr":0.08,"estaciones":40,"familia":"Postprocesamiento","mae":5.89,"modelo":"NGR","n":29,"rating":2.24,"rmse":6.11}],"sintesis_region":[{"modelo":"CONSENSO_OP_TOP5","region":"Amazonia"},{"modelo":"CONSENSO_OP_TOP5","region":"Insular"},{"modelo":"CONSENSO_OP_TOP5","region":"Interandina"},{"modelo":"BEST_OP_CV","region":"Litoral"}],"ventana":"todo"}
