{"bloque":"tmax","bloques":[{"clave":"precip_det","etiqueta":"Precipitaci\u00f3n: detecci\u00f3n"},{"clave":"precip_cua","etiqueta":"Precipitaci\u00f3n: cuantificaci\u00f3n"},{"clave":"tmax","etiqueta":"Temperatura m\u00e1xima"},{"clave":"tmin","etiqueta":"Temperatura m\u00ednima"}],"estaciones":[{"codigo":"84099","nombre":"El Coca","region":"Amazonia"},{"codigo":"84253","nombre":"Gualaquiza","region":"Amazonia"},{"codigo":"84151","nombre":"Jumandy","region":"Amazonia"},{"codigo":"84063","nombre":"Lago Agrio","region":"Amazonia"},{"codigo":"84217","nombre":"Macas","region":"Amazonia"},{"codigo":"84132","nombre":"N. Rocafu","region":"Amazonia"},{"codigo":"84163","nombre":"Pastaza","region":"Amazonia"},{"codigo":"84179","nombre":"Puyo","region":"Amazonia"},{"codigo":"84001","nombre":"Baltra","region":"Insular"},{"codigo":"84008","nombre":"S. Cristobal","region":"Insular"},{"codigo":"84010","nombre":"S. Cristobal A","region":"Insular"},{"codigo":"84147","nombre":"Ambato","region":"Interandina"},{"codigo":"84226","nombre":"Ca\u00f1ar","region":"Interandina"},{"codigo":"84239","nombre":"Cuenca","region":"Interandina"},{"codigo":"84173","nombre":"ESPOCH","region":"Interandina"},{"codigo":"M1240","nombre":"Ibarra","region":"Interandina"},{"codigo":"84045","nombre":"Inguincho","region":"Interandina"},{"codigo":"84088","nombre":"Izobamba","region":"Interandina"},{"codigo":"M0024","nombre":"I\u00f1aquito","region":"Interandina"},{"codigo":"84076","nombre":"La Tola","region":"Interandina"},{"codigo":"84265","nombre":"La Toma","region":"Interandina"},{"codigo":"84123","nombre":"Latacunga","region":"Interandina"},{"codigo":"84270","nombre":"Loja Argelia","region":"Interandina"},{"codigo":"84160","nombre":"Querochaca","region":"Interandina"},{"codigo":"84176","nombre":"Riobamba","region":"Interandina"},{"codigo":"84143","nombre":"Rumipamba","region":"Interandina"},{"codigo":"84036","nombre":"S. Gabriel","region":"Interandina"},{"codigo":"84075","nombre":"Tababela","region":"Interandina"},{"codigo":"84056","nombre":"Tomal\u00f3n","region":"Interandina"},{"codigo":"84027","nombre":"Tulc\u00e1n","region":"Interandina"},{"codigo":"84018","nombre":"Esmeraldas","region":"Litoral"},{"codigo":"84203","nombre":"Guayaquil","region":"Litoral"},{"codigo":"84050","nombre":"La Concordia","region":"Litoral"},{"codigo":"84117","nombre":"Manta","region":"Litoral"},{"codigo":"M0037","nombre":"Milagro","region":"Litoral"},{"codigo":"84140","nombre":"Pichilingue","region":"Litoral"},{"codigo":"84135","nombre":"Portoviejo","region":"Litoral"},{"codigo":"84105","nombre":"Puerto Ila","region":"Litoral"},{"codigo":"84200","nombre":"Salinas","region":"Litoral"},{"codigo":"84252","nombre":"Sta. Rosa","region":"Litoral"}],"familia":"Convencionales","ganadores":[{"bias":-0.52,"codigo":"84045","color":"#56B4E9","confianza":"Media","corr":0.92,"familia":"Convencionales","lat":0.25694,"lon":-78.40524,"mae":0.58,"modelo":"AIFS025","n":15,"nombre":"Inguincho","rating":7.13,"region":"Interandina","rmse":0.77},{"bias":-0.34,"codigo":"84123","color":"#004E89","confianza":"Media","corr":0.86,"familia":"Convencionales","lat":-0.91333,"lon":-78.61556,"mae":0.7,"modelo":"IFSHRES","n":15,"nombre":"Latacunga","rating":6.94,"region":"Interandina","rmse":0.89},{"bias":-0.39,"codigo":"84088","color":"#56B4E9","confianza":"Media","corr":0.89,"familia":"Convencionales","lat":-0.36593,"lon":-78.55513,"mae":0.8,"modelo":"AIFS025","n":15,"nombre":"Izobamba","rating":6.64,"region":"Interandina","rmse":1.05},{"bias":-0.39,"codigo":"84036","color":"#56B4E9","confianza":"Media","corr":0.81,"familia":"Convencionales","lat":0.60417,"lon":-77.81944,"mae":0.82,"modelo":"AIFS025","n":15,"nombre":"S. Gabriel","rating":6.61,"region":"Interandina","rmse":0.96},{"bias":-0.25,"codigo":"84105","color":"#0072B2","confianza":"Media","corr":0.7,"familia":"Convencionales","lat":-0.493,"lon":-79.34892,"mae":0.97,"modelo":"IFS025","n":15,"nombre":"Puerto Ila","rating":6.36,"region":"Litoral","rmse":1.11},{"bias":-0.66,"codigo":"84163","color":"#0072B2","confianza":"Media","corr":0.76,"familia":"Convencionales","lat":-1.5,"lon":-78.06667,"mae":0.95,"modelo":"IFS025","n":15,"nombre":"Pastaza","rating":6.01,"region":"Amazonia","rmse":1.15},{"bias":-0.51,"codigo":"84140","color":"#004E89","confianza":"Media","corr":0.72,"familia":"Convencionales","lat":-1.07434,"lon":-79.4929,"mae":1.04,"modelo":"IFSHRES","n":15,"nombre":"Pichilingue","rating":5.96,"region":"Litoral","rmse":1.18},{"bias":-0.07,"codigo":"84270","color":"#E69F00","confianza":"Media","corr":0.75,"familia":"Convencionales","lat":-4.0375,"lon":-79.2034,"mae":1.4,"modelo":"GFS05","n":15,"nombre":"Loja Argelia","rating":5.78,"region":"Interandina","rmse":1.78},{"bias":1.09,"codigo":"84226","color":"#0072B2","confianza":"Media","corr":0.86,"familia":"Convencionales","lat":-2.55221,"lon":-78.94519,"mae":1.12,"modelo":"IFS025","n":15,"nombre":"Ca\u00f1ar","rating":5.46,"region":"Interandina","rmse":1.44},{"bias":-0.67,"codigo":"84050","color":"#004E89","confianza":"Media","corr":0.56,"familia":"Convencionales","lat":-0.02478,"lon":-79.38028,"mae":1.22,"modelo":"IFSHRES","n":15,"nombre":"La Concordia","rating":5.24,"region":"Litoral","rmse":1.56},{"bias":-1.22,"codigo":"84203","color":"#56B4E9","confianza":"Media","corr":0.79,"familia":"Convencionales","lat":-2.15333,"lon":-79.88333,"mae":1.29,"modelo":"AIFS025","n":15,"nombre":"Guayaquil","rating":5.19,"region":"Litoral","rmse":1.39},{"bias":-0.67,"codigo":"84117","color":"#004E89","confianza":"Media","corr":0.25,"familia":"Convencionales","lat":-0.95,"lon":-80.68333,"mae":1.21,"modelo":"IFSHRES","n":15,"nombre":"Manta","rating":4.99,"region":"Litoral","rmse":1.54},{"bias":-1.48,"codigo":"84143","color":"#009E73","confianza":"Media","corr":0.76,"familia":"Convencionales","lat":-1.01998,"lon":-78.59456,"mae":1.56,"modelo":"ICON","n":15,"nombre":"Rumipamba","rating":4.55,"region":"Interandina","rmse":1.96},{"bias":-0.93,"codigo":"84179","color":"#004E89","confianza":"Media","corr":0.42,"familia":"Convencionales","lat":-1.5057,"lon":-77.956,"mae":1.54,"modelo":"IFSHRES","n":15,"nombre":"Puyo","rating":4.51,"region":"Amazonia","rmse":1.87},{"bias":-1.61,"codigo":"M1240","color":"#004E89","confianza":"Media","corr":0.78,"familia":"Convencionales","lat":0.32978,"lon":-78.1322,"mae":1.69,"modelo":"IFSHRES","n":15,"nombre":"Ibarra","rating":4.48,"region":"Interandina","rmse":1.88},{"bias":-1.88,"codigo":"84018","color":"#009E73","confianza":"Media","corr":0.72,"familia":"Convencionales","lat":0.97917,"lon":-79.62444,"mae":1.88,"modelo":"ICON","n":15,"nombre":"Esmeraldas","rating":4.13,"region":"Litoral","rmse":2.15},{"bias":1.33,"codigo":"84027","color":"#E69F00","confianza":"Media","corr":0.3,"familia":"Convencionales","lat":0.81667,"lon":-77.7,"mae":1.8,"modelo":"GFS05","n":15,"nombre":"Tulc\u00e1n","rating":3.98,"region":"Interandina","rmse":2.03},{"bias":-0.95,"codigo":"M0037","color":"#009E73","confianza":"Media","corr":0.22,"familia":"Convencionales","lat":-2.11805,"lon":-79.60038,"mae":1.77,"modelo":"ICON","n":15,"nombre":"Milagro","rating":3.96,"region":"Litoral","rmse":2.33},{"bias":-1.51,"codigo":"84076","color":"#009E73","confianza":"Media","corr":0.5,"familia":"Convencionales","lat":-0.23179,"lon":-78.37043,"mae":1.8,"modelo":"ICON","n":15,"nombre":"La Tola","rating":3.95,"region":"Interandina","rmse":2.4},{"bias":-1.83,"codigo":"84063","color":"#004E89","confianza":"Media","corr":0.62,"familia":"Convencionales","lat":0.0925,"lon":-76.86944,"mae":1.93,"modelo":"IFSHRES","n":15,"nombre":"Lago Agrio","rating":3.95,"region":"Amazonia","rmse":2.32},{"bias":-1.71,"codigo":"84151","color":"#004E89","confianza":"Media","corr":0.59,"familia":"Convencionales","lat":-1.057,"lon":-77.584,"mae":2.03,"modelo":"IFSHRES","n":15,"nombre":"Jumandy","rating":3.91,"region":"Amazonia","rmse":2.26},{"bias":-1.87,"codigo":"84160","color":"#0072B2","confianza":"Media","corr":0.67,"familia":"Convencionales","lat":-1.3671,"lon":-78.60554,"mae":2.24,"modelo":"IFS025","n":15,"nombre":"Querochaca","rating":3.76,"region":"Interandina","rmse":2.52},{"bias":-2.26,"codigo":"84239","color":"#004E89","confianza":"Media","corr":0.74,"familia":"Convencionales","lat":-2.88917,"lon":-78.98417,"mae":2.26,"modelo":"IFSHRES","n":15,"nombre":"Cuenca","rating":3.76,"region":"Interandina","rmse":2.55},{"bias":-2.15,"codigo":"84132","color":"#004E89","confianza":"Media","corr":0.63,"familia":"Convencionales","lat":-0.92003,"lon":-75.40303,"mae":2.2,"modelo":"IFSHRES","n":15,"nombre":"N. Rocafu","rating":3.72,"region":"Amazonia","rmse":2.49},{"bias":-2.25,"codigo":"M0024","color":"#004E89","confianza":"Media","corr":0.77,"familia":"Convencionales","lat":-0.1783,"lon":-78.48773,"mae":2.32,"modelo":"IFSHRES","n":15,"nombre":"I\u00f1aquito","rating":3.71,"region":"Interandina","rmse":2.7},{"bias":-1.08,"codigo":"84252","color":"#E69F00","confianza":"Media","corr":0.21,"familia":"Convencionales","lat":-3.43583,"lon":-79.98333,"mae":1.95,"modelo":"GFS05","n":15,"nombre":"Sta. Rosa","rating":3.64,"region":"Litoral","rmse":2.77},{"bias":-1.97,"codigo":"84010","color":"#004E89","confianza":"Media","corr":0.11,"familia":"Convencionales","lat":-0.909,"lon":-89.617,"mae":1.97,"modelo":"IFSHRES","n":15,"nombre":"S. Cristobal A","rating":3.51,"region":"Insular","rmse":2.15},{"bias":-2.75,"codigo":"84147","color":"#004E89","confianza":"Media","corr":0.71,"familia":"Convencionales","lat":-1.21413,"lon":-78.57455,"mae":2.76,"modelo":"IFSHRES","n":15,"nombre":"Ambato","rating":3.37,"region":"Interandina","rmse":3.06},{"bias":-2.29,"codigo":"84001","color":"#004E89","confianza":"Media","corr":0.26,"familia":"Convencionales","lat":-0.445,"lon":-90.269,"mae":2.29,"modelo":"IFSHRES","n":15,"nombre":"Baltra","rating":3.35,"region":"Insular","rmse":2.43},{"bias":-3.08,"codigo":"84253","color":"#004E89","confianza":"Media","corr":0.85,"familia":"Convencionales","lat":-3.42333,"lon":-78.56694,"mae":3.08,"modelo":"IFSHRES","n":15,"nombre":"Gualaquiza","rating":3.34,"region":"Amazonia","rmse":3.34},{"bias":-1.61,"codigo":"84200","color":"#009E73","confianza":"Media","corr":-0.47,"familia":"Convencionales","lat":-2.2,"lon":-80.98972,"mae":1.77,"modelo":"ICON","n":15,"nombre":"Salinas","rating":3.31,"region":"Litoral","rmse":1.84},{"bias":-2.73,"codigo":"84135","color":"#0072B2","confianza":"Media","corr":0.6,"familia":"Convencionales","lat":-1.17343,"lon":-80.38736,"mae":2.74,"modelo":"IFS025","n":15,"nombre":"Portoviejo","rating":3.28,"region":"Litoral","rmse":3.02},{"bias":-2.26,"codigo":"84008","color":"#004E89","confianza":"Media","corr":0.08,"familia":"Convencionales","lat":-0.90406,"lon":-89.61431,"mae":2.26,"modelo":"IFSHRES","n":15,"nombre":"S. Cristobal","rating":3.18,"region":"Insular","rmse":2.47},{"bias":-2.54,"codigo":"84217","color":"#004E89","confianza":"Media","corr":0.37,"familia":"Convencionales","lat":-2.29861,"lon":-78.12056,"mae":2.65,"modelo":"IFSHRES","n":15,"nombre":"Macas","rating":3.1,"region":"Amazonia","rmse":3.09},{"bias":-4.19,"codigo":"84265","color":"#009E73","confianza":"Media","corr":0.89,"familia":"Convencionales","lat":-3.99556,"lon":-79.37167,"mae":4.19,"modelo":"ICON","n":15,"nombre":"La Toma","rating":3.04,"region":"Interandina","rmse":4.33},{"bias":-3.99,"codigo":"84173","color":"#004E89","confianza":"Media","corr":0.72,"familia":"Convencionales","lat":-1.65083,"lon":-78.68521,"mae":4.01,"modelo":"IFSHRES","n":15,"nombre":"ESPOCH","rating":2.9,"region":"Interandina","rmse":4.31},{"bias":-4.29,"codigo":"84056","color":"#56B4E9","confianza":"Media","corr":0.75,"familia":"Convencionales","lat":0.01116,"lon":-78.25505,"mae":4.29,"modelo":"AIFS025","n":15,"nombre":"Tomal\u00f3n","rating":2.88,"region":"Interandina","rmse":4.46},{"bias":-3.81,"codigo":"84099","color":"#004E89","confianza":"Media","corr":0.54,"familia":"Convencionales","lat":-0.46056,"lon":-76.98806,"mae":3.81,"modelo":"IFSHRES","n":15,"nombre":"El Coca","rating":2.78,"region":"Amazonia","rmse":4.17},{"bias":-5.14,"codigo":"84176","color":"#009E73","confianza":"Media","corr":0.52,"familia":"Convencionales","lat":-1.65333,"lon":-78.54889,"mae":5.14,"modelo":"ICON","n":15,"nombre":"Riobamba","rating":2.54,"region":"Interandina","rmse":5.39},{"bias":-1.69,"codigo":"84075","color":"#004E89","confianza":"Media","corr":0.28,"familia":"Convencionales","lat":-0.14083,"lon":-78.353,"mae":4.15,"modelo":"IFSHRES","n":15,"nombre":"Tababela","rating":2.53,"region":"Interandina","rmse":5.58}],"metricas":{"calif_media":4.3,"estaciones":40,"mas_ganador":"IFSHRES"},"modo":"continuous","ranking":[{"bias":-2.25,"color":"#004E89","confianza":"Media","corr":0.56,"estaciones":40,"familia":"Convencionales","mae":2.46,"modelo":"IFSHRES","n":15,"rating":3.8,"rmse":2.76},{"bias":-3.06,"color":"#56B4E9","confianza":"Media","corr":0.57,"estaciones":40,"familia":"Convencionales","mae":3.26,"modelo":"AIFS025","n":15,"rating":3.62,"rmse":3.48},{"bias":-2.61,"color":"#009E73","confianza":"Media","corr":0.53,"estaciones":40,"familia":"Convencionales","mae":2.94,"modelo":"ICON","n":15,"rating":3.52,"rmse":3.24},{"bias":-3.44,"color":"#0072B2","confianza":"Media","corr":0.5,"estaciones":40,"familia":"Convencionales","mae":3.87,"modelo":"IFS025","n":15,"rating":3.39,"rmse":4.1},{"bias":-2.97,"color":"#E69F00","confianza":"Media","corr":0.39,"estaciones":40,"familia":"Convencionales","mae":3.52,"modelo":"GFS05","n":15,"rating":3.13,"rmse":3.88}],"sintesis_region":[{"modelo":"IFSHRES","region":"Amazonia"},{"modelo":"IFSHRES","region":"Insular"},{"modelo":"IFSHRES","region":"Interandina"},{"modelo":"IFSHRES","region":"Litoral"}],"ventana":"15"}
