{"bloque":"tmax","bloques":[{"clave":"precip_det","etiqueta":"Precipitaci\u00f3n: detecci\u00f3n"},{"clave":"precip_cua","etiqueta":"Precipitaci\u00f3n: cuantificaci\u00f3n"},{"clave":"tmax","etiqueta":"Temperatura m\u00e1xima"},{"clave":"tmin","etiqueta":"Temperatura m\u00ednima"}],"estaciones":[{"codigo":"84099","nombre":"El Coca","region":"Amazonia"},{"codigo":"84253","nombre":"Gualaquiza","region":"Amazonia"},{"codigo":"84151","nombre":"Jumandy","region":"Amazonia"},{"codigo":"84063","nombre":"Lago Agrio","region":"Amazonia"},{"codigo":"84217","nombre":"Macas","region":"Amazonia"},{"codigo":"84132","nombre":"N. Rocafu","region":"Amazonia"},{"codigo":"84163","nombre":"Pastaza","region":"Amazonia"},{"codigo":"84179","nombre":"Puyo","region":"Amazonia"},{"codigo":"84001","nombre":"Baltra","region":"Insular"},{"codigo":"84008","nombre":"S. Cristobal","region":"Insular"},{"codigo":"84010","nombre":"S. Cristobal A","region":"Insular"},{"codigo":"84147","nombre":"Ambato","region":"Interandina"},{"codigo":"84226","nombre":"Ca\u00f1ar","region":"Interandina"},{"codigo":"84239","nombre":"Cuenca","region":"Interandina"},{"codigo":"84173","nombre":"ESPOCH","region":"Interandina"},{"codigo":"M1240","nombre":"Ibarra","region":"Interandina"},{"codigo":"84045","nombre":"Inguincho","region":"Interandina"},{"codigo":"84088","nombre":"Izobamba","region":"Interandina"},{"codigo":"M0024","nombre":"I\u00f1aquito","region":"Interandina"},{"codigo":"84076","nombre":"La Tola","region":"Interandina"},{"codigo":"84265","nombre":"La Toma","region":"Interandina"},{"codigo":"84123","nombre":"Latacunga","region":"Interandina"},{"codigo":"84270","nombre":"Loja Argelia","region":"Interandina"},{"codigo":"84160","nombre":"Querochaca","region":"Interandina"},{"codigo":"84176","nombre":"Riobamba","region":"Interandina"},{"codigo":"84143","nombre":"Rumipamba","region":"Interandina"},{"codigo":"84036","nombre":"S. Gabriel","region":"Interandina"},{"codigo":"84075","nombre":"Tababela","region":"Interandina"},{"codigo":"84056","nombre":"Tomal\u00f3n","region":"Interandina"},{"codigo":"84027","nombre":"Tulc\u00e1n","region":"Interandina"},{"codigo":"84018","nombre":"Esmeraldas","region":"Litoral"},{"codigo":"84203","nombre":"Guayaquil","region":"Litoral"},{"codigo":"84050","nombre":"La Concordia","region":"Litoral"},{"codigo":"84117","nombre":"Manta","region":"Litoral"},{"codigo":"M0037","nombre":"Milagro","region":"Litoral"},{"codigo":"84140","nombre":"Pichilingue","region":"Litoral"},{"codigo":"84135","nombre":"Portoviejo","region":"Litoral"},{"codigo":"84105","nombre":"Puerto Ila","region":"Litoral"},{"codigo":"84200","nombre":"Salinas","region":"Litoral"},{"codigo":"84252","nombre":"Sta. Rosa","region":"Litoral"}],"familia":"Postprocesamiento","ganadores":[{"bias":-0.04,"codigo":"84203","color":"#1F78B4","confianza":"Alta","corr":0.72,"familia":"Postprocesamiento","lat":-2.15333,"lon":-79.88333,"mae":0.69,"modelo":"QM_METEOBLUE","n":30,"nombre":"Guayaquil","rating":7.24,"region":"Litoral","rmse":0.89},{"bias":-0.05,"codigo":"84105","color":"#111111","confianza":"Alta","corr":0.76,"familia":"Postprocesamiento","lat":-0.493,"lon":-79.34892,"mae":0.72,"modelo":"BEST_OP_CV","n":30,"nombre":"Puerto Ila","rating":7.18,"region":"Litoral","rmse":0.92},{"bias":-0.11,"codigo":"84036","color":"#0B6E4F","confianza":"Alta","corr":0.65,"familia":"Postprocesamiento","lat":0.60417,"lon":-77.81944,"mae":0.81,"modelo":"CONSENSO_OP_TOP5","n":30,"nombre":"S. Gabriel","rating":6.79,"region":"Interandina","rmse":1.02},{"bias":0.02,"codigo":"84123","color":"#0B6E4F","confianza":"Alta","corr":0.59,"familia":"Postprocesamiento","lat":-0.91333,"lon":-78.61556,"mae":0.82,"modelo":"CONSENSO_OP_TOP5","n":30,"nombre":"Latacunga","rating":6.75,"region":"Interandina","rmse":1.15},{"bias":-0.02,"codigo":"84117","color":"#A65628","confianza":"Alta","corr":0.5,"familia":"Postprocesamiento","lat":-0.95,"lon":-80.68333,"mae":0.88,"modelo":"BC_CLASSIC_METEOBLUE","n":30,"nombre":"Manta","rating":6.6,"region":"Litoral","rmse":1.13},{"bias":0.06,"codigo":"84088","color":"#1F78B4","confianza":"Alta","corr":0.72,"familia":"Postprocesamiento","lat":-0.36593,"lon":-78.55513,"mae":0.99,"modelo":"QM_METEOBLUE","n":30,"nombre":"Izobamba","rating":6.46,"region":"Interandina","rmse":1.34},{"bias":0.07,"codigo":"84163","color":"#0B6E4F","confianza":"Alta","corr":0.54,"familia":"Postprocesamiento","lat":-1.5,"lon":-78.06667,"mae":0.89,"modelo":"CONSENSO_OP_TOP5","n":30,"nombre":"Pastaza","rating":6.41,"region":"Amazonia","rmse":1.35},{"bias":-0.34,"codigo":"84027","color":"#0B6E4F","confianza":"Alta","corr":0.5,"familia":"Postprocesamiento","lat":0.81667,"lon":-77.7,"mae":0.78,"modelo":"CONSENSO_OP_TOP5","n":30,"nombre":"Tulc\u00e1n","rating":6.29,"region":"Interandina","rmse":1.16},{"bias":-0.36,"codigo":"84018","color":"#0B6E4F","confianza":"Alta","corr":0.55,"familia":"Postprocesamiento","lat":0.97917,"lon":-79.62444,"mae":0.83,"modelo":"CONSENSO_OP_TOP5","n":30,"nombre":"Esmeraldas","rating":6.24,"region":"Litoral","rmse":1.15},{"bias":0.28,"codigo":"84045","color":"#111111","confianza":"Alta","corr":0.53,"familia":"Postprocesamiento","lat":0.25694,"lon":-78.40524,"mae":0.87,"modelo":"BEST_OP_CV","n":30,"nombre":"Inguincho","rating":6.21,"region":"Interandina","rmse":1.24},{"bias":-0.29,"codigo":"84050","color":"#0B6E4F","confianza":"Alta","corr":0.66,"familia":"Postprocesamiento","lat":-0.02478,"lon":-79.38028,"mae":1.0,"modelo":"CONSENSO_OP_TOP5","n":30,"nombre":"La Concordia","rating":6.19,"region":"Litoral","rmse":1.17},{"bias":0.05,"codigo":"84147","color":"#0B6E4F","confianza":"Alta","corr":0.72,"familia":"Postprocesamiento","lat":-1.21413,"lon":-78.57455,"mae":1.16,"modelo":"CONSENSO_OP_TOP5","n":30,"nombre":"Ambato","rating":6.17,"region":"Interandina","rmse":1.5},{"bias":0.0,"codigo":"84140","color":"#A65628","confianza":"Alta","corr":0.51,"familia":"Postprocesamiento","lat":-1.07434,"lon":-79.4929,"mae":1.11,"modelo":"BC_CLASSIC_METEOBLUE","n":30,"nombre":"Pichilingue","rating":6.14,"region":"Litoral","rmse":1.46},{"bias":0.36,"codigo":"M0037","color":"#0B6E4F","confianza":"Alta","corr":0.68,"familia":"Postprocesamiento","lat":-2.11805,"lon":-79.60038,"mae":1.02,"modelo":"CONSENSO_OP_TOP5","n":30,"nombre":"Milagro","rating":5.92,"region":"Litoral","rmse":1.46},{"bias":-0.11,"codigo":"84252","color":"#1F78B4","confianza":"Alta","corr":0.62,"familia":"Postprocesamiento","lat":-3.43583,"lon":-79.98333,"mae":1.16,"modelo":"QM_METEOBLUE","n":30,"nombre":"Sta. Rosa","rating":5.89,"region":"Litoral","rmse":1.69},{"bias":-0.16,"codigo":"84160","color":"#CC79A7","confianza":"Alta","corr":0.68,"familia":"Postprocesamiento","lat":-1.3671,"lon":-78.60554,"mae":1.19,"modelo":"BC_CLASSIC_IFSHRES","n":30,"nombre":"Querochaca","rating":5.88,"region":"Interandina","rmse":1.59},{"bias":-0.35,"codigo":"84226","color":"#A65628","confianza":"Alta","corr":0.6,"familia":"Postprocesamiento","lat":-2.55221,"lon":-78.94519,"mae":1.08,"modelo":"BC_CLASSIC_METEOBLUE","n":30,"nombre":"Ca\u00f1ar","rating":5.82,"region":"Interandina","rmse":1.39},{"bias":0.0,"codigo":"84132","color":"#F781BF","confianza":"Alta","corr":0.42,"familia":"Postprocesamiento","lat":-0.92003,"lon":-75.40303,"mae":1.27,"modelo":"BC_CLASSIC_AIFS025","n":30,"nombre":"N. Rocafu","rating":5.82,"region":"Amazonia","rmse":1.59},{"bias":0.04,"codigo":"84151","color":"#111111","confianza":"Alta","corr":0.55,"familia":"Postprocesamiento","lat":-1.057,"lon":-77.584,"mae":1.34,"modelo":"BEST_OP_CV","n":30,"nombre":"Jumandy","rating":5.76,"region":"Amazonia","rmse":1.69},{"bias":-0.08,"codigo":"84010","color":"#CC79A7","confianza":"Alta","corr":-0.22,"familia":"Postprocesamiento","lat":-0.909,"lon":-89.617,"mae":0.87,"modelo":"QM_IFSHRES","n":30,"nombre":"S. Cristobal A","rating":5.66,"region":"Insular","rmse":1.45},{"bias":-0.15,"codigo":"84179","color":"#F781BF","confianza":"Alta","corr":0.53,"familia":"Postprocesamiento","lat":-1.5057,"lon":-77.956,"mae":1.3,"modelo":"BC_CLASSIC_AIFS025","n":30,"nombre":"Puyo","rating":5.64,"region":"Amazonia","rmse":1.64},{"bias":-0.5,"codigo":"84001","color":"#0B6E4F","confianza":"Alta","corr":0.34,"familia":"Postprocesamiento","lat":-0.445,"lon":-90.269,"mae":0.88,"modelo":"CONSENSO_OP_TOP5","n":30,"nombre":"Baltra","rating":5.62,"region":"Insular","rmse":1.52},{"bias":0.02,"codigo":"84200","color":"#1F78B4","confianza":"Alta","corr":0.21,"familia":"Postprocesamiento","lat":-2.2,"lon":-80.98972,"mae":1.2,"modelo":"QM_METEOBLUE","n":30,"nombre":"Salinas","rating":5.57,"region":"Litoral","rmse":1.76},{"bias":-0.07,"codigo":"84063","color":"#1F78B4","confianza":"Alta","corr":0.53,"familia":"Postprocesamiento","lat":0.0925,"lon":-76.86944,"mae":1.45,"modelo":"QM_METEOBLUE","n":30,"nombre":"Lago Agrio","rating":5.48,"region":"Amazonia","rmse":1.9},{"bias":-0.05,"codigo":"84270","color":"#111111","confianza":"Alta","corr":0.45,"familia":"Postprocesamiento","lat":-4.0375,"lon":-79.2034,"mae":1.53,"modelo":"BEST_OP_CV","n":30,"nombre":"Loja Argelia","rating":5.33,"region":"Interandina","rmse":2.0},{"bias":-0.1,"codigo":"84253","color":"#CC79A7","confianza":"Alta","corr":0.56,"familia":"Postprocesamiento","lat":-3.42333,"lon":-78.56694,"mae":1.59,"modelo":"BC_CLASSIC_IFSHRES","n":30,"nombre":"Gualaquiza","rating":5.29,"region":"Amazonia","rmse":2.05},{"bias":-0.48,"codigo":"M1240","color":"#0B6E4F","confianza":"Alta","corr":0.49,"familia":"Postprocesamiento","lat":0.32978,"lon":-78.1322,"mae":1.26,"modelo":"CONSENSO_OP_TOP5","n":30,"nombre":"Ibarra","rating":5.23,"region":"Interandina","rmse":1.7},{"bias":-0.51,"codigo":"84135","color":"#1B9E77","confianza":"Alta","corr":0.41,"familia":"Postprocesamiento","lat":-1.17343,"lon":-80.38736,"mae":1.26,"modelo":"BC_CLASSIC_IFS025","n":30,"nombre":"Portoviejo","rating":5.1,"region":"Litoral","rmse":1.74},{"bias":0.01,"codigo":"84143","color":"#1F78B4","confianza":"Alta","corr":0.24,"familia":"Postprocesamiento","lat":-1.01998,"lon":-78.59456,"mae":1.59,"modelo":"QM_METEOBLUE","n":30,"nombre":"Rumipamba","rating":5.08,"region":"Interandina","rmse":2.2},{"bias":-0.29,"codigo":"84099","color":"#A65628","confianza":"Alta","corr":0.57,"familia":"Postprocesamiento","lat":-0.46056,"lon":-76.98806,"mae":1.57,"modelo":"BC_CLASSIC_METEOBLUE","n":30,"nombre":"El Coca","rating":4.98,"region":"Amazonia","rmse":2.23},{"bias":-0.02,"codigo":"M0024","color":"#CC79A7","confianza":"Alta","corr":0.4,"familia":"Postprocesamiento","lat":-0.1783,"lon":-78.48773,"mae":1.9,"modelo":"BC_CLASSIC_IFSHRES","n":30,"nombre":"I\u00f1aquito","rating":4.94,"region":"Interandina","rmse":2.34},{"bias":-0.26,"codigo":"84265","color":"#A65628","confianza":"Alta","corr":0.42,"familia":"Postprocesamiento","lat":-3.99556,"lon":-79.37167,"mae":1.44,"modelo":"BC_CLASSIC_METEOBLUE","n":30,"nombre":"La Toma","rating":4.9,"region":"Interandina","rmse":2.47},{"bias":-0.36,"codigo":"84008","color":"#E7298A","confianza":"Alta","corr":0.06,"familia":"Postprocesamiento","lat":-0.90406,"lon":-89.61431,"mae":1.27,"modelo":"BC_CLASSIC_GFS05","n":30,"nombre":"S. Cristobal","rating":4.88,"region":"Insular","rmse":1.81},{"bias":-0.37,"codigo":"84217","color":"#0B6E4F","confianza":"Alta","corr":0.52,"familia":"Postprocesamiento","lat":-2.29861,"lon":-78.12056,"mae":1.67,"modelo":"CONSENSO_OP_TOP5","n":30,"nombre":"Macas","rating":4.79,"region":"Amazonia","rmse":2.2},{"bias":-0.05,"codigo":"84239","color":"#1F78B4","confianza":"Alta","corr":0.3,"familia":"Postprocesamiento","lat":-2.88917,"lon":-78.98417,"mae":1.78,"modelo":"QM_METEOBLUE","n":30,"nombre":"Cuenca","rating":4.78,"region":"Interandina","rmse":2.61},{"bias":-1.03,"codigo":"84173","color":"#0B6E4F","confianza":"Alta","corr":0.62,"familia":"Postprocesamiento","lat":-1.65083,"lon":-78.68521,"mae":1.44,"modelo":"CONSENSO_OP_TOP5","n":30,"nombre":"ESPOCH","rating":4.71,"region":"Interandina","rmse":1.89},{"bias":-0.96,"codigo":"84176","color":"#111111","confianza":"Alta","corr":0.31,"familia":"Postprocesamiento","lat":-1.65333,"lon":-78.54889,"mae":1.3,"modelo":"BEST_OP_CV","n":30,"nombre":"Riobamba","rating":4.56,"region":"Interandina","rmse":1.96},{"bias":-0.15,"codigo":"84076","color":"#D55E00","confianza":"Alta","corr":0.08,"familia":"Postprocesamiento","lat":-0.23179,"lon":-78.37043,"mae":1.77,"modelo":"QM_AIFS025","n":30,"nombre":"La Tola","rating":4.47,"region":"Interandina","rmse":2.54},{"bias":-0.66,"codigo":"84075","color":"#1F78B4","confianza":"Alta","corr":0.38,"familia":"Postprocesamiento","lat":-0.14083,"lon":-78.353,"mae":1.56,"modelo":"QM_METEOBLUE","n":30,"nombre":"Tababela","rating":4.35,"region":"Interandina","rmse":2.57},{"bias":-0.28,"codigo":"84056","color":"#E7298A","confianza":"Alta","corr":0.1,"familia":"Postprocesamiento","lat":0.01116,"lon":-78.25505,"mae":1.96,"modelo":"BC_CLASSIC_GFS05","n":30,"nombre":"Tomal\u00f3n","rating":4.15,"region":"Interandina","rmse":2.73}],"metricas":{"calif_media":5.6,"estaciones":40,"mas_ganador":"CONSENSO_OP_TOP5"},"modo":"continuous","ranking":[{"bias":-0.33,"color":"#0B6E4F","confianza":"Alta","corr":0.44,"estaciones":40,"familia":"Postprocesamiento","mae":1.22,"modelo":"CONSENSO_OP_TOP5","n":30,"rating":5.41,"rmse":1.7},{"bias":-0.36,"color":"#111111","confianza":"Alta","corr":0.44,"estaciones":40,"familia":"Postprocesamiento","mae":1.23,"modelo":"BEST_OP_CV","n":30,"rating":5.39,"rmse":1.71},{"bias":-0.42,"color":"#A65628","confianza":"Alta","corr":0.46,"estaciones":40,"familia":"Postprocesamiento","mae":1.42,"modelo":"BC_CLASSIC_METEOBLUE","n":30,"rating":5.11,"rmse":1.96},{"bias":-0.4,"color":"#1F78B4","confianza":"Alta","corr":0.49,"estaciones":40,"familia":"Postprocesamiento","mae":1.54,"modelo":"QM_METEOBLUE","n":30,"rating":4.99,"rmse":2.06},{"bias":-0.1,"color":"#CC79A7","confianza":"Alta","corr":0.3,"estaciones":40,"familia":"Postprocesamiento","mae":1.66,"modelo":"BC_CLASSIC_IFSHRES","n":30,"rating":4.73,"rmse":2.19},{"bias":-0.36,"color":"#F781BF","confianza":"Alta","corr":0.3,"estaciones":40,"familia":"Postprocesamiento","mae":1.62,"modelo":"BC_CLASSIC_AIFS025","n":30,"rating":4.68,"rmse":2.15},{"bias":-0.21,"color":"#7570B3","confianza":"Alta","corr":0.3,"estaciones":40,"familia":"Postprocesamiento","mae":1.74,"modelo":"BC_CLASSIC_ICON","n":30,"rating":4.55,"rmse":2.28},{"bias":-0.13,"color":"#1B9E77","confianza":"Alta","corr":0.24,"estaciones":40,"familia":"Postprocesamiento","mae":1.85,"modelo":"BC_CLASSIC_IFS025","n":30,"rating":4.39,"rmse":2.47},{"bias":0.02,"color":"#CC79A7","confianza":"Alta","corr":0.36,"estaciones":40,"familia":"Postprocesamiento","mae":1.78,"modelo":"QM_IFSHRES","n":30,"rating":4.33,"rmse":2.22},{"bias":-0.31,"color":"#D55E00","confianza":"Alta","corr":0.34,"estaciones":40,"familia":"Postprocesamiento","mae":2.12,"modelo":"QM_AIFS025","n":30,"rating":4.14,"rmse":2.6},{"bias":-0.2,"color":"#FB9A99","confianza":"Alta","corr":0.37,"estaciones":40,"familia":"Postprocesamiento","mae":2.01,"modelo":"QM_ICON","n":30,"rating":4.11,"rmse":2.46},{"bias":-0.15,"color":"#E7298A","confianza":"Alta","corr":0.26,"estaciones":40,"familia":"Postprocesamiento","mae":2.12,"modelo":"BC_CLASSIC_GFS05","n":30,"rating":4.08,"rmse":2.73},{"bias":-0.31,"color":"#984EA3","confianza":"Alta","corr":0.17,"estaciones":40,"familia":"Postprocesamiento","mae":1.91,"modelo":"EMOS_GAUSS","n":30,"rating":4.05,"rmse":2.33},{"bias":-0.06,"color":"#B2DF8A","confianza":"Alta","corr":0.3,"estaciones":40,"familia":"Postprocesamiento","mae":2.36,"modelo":"QM_IFS025","n":30,"rating":3.88,"rmse":2.8},{"bias":0.05,"color":"#FDBF6F","confianza":"Alta","corr":0.28,"estaciones":40,"familia":"Postprocesamiento","mae":2.5,"modelo":"QM_GFS05","n":30,"rating":3.74,"rmse":2.97},{"bias":-2.88,"color":"#17A398","confianza":"Alta","corr":0.54,"estaciones":40,"familia":"Postprocesamiento","mae":3.03,"modelo":"ENS_MEDIAN","n":30,"rating":3.51,"rmse":3.3},{"bias":-2.94,"color":"#8A2BE2","confianza":"Alta","corr":0.58,"estaciones":40,"familia":"Postprocesamiento","mae":3.07,"modelo":"ENS_MEAN","n":30,"rating":3.48,"rmse":3.33},{"bias":-0.53,"color":"#B33DC6","confianza":"Media","corr":0.01,"estaciones":40,"familia":"Postprocesamiento","mae":4.82,"modelo":"NGR","n":25,"rating":2.27,"rmse":5.26}],"sintesis_region":[{"modelo":"CONSENSO_OP_TOP5","region":"Amazonia"},{"modelo":"QM_IFSHRES","region":"Insular"},{"modelo":"CONSENSO_OP_TOP5","region":"Interandina"},{"modelo":"QM_METEOBLUE","region":"Litoral"}],"ventana":"30"}
