{"bloque":"tmax","bloques":[{"clave":"precip_det","etiqueta":"Precipitaci\u00f3n: detecci\u00f3n"},{"clave":"precip_cua","etiqueta":"Precipitaci\u00f3n: cuantificaci\u00f3n"},{"clave":"tmax","etiqueta":"Temperatura m\u00e1xima"},{"clave":"tmin","etiqueta":"Temperatura m\u00ednima"}],"estaciones":[{"codigo":"84099","nombre":"El Coca","region":"Amazonia"},{"codigo":"84253","nombre":"Gualaquiza","region":"Amazonia"},{"codigo":"84151","nombre":"Jumandy","region":"Amazonia"},{"codigo":"84063","nombre":"Lago Agrio","region":"Amazonia"},{"codigo":"84217","nombre":"Macas","region":"Amazonia"},{"codigo":"84132","nombre":"N. Rocafu","region":"Amazonia"},{"codigo":"84163","nombre":"Pastaza","region":"Amazonia"},{"codigo":"84179","nombre":"Puyo","region":"Amazonia"},{"codigo":"84001","nombre":"Baltra","region":"Insular"},{"codigo":"84008","nombre":"S. Cristobal","region":"Insular"},{"codigo":"84010","nombre":"S. Cristobal A","region":"Insular"},{"codigo":"84147","nombre":"Ambato","region":"Interandina"},{"codigo":"84226","nombre":"Ca\u00f1ar","region":"Interandina"},{"codigo":"84239","nombre":"Cuenca","region":"Interandina"},{"codigo":"84173","nombre":"ESPOCH","region":"Interandina"},{"codigo":"M1240","nombre":"Ibarra","region":"Interandina"},{"codigo":"84045","nombre":"Inguincho","region":"Interandina"},{"codigo":"84088","nombre":"Izobamba","region":"Interandina"},{"codigo":"M0024","nombre":"I\u00f1aquito","region":"Interandina"},{"codigo":"84076","nombre":"La Tola","region":"Interandina"},{"codigo":"84265","nombre":"La Toma","region":"Interandina"},{"codigo":"84123","nombre":"Latacunga","region":"Interandina"},{"codigo":"84270","nombre":"Loja Argelia","region":"Interandina"},{"codigo":"84160","nombre":"Querochaca","region":"Interandina"},{"codigo":"84176","nombre":"Riobamba","region":"Interandina"},{"codigo":"84143","nombre":"Rumipamba","region":"Interandina"},{"codigo":"84036","nombre":"S. Gabriel","region":"Interandina"},{"codigo":"84075","nombre":"Tababela","region":"Interandina"},{"codigo":"84056","nombre":"Tomal\u00f3n","region":"Interandina"},{"codigo":"84027","nombre":"Tulc\u00e1n","region":"Interandina"},{"codigo":"84018","nombre":"Esmeraldas","region":"Litoral"},{"codigo":"84203","nombre":"Guayaquil","region":"Litoral"},{"codigo":"84050","nombre":"La Concordia","region":"Litoral"},{"codigo":"84117","nombre":"Manta","region":"Litoral"},{"codigo":"M0037","nombre":"Milagro","region":"Litoral"},{"codigo":"84140","nombre":"Pichilingue","region":"Litoral"},{"codigo":"84135","nombre":"Portoviejo","region":"Litoral"},{"codigo":"84105","nombre":"Puerto Ila","region":"Litoral"},{"codigo":"84200","nombre":"Salinas","region":"Litoral"},{"codigo":"84252","nombre":"Sta. Rosa","region":"Litoral"}],"familia":"No convencionales","ganadores":[{"bias":-0.53,"codigo":"84200","color":"#D55E00","confianza":"Alta","corr":0.66,"familia":"No convencionales","lat":-2.2,"lon":-80.98972,"mae":0.54,"modelo":"METEOBLUE","n":30,"nombre":"Salinas","rating":7.07,"region":"Litoral","rmse":0.65},{"bias":-0.22,"codigo":"84105","color":"#D55E00","confianza":"Alta","corr":0.69,"familia":"No convencionales","lat":-0.493,"lon":-79.34892,"mae":0.8,"modelo":"METEOBLUE","n":30,"nombre":"Puerto Ila","rating":6.66,"region":"Litoral","rmse":1.05},{"bias":0.17,"codigo":"84163","color":"#648FFF","confianza":"Alta","corr":0.62,"familia":"No convencionales","lat":-1.5,"lon":-78.06667,"mae":0.98,"modelo":"UMGLOBAL10","n":30,"nombre":"Pastaza","rating":6.3,"region":"Amazonia","rmse":1.22},{"bias":-0.14,"codigo":"84140","color":"#D55E00","confianza":"Alta","corr":0.61,"familia":"No convencionales","lat":-1.07434,"lon":-79.4929,"mae":1.0,"modelo":"METEOBLUE","n":30,"nombre":"Pichilingue","rating":6.28,"region":"Litoral","rmse":1.26},{"bias":-0.26,"codigo":"84045","color":"#A6761D","confianza":"Alta","corr":0.67,"familia":"No convencionales","lat":0.25694,"lon":-78.40524,"mae":1.12,"modelo":"NEMSSA","n":30,"nombre":"Inguincho","rating":5.94,"region":"Interandina","rmse":1.39},{"bias":0.17,"codigo":"84088","color":"#4DAF4A","confianza":"Alta","corr":0.62,"familia":"No convencionales","lat":-0.36593,"lon":-78.55513,"mae":1.16,"modelo":"NEMSGLOBAL_E","n":30,"nombre":"Izobamba","rating":5.93,"region":"Interandina","rmse":1.48},{"bias":0.11,"codigo":"84203","color":"#CC79A7","confianza":"Alta","corr":0.65,"familia":"No convencionales","lat":-2.15333,"lon":-79.88333,"mae":1.29,"modelo":"GEM15","n":30,"nombre":"Guayaquil","rating":5.87,"region":"Litoral","rmse":1.53},{"bias":0.01,"codigo":"84179","color":"#648FFF","confianza":"Alta","corr":0.47,"familia":"No convencionales","lat":-1.5057,"lon":-77.956,"mae":1.27,"modelo":"UMGLOBAL10","n":30,"nombre":"Puyo","rating":5.83,"region":"Amazonia","rmse":1.65},{"bias":0.42,"codigo":"84117","color":"#B33DC6","confianza":"Alta","corr":0.51,"familia":"No convencionales","lat":-0.95,"lon":-80.68333,"mae":1.06,"modelo":"SA01","n":30,"nombre":"Manta","rating":5.76,"region":"Litoral","rmse":1.28},{"bias":0.26,"codigo":"M0037","color":"#D55E00","confianza":"Media","corr":0.49,"familia":"No convencionales","lat":-2.11805,"lon":-79.60038,"mae":1.09,"modelo":"METEOBLUE","n":25,"nombre":"Milagro","rating":5.76,"region":"Litoral","rmse":1.48},{"bias":-0.71,"codigo":"84123","color":"#CC79A7","confianza":"Alta","corr":0.61,"familia":"No convencionales","lat":-0.91333,"lon":-78.61556,"mae":1.08,"modelo":"GEM15","n":30,"nombre":"Latacunga","rating":5.54,"region":"Interandina","rmse":1.36},{"bias":-0.33,"codigo":"84143","color":"#A6761D","confianza":"Alta","corr":0.49,"familia":"No convencionales","lat":-1.01998,"lon":-78.59456,"mae":1.29,"modelo":"NEMSSA","n":30,"nombre":"Rumipamba","rating":5.35,"region":"Interandina","rmse":1.69},{"bias":-0.45,"codigo":"84270","color":"#648FFF","confianza":"Alta","corr":0.69,"familia":"No convencionales","lat":-4.0375,"lon":-79.2034,"mae":1.47,"modelo":"UMGLOBAL10","n":30,"nombre":"Loja Argelia","rating":5.22,"region":"Interandina","rmse":1.74},{"bias":-1.01,"codigo":"84036","color":"#D55E00","confianza":"Alta","corr":0.6,"familia":"No convencionales","lat":0.60417,"lon":-77.81944,"mae":1.15,"modelo":"METEOBLUE","n":30,"nombre":"S. Gabriel","rating":5.2,"region":"Interandina","rmse":1.48},{"bias":-1.07,"codigo":"84252","color":"#D55E00","confianza":"Alta","corr":0.77,"familia":"No convencionales","lat":-3.43583,"lon":-79.98333,"mae":1.38,"modelo":"METEOBLUE","n":30,"nombre":"Sta. Rosa","rating":5.05,"region":"Litoral","rmse":1.56},{"bias":-0.97,"codigo":"84018","color":"#B33DC6","confianza":"Alta","corr":0.49,"familia":"No convencionales","lat":0.97917,"lon":-79.62444,"mae":1.27,"modelo":"SA01","n":30,"nombre":"Esmeraldas","rating":4.98,"region":"Litoral","rmse":1.5},{"bias":-1.26,"codigo":"84265","color":"#D55E00","confianza":"Alta","corr":0.81,"familia":"No convencionales","lat":-3.99556,"lon":-79.37167,"mae":1.37,"modelo":"METEOBLUE","n":30,"nombre":"La Toma","rating":4.96,"region":"Interandina","rmse":1.67},{"bias":-0.86,"codigo":"84226","color":"#00A9A5","confianza":"Alta","corr":0.56,"familia":"No convencionales","lat":-2.55221,"lon":-78.94519,"mae":1.34,"modelo":"NEMSGLOBAL","n":30,"nombre":"Ca\u00f1ar","rating":4.93,"region":"Interandina","rmse":1.7},{"bias":-0.96,"codigo":"84076","color":"#D55E00","confianza":"Alta","corr":0.63,"familia":"No convencionales","lat":-0.23179,"lon":-78.37043,"mae":1.34,"modelo":"METEOBLUE","n":30,"nombre":"La Tola","rating":4.91,"region":"Interandina","rmse":1.76},{"bias":-0.88,"codigo":"84160","color":"#A6761D","confianza":"Alta","corr":0.6,"familia":"No convencionales","lat":-1.3671,"lon":-78.60554,"mae":1.35,"modelo":"NEMSSA","n":30,"nombre":"Querochaca","rating":4.87,"region":"Interandina","rmse":1.86},{"bias":-1.1,"codigo":"84063","color":"#D55E00","confianza":"Alta","corr":0.7,"familia":"No convencionales","lat":0.0925,"lon":-76.86944,"mae":1.46,"modelo":"METEOBLUE","n":30,"nombre":"Lago Agrio","rating":4.76,"region":"Amazonia","rmse":1.82},{"bias":0.21,"codigo":"84217","color":"#CC79A7","confianza":"Alta","corr":0.52,"familia":"No convencionales","lat":-2.29861,"lon":-78.12056,"mae":1.91,"modelo":"GEM15","n":30,"nombre":"Macas","rating":4.75,"region":"Amazonia","rmse":2.4},{"bias":-1.26,"codigo":"84010","color":"#D55E00","confianza":"Alta","corr":0.42,"familia":"No convencionales","lat":-0.909,"lon":-89.617,"mae":1.27,"modelo":"METEOBLUE","n":30,"nombre":"S. Cristobal A","rating":4.72,"region":"Insular","rmse":1.65},{"bias":-1.43,"codigo":"84239","color":"#D55E00","confianza":"Alta","corr":0.81,"familia":"No convencionales","lat":-2.88917,"lon":-78.98417,"mae":1.48,"modelo":"METEOBLUE","n":30,"nombre":"Cuenca","rating":4.72,"region":"Interandina","rmse":1.85},{"bias":-0.4,"codigo":"84132","color":"#CC79A7","confianza":"Alta","corr":0.33,"familia":"No convencionales","lat":-0.92003,"lon":-75.40303,"mae":1.67,"modelo":"GEM15","n":30,"nombre":"N. Rocafu","rating":4.6,"region":"Amazonia","rmse":2.14},{"bias":-0.94,"codigo":"84151","color":"#D55E00","confianza":"Alta","corr":0.57,"familia":"No convencionales","lat":-1.057,"lon":-77.584,"mae":1.66,"modelo":"METEOBLUE","n":30,"nombre":"Jumandy","rating":4.53,"region":"Amazonia","rmse":1.91},{"bias":-1.37,"codigo":"84027","color":"#785EF0","confianza":"Alta","corr":0.38,"familia":"No convencionales","lat":0.81667,"lon":-77.7,"mae":1.53,"modelo":"MFGLOBAL","n":30,"nombre":"Tulc\u00e1n","rating":4.32,"region":"Interandina","rmse":1.84},{"bias":-1.61,"codigo":"84050","color":"#D55E00","confianza":"Alta","corr":0.61,"familia":"No convencionales","lat":-0.02478,"lon":-79.38028,"mae":1.73,"modelo":"METEOBLUE","n":30,"nombre":"La Concordia","rating":4.24,"region":"Litoral","rmse":1.99},{"bias":-1.64,"codigo":"84099","color":"#D55E00","confianza":"Alta","corr":0.75,"familia":"No convencionales","lat":-0.46056,"lon":-76.98806,"mae":1.79,"modelo":"METEOBLUE","n":30,"nombre":"El Coca","rating":4.21,"region":"Amazonia","rmse":2.27},{"bias":1.51,"codigo":"M1240","color":"#648FFF","confianza":"Alta","corr":0.54,"familia":"No convencionales","lat":0.32978,"lon":-78.1322,"mae":1.7,"modelo":"UMGLOBAL10","n":30,"nombre":"Ibarra","rating":4.11,"region":"Interandina","rmse":2.26},{"bias":-1.67,"codigo":"84008","color":"#D55E00","confianza":"Alta","corr":0.3,"familia":"No convencionales","lat":-0.90406,"lon":-89.61431,"mae":1.7,"modelo":"METEOBLUE","n":30,"nombre":"S. Cristobal","rating":3.92,"region":"Insular","rmse":2.11},{"bias":-1.82,"codigo":"84001","color":"#648FFF","confianza":"Alta","corr":0.37,"familia":"No convencionales","lat":-0.445,"lon":-90.269,"mae":1.82,"modelo":"UMGLOBAL10","n":30,"nombre":"Baltra","rating":3.92,"region":"Insular","rmse":2.0},{"bias":-1.6,"codigo":"M0024","color":"#CC79A7","confianza":"Alta","corr":0.55,"familia":"No convencionales","lat":-0.1783,"lon":-78.48773,"mae":1.94,"modelo":"GEM15","n":30,"nombre":"I\u00f1aquito","rating":3.82,"region":"Interandina","rmse":2.61},{"bias":-1.64,"codigo":"84135","color":"#CC79A7","confianza":"Alta","corr":0.41,"familia":"No convencionales","lat":-1.17343,"lon":-80.38736,"mae":1.94,"modelo":"GEM15","n":30,"nombre":"Portoviejo","rating":3.74,"region":"Litoral","rmse":2.45},{"bias":-2.24,"codigo":"84147","color":"#D55E00","confianza":"Alta","corr":0.61,"familia":"No convencionales","lat":-1.21413,"lon":-78.57455,"mae":2.24,"modelo":"METEOBLUE","n":30,"nombre":"Ambato","rating":3.56,"region":"Interandina","rmse":2.82},{"bias":-2.45,"codigo":"84253","color":"#D55E00","confianza":"Alta","corr":0.61,"familia":"No convencionales","lat":-3.42333,"lon":-78.56694,"mae":2.45,"modelo":"METEOBLUE","n":30,"nombre":"Gualaquiza","rating":3.39,"region":"Amazonia","rmse":3.11},{"bias":-1.1,"codigo":"84075","color":"#D55E00","confianza":"Alta","corr":0.42,"familia":"No convencionales","lat":-0.14083,"lon":-78.353,"mae":2.53,"modelo":"METEOBLUE","n":30,"nombre":"Tababela","rating":3.28,"region":"Interandina","rmse":4.1},{"bias":-2.9,"codigo":"84173","color":"#D55E00","confianza":"Alta","corr":0.65,"familia":"No convencionales","lat":-1.65083,"lon":-78.68521,"mae":2.9,"modelo":"METEOBLUE","n":30,"nombre":"ESPOCH","rating":3.22,"region":"Interandina","rmse":3.29},{"bias":-2.9,"codigo":"84056","color":"#A6761D","confianza":"Alta","corr":0.62,"familia":"No convencionales","lat":0.01116,"lon":-78.25505,"mae":3.01,"modelo":"NEMSSA","n":30,"nombre":"Tomal\u00f3n","rating":3.11,"region":"Interandina","rmse":3.53},{"bias":-3.63,"codigo":"84176","color":"#4DAF4A","confianza":"Alta","corr":0.6,"familia":"No convencionales","lat":-1.65333,"lon":-78.54889,"mae":3.67,"modelo":"NEMSGLOBAL_E","n":30,"nombre":"Riobamba","rating":2.91,"region":"Interandina","rmse":3.81}],"metricas":{"calif_media":4.8,"estaciones":40,"mas_ganador":"METEOBLUE"},"modo":"continuous","ranking":[{"bias":-1.61,"color":"#D55E00","confianza":"Alta","corr":0.61,"estaciones":40,"familia":"No convencionales","mae":1.9,"modelo":"METEOBLUE","n":30,"rating":4.4,"rmse":2.27},{"bias":-2.32,"color":"#CC79A7","confianza":"Alta","corr":0.43,"estaciones":40,"familia":"No convencionales","mae":2.85,"modelo":"GEM15","n":30,"rating":3.54,"rmse":3.29},{"bias":-2.53,"color":"#A6761D","confianza":"Alta","corr":0.41,"estaciones":37,"familia":"No convencionales","mae":2.97,"modelo":"NEMSSA","n":30,"rating":3.42,"rmse":3.35},{"bias":-3.38,"color":"#648FFF","confianza":"Alta","corr":0.5,"estaciones":40,"familia":"No convencionales","mae":3.65,"modelo":"UMGLOBAL10","n":30,"rating":3.4,"rmse":3.92},{"bias":-2.88,"color":"#785EF0","confianza":"Alta","corr":0.42,"estaciones":40,"familia":"No convencionales","mae":3.34,"modelo":"MFGLOBAL","n":30,"rating":3.19,"rmse":3.72},{"bias":-2.74,"color":"#4DAF4A","confianza":"Alta","corr":0.36,"estaciones":40,"familia":"No convencionales","mae":3.26,"modelo":"NEMSGLOBAL_E","n":30,"rating":3.11,"rmse":3.67},{"bias":-2.72,"color":"#00A9A5","confianza":"Alta","corr":0.35,"estaciones":40,"familia":"No convencionales","mae":3.32,"modelo":"NEMSGLOBAL","n":30,"rating":3.07,"rmse":3.74},{"bias":-4.13,"color":"#B33DC6","confianza":"Media","corr":0.35,"estaciones":36,"familia":"No convencionales","mae":4.53,"modelo":"SA01","n":29,"rating":3.01,"rmse":4.91}],"sintesis_region":[{"modelo":"METEOBLUE","region":"Amazonia"},{"modelo":"METEOBLUE","region":"Insular"},{"modelo":"METEOBLUE","region":"Interandina"},{"modelo":"METEOBLUE","region":"Litoral"}],"ventana":"30"}
