{"bloque":"tmax","bloques":[{"clave":"precip_det","etiqueta":"Precipitaci\u00f3n: detecci\u00f3n"},{"clave":"precip_cua","etiqueta":"Precipitaci\u00f3n: cuantificaci\u00f3n"},{"clave":"tmax","etiqueta":"Temperatura m\u00e1xima"},{"clave":"tmin","etiqueta":"Temperatura m\u00ednima"}],"estaciones":[{"codigo":"84099","nombre":"El Coca","region":"Amazonia"},{"codigo":"84253","nombre":"Gualaquiza","region":"Amazonia"},{"codigo":"84151","nombre":"Jumandy","region":"Amazonia"},{"codigo":"84063","nombre":"Lago Agrio","region":"Amazonia"},{"codigo":"84217","nombre":"Macas","region":"Amazonia"},{"codigo":"84132","nombre":"N. Rocafu","region":"Amazonia"},{"codigo":"84163","nombre":"Pastaza","region":"Amazonia"},{"codigo":"84179","nombre":"Puyo","region":"Amazonia"},{"codigo":"84001","nombre":"Baltra","region":"Insular"},{"codigo":"84008","nombre":"S. Cristobal","region":"Insular"},{"codigo":"84010","nombre":"S. Cristobal A","region":"Insular"},{"codigo":"84147","nombre":"Ambato","region":"Interandina"},{"codigo":"84226","nombre":"Ca\u00f1ar","region":"Interandina"},{"codigo":"84239","nombre":"Cuenca","region":"Interandina"},{"codigo":"84173","nombre":"ESPOCH","region":"Interandina"},{"codigo":"M1240","nombre":"Ibarra","region":"Interandina"},{"codigo":"84045","nombre":"Inguincho","region":"Interandina"},{"codigo":"84088","nombre":"Izobamba","region":"Interandina"},{"codigo":"M0024","nombre":"I\u00f1aquito","region":"Interandina"},{"codigo":"84076","nombre":"La Tola","region":"Interandina"},{"codigo":"84265","nombre":"La Toma","region":"Interandina"},{"codigo":"84123","nombre":"Latacunga","region":"Interandina"},{"codigo":"84270","nombre":"Loja Argelia","region":"Interandina"},{"codigo":"84160","nombre":"Querochaca","region":"Interandina"},{"codigo":"84176","nombre":"Riobamba","region":"Interandina"},{"codigo":"84143","nombre":"Rumipamba","region":"Interandina"},{"codigo":"84036","nombre":"S. Gabriel","region":"Interandina"},{"codigo":"84075","nombre":"Tababela","region":"Interandina"},{"codigo":"84056","nombre":"Tomal\u00f3n","region":"Interandina"},{"codigo":"84027","nombre":"Tulc\u00e1n","region":"Interandina"},{"codigo":"84018","nombre":"Esmeraldas","region":"Litoral"},{"codigo":"84203","nombre":"Guayaquil","region":"Litoral"},{"codigo":"84050","nombre":"La Concordia","region":"Litoral"},{"codigo":"84117","nombre":"Manta","region":"Litoral"},{"codigo":"M0037","nombre":"Milagro","region":"Litoral"},{"codigo":"84140","nombre":"Pichilingue","region":"Litoral"},{"codigo":"84135","nombre":"Portoviejo","region":"Litoral"},{"codigo":"84105","nombre":"Puerto Ila","region":"Litoral"},{"codigo":"84200","nombre":"Salinas","region":"Litoral"},{"codigo":"84252","nombre":"Sta. Rosa","region":"Litoral"}],"familia":"No convencionales","ganadores":[{"bias":-0.51,"codigo":"84200","color":"#D55E00","confianza":"Media","corr":0.68,"familia":"No convencionales","lat":-2.2,"lon":-80.98972,"mae":0.51,"modelo":"METEOBLUE","n":15,"nombre":"Salinas","rating":7.22,"region":"Litoral","rmse":0.6},{"bias":-0.26,"codigo":"84088","color":"#DC267F","confianza":"Media","corr":0.57,"familia":"No convencionales","lat":-0.36593,"lon":-78.55513,"mae":0.57,"modelo":"NEMSGLOBAL_E","n":15,"nombre":"Izobamba","rating":7.13,"region":"Interandina","rmse":0.73},{"bias":0.07,"codigo":"84045","color":"#A6761D","confianza":"Media","corr":0.6,"familia":"No convencionales","lat":0.25694,"lon":-78.40524,"mae":0.73,"modelo":"NEMSSA","n":15,"nombre":"Inguincho","rating":7.06,"region":"Interandina","rmse":0.83},{"bias":0.0,"codigo":"84117","color":"#A6761D","confianza":"Media","corr":0.33,"familia":"No convencionales","lat":-0.95,"lon":-80.68333,"mae":0.71,"modelo":"NEMSSA","n":15,"nombre":"Manta","rating":6.93,"region":"Litoral","rmse":0.86},{"bias":-0.11,"codigo":"84160","color":"#A6761D","confianza":"Media","corr":0.78,"familia":"No convencionales","lat":-1.3671,"lon":-78.60554,"mae":0.82,"modelo":"NEMSSA","n":15,"nombre":"Querochaca","rating":6.89,"region":"Interandina","rmse":1.01},{"bias":0.71,"codigo":"M1240","color":"#648FFF","confianza":"Media","corr":0.76,"familia":"No convencionales","lat":0.32978,"lon":-78.1322,"mae":0.82,"modelo":"UMGLOBAL10","n":15,"nombre":"Ibarra","rating":6.3,"region":"Interandina","rmse":0.95},{"bias":-0.52,"codigo":"84252","color":"#D55E00","confianza":"Media","corr":0.85,"familia":"No convencionales","lat":-3.43583,"lon":-79.98333,"mae":0.93,"modelo":"METEOBLUE","n":15,"nombre":"Sta. Rosa","rating":6.2,"region":"Litoral","rmse":1.19},{"bias":-0.1,"codigo":"84140","color":"#D55E00","confianza":"Media","corr":0.42,"familia":"No convencionales","lat":-1.07434,"lon":-79.4929,"mae":0.99,"modelo":"METEOBLUE","n":15,"nombre":"Pichilingue","rating":6.17,"region":"Litoral","rmse":1.26},{"bias":-0.12,"codigo":"84179","color":"#CC79A7","confianza":"Media","corr":0.76,"familia":"No convencionales","lat":-1.5057,"lon":-77.956,"mae":1.16,"modelo":"GEM15","n":15,"nombre":"Puyo","rating":6.14,"region":"Amazonia","rmse":1.44},{"bias":-0.88,"codigo":"84203","color":"#D55E00","confianza":"Media","corr":0.81,"familia":"No convencionales","lat":-2.15333,"lon":-79.88333,"mae":0.94,"modelo":"METEOBLUE","n":15,"nombre":"Guayaquil","rating":6.0,"region":"Litoral","rmse":1.05},{"bias":-0.83,"codigo":"84163","color":"#D55E00","confianza":"Media","corr":0.85,"familia":"No convencionales","lat":-1.5,"lon":-78.06667,"mae":0.98,"modelo":"METEOBLUE","n":15,"nombre":"Pastaza","rating":5.91,"region":"Amazonia","rmse":1.19},{"bias":0.35,"codigo":"84143","color":"#A6761D","confianza":"Media","corr":0.52,"familia":"No convencionales","lat":-1.01998,"lon":-78.59456,"mae":0.98,"modelo":"NEMSSA","n":15,"nombre":"Rumipamba","rating":5.9,"region":"Interandina","rmse":1.35},{"bias":-0.77,"codigo":"84123","color":"#CC79A7","confianza":"Media","corr":0.54,"familia":"No convencionales","lat":-0.91333,"lon":-78.61556,"mae":0.94,"modelo":"GEM15","n":15,"nombre":"Latacunga","rating":5.77,"region":"Interandina","rmse":1.12},{"bias":-0.43,"codigo":"84105","color":"#D55E00","confianza":"Media","corr":0.39,"familia":"No convencionales","lat":-0.493,"lon":-79.34892,"mae":1.04,"modelo":"METEOBLUE","n":15,"nombre":"Puerto Ila","rating":5.64,"region":"Litoral","rmse":1.33},{"bias":0.39,"codigo":"84270","color":"#648FFF","confianza":"Media","corr":0.69,"familia":"No convencionales","lat":-4.0375,"lon":-79.2034,"mae":1.3,"modelo":"UMGLOBAL10","n":15,"nombre":"Loja Argelia","rating":5.52,"region":"Interandina","rmse":1.56},{"bias":0.51,"codigo":"M0037","color":"#D55E00","confianza":"Media","corr":0.51,"familia":"No convencionales","lat":-2.11805,"lon":-79.60038,"mae":1.12,"modelo":"METEOBLUE","n":15,"nombre":"Milagro","rating":5.38,"region":"Litoral","rmse":1.66},{"bias":-1.01,"codigo":"84010","color":"#D55E00","confianza":"Media","corr":0.55,"familia":"No convencionales","lat":-0.909,"lon":-89.617,"mae":1.01,"modelo":"METEOBLUE","n":15,"nombre":"S. Cristobal A","rating":5.36,"region":"Insular","rmse":1.42},{"bias":-1.2,"codigo":"84099","color":"#D55E00","confianza":"Media","corr":0.92,"familia":"No convencionales","lat":-0.46056,"lon":-76.98806,"mae":1.26,"modelo":"METEOBLUE","n":15,"nombre":"El Coca","rating":5.23,"region":"Amazonia","rmse":1.58},{"bias":-0.8,"codigo":"84076","color":"#D55E00","confianza":"Media","corr":0.38,"familia":"No convencionales","lat":-0.23179,"lon":-78.37043,"mae":1.16,"modelo":"METEOBLUE","n":15,"nombre":"La Tola","rating":5.19,"region":"Interandina","rmse":1.35},{"bias":-0.73,"codigo":"M0024","color":"#CC79A7","confianza":"Media","corr":0.48,"familia":"No convencionales","lat":-0.1783,"lon":-78.48773,"mae":1.2,"modelo":"GEM15","n":15,"nombre":"I\u00f1aquito","rating":5.15,"region":"Interandina","rmse":1.57},{"bias":-1.02,"codigo":"84135","color":"#CC79A7","confianza":"Media","corr":0.58,"familia":"No convencionales","lat":-1.17343,"lon":-80.38736,"mae":1.27,"modelo":"GEM15","n":15,"nombre":"Portoviejo","rating":5.08,"region":"Litoral","rmse":1.45},{"bias":-0.76,"codigo":"84147","color":"#A6761D","confianza":"Media","corr":0.69,"familia":"No convencionales","lat":-1.21413,"lon":-78.57455,"mae":1.4,"modelo":"NEMSSA","n":15,"nombre":"Ambato","rating":5.03,"region":"Interandina","rmse":1.73},{"bias":-1.15,"codigo":"84018","color":"#D55E00","confianza":"Media","corr":0.52,"familia":"No convencionales","lat":0.97917,"lon":-79.62444,"mae":1.19,"modelo":"METEOBLUE","n":15,"nombre":"Esmeraldas","rating":5.01,"region":"Litoral","rmse":1.52},{"bias":-1.36,"codigo":"84239","color":"#D55E00","confianza":"Media","corr":0.83,"familia":"No convencionales","lat":-2.88917,"lon":-78.98417,"mae":1.36,"modelo":"METEOBLUE","n":15,"nombre":"Cuenca","rating":4.96,"region":"Interandina","rmse":1.66},{"bias":-1.23,"codigo":"84063","color":"#D55E00","confianza":"Media","corr":0.75,"familia":"No convencionales","lat":0.0925,"lon":-76.86944,"mae":1.35,"modelo":"METEOBLUE","n":15,"nombre":"Lago Agrio","rating":4.9,"region":"Amazonia","rmse":1.74},{"bias":-0.16,"codigo":"84217","color":"#CC79A7","confianza":"Media","corr":0.48,"familia":"No convencionales","lat":-2.29861,"lon":-78.12056,"mae":1.77,"modelo":"GEM15","n":15,"nombre":"Macas","rating":4.9,"region":"Amazonia","rmse":2.31},{"bias":-0.92,"codigo":"84226","color":"#00A9A5","confianza":"Media","corr":0.51,"familia":"No convencionales","lat":-2.55221,"lon":-78.94519,"mae":1.33,"modelo":"NEMSGLOBAL","n":15,"nombre":"Ca\u00f1ar","rating":4.86,"region":"Interandina","rmse":1.7},{"bias":-1.17,"codigo":"84036","color":"#D55E00","confianza":"Media","corr":0.3,"familia":"No convencionales","lat":0.60417,"lon":-77.81944,"mae":1.22,"modelo":"METEOBLUE","n":15,"nombre":"S. Gabriel","rating":4.77,"region":"Interandina","rmse":1.53},{"bias":-0.47,"codigo":"84132","color":"#CC79A7","confianza":"Media","corr":0.42,"familia":"No convencionales","lat":-0.92003,"lon":-75.40303,"mae":1.61,"modelo":"GEM15","n":15,"nombre":"N. Rocafu","rating":4.72,"region":"Amazonia","rmse":2.02},{"bias":-1.42,"codigo":"84008","color":"#D55E00","confianza":"Media","corr":0.56,"familia":"No convencionales","lat":-0.90406,"lon":-89.61431,"mae":1.42,"modelo":"METEOBLUE","n":15,"nombre":"S. Cristobal","rating":4.58,"region":"Insular","rmse":1.77},{"bias":-0.85,"codigo":"84151","color":"#D55E00","confianza":"Media","corr":0.44,"familia":"No convencionales","lat":-1.057,"lon":-77.584,"mae":1.59,"modelo":"METEOBLUE","n":15,"nombre":"Jumandy","rating":4.54,"region":"Amazonia","rmse":1.86},{"bias":-1.65,"codigo":"84027","color":"#648FFF","confianza":"Media","corr":0.64,"familia":"No convencionales","lat":0.81667,"lon":-77.7,"mae":1.65,"modelo":"UMGLOBAL10","n":15,"nombre":"Tulc\u00e1n","rating":4.3,"region":"Interandina","rmse":2.02},{"bias":-1.44,"codigo":"84265","color":"#D55E00","confianza":"Media","corr":0.46,"familia":"No convencionales","lat":-3.99556,"lon":-79.37167,"mae":1.64,"modelo":"METEOBLUE","n":15,"nombre":"La Toma","rating":4.19,"region":"Interandina","rmse":2.04},{"bias":-1.69,"codigo":"84001","color":"#D55E00","confianza":"Media","corr":0.7,"familia":"No convencionales","lat":-0.445,"lon":-90.269,"mae":1.78,"modelo":"METEOBLUE","n":15,"nombre":"Baltra","rating":4.17,"region":"Insular","rmse":2.22},{"bias":-1.73,"codigo":"84050","color":"#785EF0","confianza":"Media","corr":0.58,"familia":"No convencionales","lat":-0.02478,"lon":-79.38028,"mae":1.78,"modelo":"MFGLOBAL","n":15,"nombre":"La Concordia","rating":4.16,"region":"Litoral","rmse":1.99},{"bias":-1.52,"codigo":"84075","color":"#D55E00","confianza":"Media","corr":0.6,"familia":"No convencionales","lat":-0.14083,"lon":-78.353,"mae":1.86,"modelo":"METEOBLUE","n":15,"nombre":"Tababela","rating":4.13,"region":"Interandina","rmse":2.09},{"bias":-1.74,"codigo":"84056","color":"#A6761D","confianza":"Media","corr":0.39,"familia":"No convencionales","lat":0.01116,"lon":-78.25505,"mae":1.96,"modelo":"NEMSSA","n":15,"nombre":"Tomal\u00f3n","rating":3.74,"region":"Interandina","rmse":2.33},{"bias":-2.61,"codigo":"84253","color":"#D55E00","confianza":"Media","corr":0.58,"familia":"No convencionales","lat":-3.42333,"lon":-78.56694,"mae":2.61,"modelo":"METEOBLUE","n":15,"nombre":"Gualaquiza","rating":3.22,"region":"Amazonia","rmse":3.41},{"bias":-3.3,"codigo":"84176","color":"#DC267F","confianza":"Media","corr":0.58,"familia":"No convencionales","lat":-1.65333,"lon":-78.54889,"mae":3.38,"modelo":"NEMSGLOBAL_E","n":15,"nombre":"Riobamba","rating":2.99,"region":"Interandina","rmse":3.53},{"bias":-3.47,"codigo":"84173","color":"#D55E00","confianza":"Media","corr":0.36,"familia":"No convencionales","lat":-1.65083,"lon":-78.68521,"mae":3.47,"modelo":"METEOBLUE","n":15,"nombre":"ESPOCH","rating":2.69,"region":"Interandina","rmse":4.0}],"metricas":{"calif_media":5.2,"estaciones":40,"mas_ganador":"METEOBLUE"},"modo":"continuous","ranking":[{"bias":-1.57,"color":"#D55E00","confianza":"Media","corr":0.58,"estaciones":40,"familia":"No convencionales","mae":1.77,"modelo":"METEOBLUE","n":15,"rating":4.57,"rmse":2.08},{"bias":-2.15,"color":"#CC79A7","confianza":"Media","corr":0.42,"estaciones":40,"familia":"No convencionales","mae":2.67,"modelo":"GEM15","n":15,"rating":3.74,"rmse":2.96},{"bias":-2.25,"color":"#A6761D","confianza":"Media","corr":0.39,"estaciones":37,"familia":"No convencionales","mae":2.71,"modelo":"NEMSSA","n":15,"rating":3.68,"rmse":3.03},{"bias":-3.38,"color":"#648FFF","confianza":"Media","corr":0.4,"estaciones":40,"familia":"No convencionales","mae":3.59,"modelo":"UMGLOBAL10","n":15,"rating":3.39,"rmse":3.83},{"bias":-2.53,"color":"#DC267F","confianza":"Media","corr":0.33,"estaciones":40,"familia":"No convencionales","mae":3.07,"modelo":"NEMSGLOBAL_E","n":15,"rating":3.3,"rmse":3.37},{"bias":-2.34,"color":"#00A9A5","confianza":"Media","corr":0.32,"estaciones":40,"familia":"No convencionales","mae":2.99,"modelo":"NEMSGLOBAL","n":15,"rating":3.27,"rmse":3.3},{"bias":-2.73,"color":"#785EF0","confianza":"Media","corr":0.3,"estaciones":40,"familia":"No convencionales","mae":3.15,"modelo":"MFGLOBAL","n":15,"rating":3.2,"rmse":3.5},{"bias":-3.86,"color":"#B33DC6","confianza":"Media","corr":0.31,"estaciones":36,"familia":"No convencionales","mae":4.26,"modelo":"SA01","n":15,"rating":3.05,"rmse":4.59}],"sintesis_region":[{"modelo":"METEOBLUE","region":"Amazonia"},{"modelo":"METEOBLUE","region":"Insular"},{"modelo":"METEOBLUE","region":"Interandina"},{"modelo":"METEOBLUE","region":"Litoral"}],"ventana":"15"}
