{"bloque":"tmax","bloques":[{"clave":"precip_det","etiqueta":"Precipitaci\u00f3n: detecci\u00f3n"},{"clave":"precip_cua","etiqueta":"Precipitaci\u00f3n: cuantificaci\u00f3n"},{"clave":"tmax","etiqueta":"Temperatura m\u00e1xima"},{"clave":"tmin","etiqueta":"Temperatura m\u00ednima"}],"estaciones":[{"codigo":"84099","nombre":"El Coca","region":"Amazonia"},{"codigo":"84253","nombre":"Gualaquiza","region":"Amazonia"},{"codigo":"84151","nombre":"Jumandy","region":"Amazonia"},{"codigo":"84063","nombre":"Lago Agrio","region":"Amazonia"},{"codigo":"84217","nombre":"Macas","region":"Amazonia"},{"codigo":"84132","nombre":"N. Rocafu","region":"Amazonia"},{"codigo":"84163","nombre":"Pastaza","region":"Amazonia"},{"codigo":"84179","nombre":"Puyo","region":"Amazonia"},{"codigo":"84001","nombre":"Baltra","region":"Insular"},{"codigo":"84008","nombre":"S. Cristobal","region":"Insular"},{"codigo":"84010","nombre":"S. Cristobal A","region":"Insular"},{"codigo":"84147","nombre":"Ambato","region":"Interandina"},{"codigo":"84226","nombre":"Ca\u00f1ar","region":"Interandina"},{"codigo":"84239","nombre":"Cuenca","region":"Interandina"},{"codigo":"84173","nombre":"ESPOCH","region":"Interandina"},{"codigo":"M1240","nombre":"Ibarra","region":"Interandina"},{"codigo":"84045","nombre":"Inguincho","region":"Interandina"},{"codigo":"84088","nombre":"Izobamba","region":"Interandina"},{"codigo":"M0024","nombre":"I\u00f1aquito","region":"Interandina"},{"codigo":"84076","nombre":"La Tola","region":"Interandina"},{"codigo":"84265","nombre":"La Toma","region":"Interandina"},{"codigo":"84123","nombre":"Latacunga","region":"Interandina"},{"codigo":"84270","nombre":"Loja Argelia","region":"Interandina"},{"codigo":"84160","nombre":"Querochaca","region":"Interandina"},{"codigo":"84176","nombre":"Riobamba","region":"Interandina"},{"codigo":"84143","nombre":"Rumipamba","region":"Interandina"},{"codigo":"84036","nombre":"S. Gabriel","region":"Interandina"},{"codigo":"84075","nombre":"Tababela","region":"Interandina"},{"codigo":"84056","nombre":"Tomal\u00f3n","region":"Interandina"},{"codigo":"84027","nombre":"Tulc\u00e1n","region":"Interandina"},{"codigo":"84018","nombre":"Esmeraldas","region":"Litoral"},{"codigo":"84203","nombre":"Guayaquil","region":"Litoral"},{"codigo":"84050","nombre":"La Concordia","region":"Litoral"},{"codigo":"84117","nombre":"Manta","region":"Litoral"},{"codigo":"M0037","nombre":"Milagro","region":"Litoral"},{"codigo":"84140","nombre":"Pichilingue","region":"Litoral"},{"codigo":"84135","nombre":"Portoviejo","region":"Litoral"},{"codigo":"84105","nombre":"Puerto Ila","region":"Litoral"},{"codigo":"84200","nombre":"Salinas","region":"Litoral"},{"codigo":"84252","nombre":"Sta. Rosa","region":"Litoral"}],"familia":"No convencionales","ganadores":[{"bias":-0.52,"codigo":"84200","color":"#D55E00","confianza":"Alta","corr":0.71,"familia":"No convencionales","lat":-2.2,"lon":-80.98972,"mae":0.53,"modelo":"METEOBLUE","n":30,"nombre":"Salinas","rating":7.14,"region":"Litoral","rmse":0.64},{"bias":-0.28,"codigo":"84105","color":"#D55E00","confianza":"Alta","corr":0.78,"familia":"No convencionales","lat":-0.493,"lon":-79.34892,"mae":0.77,"modelo":"METEOBLUE","n":30,"nombre":"Puerto Ila","rating":6.8,"region":"Litoral","rmse":0.94},{"bias":0.31,"codigo":"84163","color":"#648FFF","confianza":"Alta","corr":0.68,"familia":"No convencionales","lat":-1.5,"lon":-78.06667,"mae":0.88,"modelo":"UMGLOBAL10","n":30,"nombre":"Pastaza","rating":6.38,"region":"Amazonia","rmse":1.1},{"bias":-0.14,"codigo":"84140","color":"#D55E00","confianza":"Alta","corr":0.66,"familia":"No convencionales","lat":-1.07434,"lon":-79.4929,"mae":1.02,"modelo":"METEOBLUE","n":30,"nombre":"Pichilingue","rating":6.31,"region":"Litoral","rmse":1.24},{"bias":-0.03,"codigo":"84088","color":"#56B4E9","confianza":"Alta","corr":0.68,"familia":"No convencionales","lat":-0.36593,"lon":-78.55513,"mae":1.21,"modelo":"NEMSGLOBAL_E","n":30,"nombre":"Izobamba","rating":6.1,"region":"Interandina","rmse":1.52},{"bias":0.27,"codigo":"84179","color":"#648FFF","confianza":"Alta","corr":0.66,"familia":"No convencionales","lat":-1.5057,"lon":-77.956,"mae":1.02,"modelo":"UMGLOBAL10","n":30,"nombre":"Puyo","rating":6.08,"region":"Amazonia","rmse":1.32},{"bias":-0.88,"codigo":"84117","color":"#D55E00","confianza":"Alta","corr":0.79,"familia":"No convencionales","lat":-0.95,"lon":-80.68333,"mae":0.89,"modelo":"METEOBLUE","n":30,"nombre":"Manta","rating":5.88,"region":"Litoral","rmse":1.28},{"bias":-0.86,"codigo":"84018","color":"#D55E00","confianza":"Alta","corr":0.72,"familia":"No convencionales","lat":0.97917,"lon":-79.62444,"mae":0.94,"modelo":"METEOBLUE","n":30,"nombre":"Esmeraldas","rating":5.79,"region":"Litoral","rmse":1.24},{"bias":-0.39,"codigo":"84045","color":"#A6761D","confianza":"Alta","corr":0.69,"familia":"No convencionales","lat":0.25694,"lon":-78.40524,"mae":1.13,"modelo":"NEMSSA","n":30,"nombre":"Inguincho","rating":5.79,"region":"Interandina","rmse":1.42},{"bias":0.26,"codigo":"M0037","color":"#D55E00","confianza":"Media","corr":0.49,"familia":"No convencionales","lat":-2.11805,"lon":-79.60038,"mae":1.09,"modelo":"METEOBLUE","n":25,"nombre":"Milagro","rating":5.76,"region":"Litoral","rmse":1.48},{"bias":-0.56,"codigo":"84036","color":"#D55E00","confianza":"Alta","corr":0.5,"familia":"No convencionales","lat":0.60417,"lon":-77.81944,"mae":1.0,"modelo":"METEOBLUE","n":30,"nombre":"S. Gabriel","rating":5.73,"region":"Interandina","rmse":1.25},{"bias":-1.1,"codigo":"84203","color":"#D55E00","confianza":"Alta","corr":0.8,"familia":"No convencionales","lat":-2.15333,"lon":-79.88333,"mae":1.12,"modelo":"METEOBLUE","n":30,"nombre":"Guayaquil","rating":5.49,"region":"Litoral","rmse":1.3},{"bias":-0.79,"codigo":"84123","color":"#CC79A7","confianza":"Alta","corr":0.63,"familia":"No convencionales","lat":-0.91333,"lon":-78.61556,"mae":1.13,"modelo":"GEM15","n":30,"nombre":"Latacunga","rating":5.43,"region":"Interandina","rmse":1.4},{"bias":-0.52,"codigo":"84270","color":"#648FFF","confianza":"Alta","corr":0.71,"familia":"No convencionales","lat":-4.0375,"lon":-79.2034,"mae":1.33,"modelo":"UMGLOBAL10","n":30,"nombre":"Loja Argelia","rating":5.38,"region":"Interandina","rmse":1.59},{"bias":-1.19,"codigo":"84252","color":"#D55E00","confianza":"Alta","corr":0.88,"familia":"No convencionales","lat":-3.43583,"lon":-79.98333,"mae":1.29,"modelo":"METEOBLUE","n":30,"nombre":"Sta. Rosa","rating":5.25,"region":"Litoral","rmse":1.46},{"bias":-1.05,"codigo":"84010","color":"#D55E00","confianza":"Alta","corr":0.4,"familia":"No convencionales","lat":-0.909,"lon":-89.617,"mae":1.06,"modelo":"METEOBLUE","n":30,"nombre":"S. Cristobal A","rating":5.14,"region":"Insular","rmse":1.42},{"bias":-1.05,"codigo":"84063","color":"#D55E00","confianza":"Alta","corr":0.79,"familia":"No convencionales","lat":0.0925,"lon":-76.86944,"mae":1.35,"modelo":"METEOBLUE","n":30,"nombre":"Lago Agrio","rating":5.08,"region":"Amazonia","rmse":1.62},{"bias":-1.0,"codigo":"84076","color":"#D55E00","confianza":"Alta","corr":0.72,"familia":"No convencionales","lat":-0.23179,"lon":-78.37043,"mae":1.32,"modelo":"METEOBLUE","n":30,"nombre":"La Tola","rating":4.99,"region":"Interandina","rmse":1.74},{"bias":-1.28,"codigo":"84265","color":"#D55E00","confianza":"Alta","corr":0.81,"familia":"No convencionales","lat":-3.99556,"lon":-79.37167,"mae":1.36,"modelo":"METEOBLUE","n":30,"nombre":"La Toma","rating":4.98,"region":"Interandina","rmse":1.66},{"bias":-0.55,"codigo":"84143","color":"#A6761D","confianza":"Alta","corr":0.48,"familia":"No convencionales","lat":-1.01998,"lon":-78.59456,"mae":1.42,"modelo":"NEMSSA","n":30,"nombre":"Rumipamba","rating":4.96,"region":"Interandina","rmse":1.78},{"bias":0.05,"codigo":"84217","color":"#CC79A7","confianza":"Alta","corr":0.47,"familia":"No convencionales","lat":-2.29861,"lon":-78.12056,"mae":1.9,"modelo":"GEM15","n":30,"nombre":"Macas","rating":4.94,"region":"Amazonia","rmse":2.39},{"bias":-1.33,"codigo":"84239","color":"#D55E00","confianza":"Alta","corr":0.84,"familia":"No convencionales","lat":-2.88917,"lon":-78.98417,"mae":1.39,"modelo":"METEOBLUE","n":30,"nombre":"Cuenca","rating":4.92,"region":"Interandina","rmse":1.71},{"bias":-0.83,"codigo":"84226","color":"#00A9A5","confianza":"Alta","corr":0.47,"familia":"No convencionales","lat":-2.55221,"lon":-78.94519,"mae":1.31,"modelo":"NEMSGLOBAL","n":30,"nombre":"Ca\u00f1ar","rating":4.86,"region":"Interandina","rmse":1.76},{"bias":-0.46,"codigo":"84132","color":"#CC79A7","confianza":"Alta","corr":0.48,"familia":"No convencionales","lat":-0.92003,"lon":-75.40303,"mae":1.56,"modelo":"GEM15","n":30,"nombre":"N. Rocafu","rating":4.8,"region":"Amazonia","rmse":2.06},{"bias":-1.25,"codigo":"84008","color":"#D55E00","confianza":"Alta","corr":0.46,"familia":"No convencionales","lat":-0.90406,"lon":-89.61431,"mae":1.27,"modelo":"METEOBLUE","n":30,"nombre":"S. Cristobal","rating":4.78,"region":"Insular","rmse":1.6},{"bias":-1.52,"codigo":"84027","color":"#D55E00","confianza":"Alta","corr":0.79,"familia":"No convencionales","lat":0.81667,"lon":-77.7,"mae":1.52,"modelo":"METEOBLUE","n":30,"nombre":"Tulc\u00e1n","rating":4.71,"region":"Interandina","rmse":1.72},{"bias":-0.9,"codigo":"84151","color":"#D55E00","confianza":"Alta","corr":0.63,"familia":"No convencionales","lat":-1.057,"lon":-77.584,"mae":1.63,"modelo":"METEOBLUE","n":30,"nombre":"Jumandy","rating":4.63,"region":"Amazonia","rmse":1.9},{"bias":-1.56,"codigo":"84050","color":"#D55E00","confianza":"Alta","corr":0.72,"familia":"No convencionales","lat":-0.02478,"lon":-79.38028,"mae":1.68,"modelo":"METEOBLUE","n":30,"nombre":"La Concordia","rating":4.44,"region":"Litoral","rmse":1.88},{"bias":-1.15,"codigo":"84160","color":"#A6761D","confianza":"Alta","corr":0.49,"familia":"No convencionales","lat":-1.3671,"lon":-78.60554,"mae":1.61,"modelo":"NEMSSA","n":30,"nombre":"Querochaca","rating":4.3,"region":"Interandina","rmse":2.12},{"bias":1.32,"codigo":"M1240","color":"#648FFF","confianza":"Alta","corr":0.54,"familia":"No convencionales","lat":0.32978,"lon":-78.1322,"mae":1.68,"modelo":"UMGLOBAL10","n":30,"nombre":"Ibarra","rating":4.18,"region":"Interandina","rmse":2.27},{"bias":-1.78,"codigo":"84135","color":"#B33DC6","confianza":"Alta","corr":0.68,"familia":"No convencionales","lat":-1.17343,"lon":-80.38736,"mae":1.89,"modelo":"SA01","n":30,"nombre":"Portoviejo","rating":4.09,"region":"Litoral","rmse":2.19},{"bias":-1.87,"codigo":"84001","color":"#648FFF","confianza":"Alta","corr":0.41,"familia":"No convencionales","lat":-0.445,"lon":-90.269,"mae":1.87,"modelo":"UMGLOBAL10","n":30,"nombre":"Baltra","rating":3.91,"region":"Insular","rmse":2.03},{"bias":-1.99,"codigo":"84099","color":"#D55E00","confianza":"Alta","corr":0.75,"familia":"No convencionales","lat":-0.46056,"lon":-76.98806,"mae":2.11,"modelo":"METEOBLUE","n":30,"nombre":"El Coca","rating":3.88,"region":"Amazonia","rmse":2.52},{"bias":-1.66,"codigo":"M0024","color":"#CC79A7","confianza":"Alta","corr":0.57,"familia":"No convencionales","lat":-0.1783,"lon":-78.48773,"mae":2.05,"modelo":"GEM15","n":30,"nombre":"I\u00f1aquito","rating":3.75,"region":"Interandina","rmse":2.68},{"bias":-2.13,"codigo":"84253","color":"#D55E00","confianza":"Alta","corr":0.63,"familia":"No convencionales","lat":-3.42333,"lon":-78.56694,"mae":2.13,"modelo":"METEOBLUE","n":30,"nombre":"Gualaquiza","rating":3.66,"region":"Amazonia","rmse":2.77},{"bias":-2.25,"codigo":"84147","color":"#D55E00","confianza":"Alta","corr":0.59,"familia":"No convencionales","lat":-1.21413,"lon":-78.57455,"mae":2.25,"modelo":"METEOBLUE","n":30,"nombre":"Ambato","rating":3.54,"region":"Interandina","rmse":2.82},{"bias":-0.97,"codigo":"84075","color":"#D55E00","confianza":"Alta","corr":0.47,"familia":"No convencionales","lat":-0.14083,"lon":-78.353,"mae":2.4,"modelo":"METEOBLUE","n":30,"nombre":"Tababela","rating":3.44,"region":"Interandina","rmse":4.07},{"bias":-2.16,"codigo":"84056","color":"#D55E00","confianza":"Alta","corr":0.39,"familia":"No convencionales","lat":0.01116,"lon":-78.25505,"mae":2.68,"modelo":"METEOBLUE","n":30,"nombre":"Tomal\u00f3n","rating":3.15,"region":"Interandina","rmse":3.09},{"bias":-3.07,"codigo":"84173","color":"#D55E00","confianza":"Alta","corr":0.63,"familia":"No convencionales","lat":-1.65083,"lon":-78.68521,"mae":3.07,"modelo":"METEOBLUE","n":30,"nombre":"ESPOCH","rating":3.09,"region":"Interandina","rmse":3.61},{"bias":-3.51,"codigo":"84176","color":"#56B4E9","confianza":"Alta","corr":0.57,"familia":"No convencionales","lat":-1.65333,"lon":-78.54889,"mae":3.55,"modelo":"NEMSGLOBAL_E","n":30,"nombre":"Riobamba","rating":2.92,"region":"Interandina","rmse":3.72}],"metricas":{"calif_media":4.9,"estaciones":40,"mas_ganador":"METEOBLUE"},"modo":"continuous","ranking":[{"bias":-1.54,"color":"#D55E00","confianza":"Alta","corr":0.66,"estaciones":40,"familia":"No convencionales","mae":1.83,"modelo":"METEOBLUE","n":30,"rating":4.57,"rmse":2.19},{"bias":-2.35,"color":"#CC79A7","confianza":"Alta","corr":0.44,"estaciones":40,"familia":"No convencionales","mae":2.86,"modelo":"GEM15","n":30,"rating":3.57,"rmse":3.3},{"bias":-3.38,"color":"#648FFF","confianza":"Alta","corr":0.54,"estaciones":40,"familia":"No convencionales","mae":3.65,"modelo":"UMGLOBAL10","n":30,"rating":3.48,"rmse":3.91},{"bias":-2.5,"color":"#A6761D","confianza":"Alta","corr":0.41,"estaciones":37,"familia":"No convencionales","mae":2.95,"modelo":"NEMSSA","n":30,"rating":3.43,"rmse":3.33},{"bias":-2.69,"color":"#56B4E9","confianza":"Alta","corr":0.4,"estaciones":40,"familia":"No convencionales","mae":3.22,"modelo":"NEMSGLOBAL_E","n":30,"rating":3.18,"rmse":3.61},{"bias":-2.72,"color":"#00A9A5","confianza":"Alta","corr":0.37,"estaciones":40,"familia":"No convencionales","mae":3.32,"modelo":"NEMSGLOBAL","n":30,"rating":3.11,"rmse":3.73},{"bias":-3.04,"color":"#785EF0","confianza":"Alta","corr":0.36,"estaciones":40,"familia":"No convencionales","mae":3.49,"modelo":"MFGLOBAL","n":30,"rating":3.05,"rmse":3.93},{"bias":-4.15,"color":"#B33DC6","confianza":"Media","corr":0.37,"estaciones":36,"familia":"No convencionales","mae":4.54,"modelo":"SA01","n":29,"rating":3.03,"rmse":4.88}],"sintesis_region":[{"modelo":"METEOBLUE","region":"Amazonia"},{"modelo":"METEOBLUE","region":"Insular"},{"modelo":"METEOBLUE","region":"Interandina"},{"modelo":"METEOBLUE","region":"Litoral"}],"ventana":"30"}
