{"bloque":"tmin","bloques":[{"clave":"precip_det","etiqueta":"Precipitaci\u00f3n: detecci\u00f3n"},{"clave":"precip_cua","etiqueta":"Precipitaci\u00f3n: cuantificaci\u00f3n"},{"clave":"tmax","etiqueta":"Temperatura m\u00e1xima"},{"clave":"tmin","etiqueta":"Temperatura m\u00ednima"}],"estaciones":[{"codigo":"84099","nombre":"El Coca","region":"Amazonia"},{"codigo":"84253","nombre":"Gualaquiza","region":"Amazonia"},{"codigo":"84151","nombre":"Jumandy","region":"Amazonia"},{"codigo":"84063","nombre":"Lago Agrio","region":"Amazonia"},{"codigo":"84217","nombre":"Macas","region":"Amazonia"},{"codigo":"84132","nombre":"N. Rocafu","region":"Amazonia"},{"codigo":"84163","nombre":"Pastaza","region":"Amazonia"},{"codigo":"84179","nombre":"Puyo","region":"Amazonia"},{"codigo":"84001","nombre":"Baltra","region":"Insular"},{"codigo":"84008","nombre":"S. Cristobal","region":"Insular"},{"codigo":"84010","nombre":"S. Cristobal A","region":"Insular"},{"codigo":"84147","nombre":"Ambato","region":"Interandina"},{"codigo":"84226","nombre":"Ca\u00f1ar","region":"Interandina"},{"codigo":"84239","nombre":"Cuenca","region":"Interandina"},{"codigo":"84173","nombre":"ESPOCH","region":"Interandina"},{"codigo":"M1240","nombre":"Ibarra","region":"Interandina"},{"codigo":"84045","nombre":"Inguincho","region":"Interandina"},{"codigo":"84088","nombre":"Izobamba","region":"Interandina"},{"codigo":"M0024","nombre":"I\u00f1aquito","region":"Interandina"},{"codigo":"84076","nombre":"La Tola","region":"Interandina"},{"codigo":"84265","nombre":"La Toma","region":"Interandina"},{"codigo":"84123","nombre":"Latacunga","region":"Interandina"},{"codigo":"84270","nombre":"Loja Argelia","region":"Interandina"},{"codigo":"84160","nombre":"Querochaca","region":"Interandina"},{"codigo":"84176","nombre":"Riobamba","region":"Interandina"},{"codigo":"84143","nombre":"Rumipamba","region":"Interandina"},{"codigo":"84036","nombre":"S. Gabriel","region":"Interandina"},{"codigo":"84075","nombre":"Tababela","region":"Interandina"},{"codigo":"84056","nombre":"Tomal\u00f3n","region":"Interandina"},{"codigo":"84027","nombre":"Tulc\u00e1n","region":"Interandina"},{"codigo":"84018","nombre":"Esmeraldas","region":"Litoral"},{"codigo":"84203","nombre":"Guayaquil","region":"Litoral"},{"codigo":"84050","nombre":"La Concordia","region":"Litoral"},{"codigo":"84117","nombre":"Manta","region":"Litoral"},{"codigo":"M0037","nombre":"Milagro","region":"Litoral"},{"codigo":"84140","nombre":"Pichilingue","region":"Litoral"},{"codigo":"84135","nombre":"Portoviejo","region":"Litoral"},{"codigo":"84105","nombre":"Puerto Ila","region":"Litoral"},{"codigo":"84200","nombre":"Salinas","region":"Litoral"},{"codigo":"84252","nombre":"Sta. Rosa","region":"Litoral"}],"familia":"Postprocesamiento","ganadores":[{"bias":-0.02,"codigo":"84200","color":"#F781BF","confianza":"Alta","corr":0.4,"familia":"Postprocesamiento","lat":-2.2,"lon":-80.98972,"mae":0.26,"modelo":"BC_CLASSIC_AIFS025","n":30,"nombre":"Salinas","rating":8.34,"region":"Litoral","rmse":0.33},{"bias":-0.01,"codigo":"84132","color":"#FB9A99","confianza":"Alta","corr":0.63,"familia":"Postprocesamiento","lat":-0.92003,"lon":-75.40303,"mae":0.36,"modelo":"QM_ICON","n":30,"nombre":"N. Rocafu","rating":8.24,"region":"Amazonia","rmse":0.44},{"bias":0.21,"codigo":"84010","color":"#0B6E4F","confianza":"Alta","corr":0.53,"familia":"Postprocesamiento","lat":-0.909,"lon":-89.617,"mae":0.31,"modelo":"CONSENSO_OP_TOP5","n":30,"nombre":"S. Cristobal A","rating":8.02,"region":"Insular","rmse":0.39},{"bias":-0.06,"codigo":"84001","color":"#111111","confianza":"Alta","corr":0.62,"familia":"Postprocesamiento","lat":-0.445,"lon":-90.269,"mae":0.44,"modelo":"BEST_OP_CV","n":30,"nombre":"Baltra","rating":7.84,"region":"Insular","rmse":0.56},{"bias":0.04,"codigo":"84008","color":"#0B6E4F","confianza":"Alta","corr":0.2,"familia":"Postprocesamiento","lat":-0.90406,"lon":-89.61431,"mae":0.39,"modelo":"CONSENSO_OP_TOP5","n":30,"nombre":"S. Cristobal","rating":7.71,"region":"Insular","rmse":0.48},{"bias":0.02,"codigo":"84140","color":"#D55E00","confianza":"Alta","corr":0.41,"familia":"Postprocesamiento","lat":-1.07434,"lon":-79.4929,"mae":0.47,"modelo":"QM_AIFS025","n":30,"nombre":"Pichilingue","rating":7.63,"region":"Litoral","rmse":0.61},{"bias":-0.03,"codigo":"84151","color":"#0B6E4F","confianza":"Alta","corr":0.4,"familia":"Postprocesamiento","lat":-1.057,"lon":-77.584,"mae":0.47,"modelo":"CONSENSO_OP_TOP5","n":30,"nombre":"Jumandy","rating":7.58,"region":"Amazonia","rmse":0.63},{"bias":0.02,"codigo":"84135","color":"#111111","confianza":"Alta","corr":0.42,"familia":"Postprocesamiento","lat":-1.17343,"lon":-80.38736,"mae":0.51,"modelo":"BEST_OP_CV","n":30,"nombre":"Portoviejo","rating":7.54,"region":"Litoral","rmse":0.63},{"bias":-0.01,"codigo":"84050","color":"#F781BF","confianza":"Alta","corr":0.41,"familia":"Postprocesamiento","lat":-0.02478,"lon":-79.38028,"mae":0.52,"modelo":"BC_CLASSIC_AIFS025","n":30,"nombre":"La Concordia","rating":7.48,"region":"Litoral","rmse":0.68},{"bias":-0.02,"codigo":"84203","color":"#A65628","confianza":"Alta","corr":0.43,"familia":"Postprocesamiento","lat":-2.15333,"lon":-79.88333,"mae":0.51,"modelo":"BC_CLASSIC_METEOBLUE","n":30,"nombre":"Guayaquil","rating":7.46,"region":"Litoral","rmse":0.73},{"bias":-0.16,"codigo":"84252","color":"#1F78B4","confianza":"Alta","corr":0.7,"familia":"Postprocesamiento","lat":-3.43583,"lon":-79.98333,"mae":0.59,"modelo":"QM_METEOBLUE","n":30,"nombre":"Sta. Rosa","rating":7.37,"region":"Litoral","rmse":0.69},{"bias":-0.12,"codigo":"84105","color":"#7570B3","confianza":"Alta","corr":0.43,"familia":"Postprocesamiento","lat":-0.493,"lon":-79.34892,"mae":0.54,"modelo":"BC_CLASSIC_ICON","n":30,"nombre":"Puerto Ila","rating":7.36,"region":"Litoral","rmse":0.63},{"bias":-0.08,"codigo":"84117","color":"#A65628","confianza":"Alta","corr":0.4,"familia":"Postprocesamiento","lat":-0.95,"lon":-80.68333,"mae":0.58,"modelo":"BC_CLASSIC_METEOBLUE","n":30,"nombre":"Manta","rating":7.1,"region":"Litoral","rmse":0.85},{"bias":-0.1,"codigo":"84217","color":"#F781BF","confianza":"Alta","corr":0.34,"familia":"Postprocesamiento","lat":-2.29861,"lon":-78.12056,"mae":0.6,"modelo":"BC_CLASSIC_AIFS025","n":30,"nombre":"Macas","rating":7.02,"region":"Amazonia","rmse":0.81},{"bias":-0.05,"codigo":"84163","color":"#0B6E4F","confianza":"Alta","corr":0.18,"familia":"Postprocesamiento","lat":-1.5,"lon":-78.06667,"mae":0.58,"modelo":"CONSENSO_OP_TOP5","n":30,"nombre":"Pastaza","rating":7.02,"region":"Amazonia","rmse":0.78},{"bias":-0.07,"codigo":"84099","color":"#111111","confianza":"Alta","corr":0.14,"familia":"Postprocesamiento","lat":-0.46056,"lon":-76.98806,"mae":0.6,"modelo":"BEST_OP_CV","n":30,"nombre":"El Coca","rating":6.94,"region":"Amazonia","rmse":0.75},{"bias":-0.09,"codigo":"84063","color":"#F781BF","confianza":"Alta","corr":0.36,"familia":"Postprocesamiento","lat":0.0925,"lon":-76.86944,"mae":0.68,"modelo":"BC_CLASSIC_AIFS025","n":30,"nombre":"Lago Agrio","rating":6.83,"region":"Amazonia","rmse":0.92},{"bias":-0.09,"codigo":"84253","color":"#0B6E4F","confianza":"Alta","corr":0.15,"familia":"Postprocesamiento","lat":-3.42333,"lon":-78.56694,"mae":0.66,"modelo":"CONSENSO_OP_TOP5","n":30,"nombre":"Gualaquiza","rating":6.7,"region":"Amazonia","rmse":0.87},{"bias":-0.04,"codigo":"84045","color":"#0B6E4F","confianza":"Alta","corr":0.3,"familia":"Postprocesamiento","lat":0.25694,"lon":-78.40524,"mae":0.77,"modelo":"CONSENSO_OP_TOP5","n":30,"nombre":"Inguincho","rating":6.66,"region":"Interandina","rmse":0.97},{"bias":-0.08,"codigo":"84179","color":"#8A2BE2","confianza":"Alta","corr":0.42,"familia":"Postprocesamiento","lat":-1.5057,"lon":-77.956,"mae":0.81,"modelo":"ENS_MEAN","n":30,"nombre":"Puyo","rating":6.64,"region":"Amazonia","rmse":1.0},{"bias":-0.24,"codigo":"84018","color":"#111111","confianza":"Alta","corr":0.1,"familia":"Postprocesamiento","lat":0.97917,"lon":-79.62444,"mae":0.64,"modelo":"BEST_OP_CV","n":30,"nombre":"Esmeraldas","rating":6.62,"region":"Litoral","rmse":0.74},{"bias":-0.02,"codigo":"84226","color":"#0B6E4F","confianza":"Alta","corr":0.59,"familia":"Postprocesamiento","lat":-2.55221,"lon":-78.94519,"mae":0.94,"modelo":"CONSENSO_OP_TOP5","n":30,"nombre":"Ca\u00f1ar","rating":6.56,"region":"Interandina","rmse":1.2},{"bias":0.16,"codigo":"84123","color":"#1F78B4","confianza":"Alta","corr":0.75,"familia":"Postprocesamiento","lat":-0.91333,"lon":-78.61556,"mae":0.9,"modelo":"QM_METEOBLUE","n":30,"nombre":"Latacunga","rating":6.54,"region":"Interandina","rmse":1.21},{"bias":-0.04,"codigo":"84027","color":"#0B6E4F","confianza":"Alta","corr":0.66,"familia":"Postprocesamiento","lat":0.81667,"lon":-77.7,"mae":0.97,"modelo":"CONSENSO_OP_TOP5","n":30,"nombre":"Tulc\u00e1n","rating":6.49,"region":"Interandina","rmse":1.27},{"bias":0.11,"codigo":"84239","color":"#1F78B4","confianza":"Alta","corr":0.7,"familia":"Postprocesamiento","lat":-2.88917,"lon":-78.98417,"mae":0.97,"modelo":"QM_METEOBLUE","n":30,"nombre":"Cuenca","rating":6.47,"region":"Interandina","rmse":1.22},{"bias":-0.02,"codigo":"84088","color":"#FB9A99","confianza":"Alta","corr":0.63,"familia":"Postprocesamiento","lat":-0.36593,"lon":-78.55513,"mae":1.02,"modelo":"QM_ICON","n":30,"nombre":"Izobamba","rating":6.46,"region":"Interandina","rmse":1.25},{"bias":-0.04,"codigo":"84036","color":"#1F78B4","confianza":"Alta","corr":0.67,"familia":"Postprocesamiento","lat":0.60417,"lon":-77.81944,"mae":1.1,"modelo":"QM_METEOBLUE","n":30,"nombre":"S. Gabriel","rating":6.27,"region":"Interandina","rmse":1.4},{"bias":0.53,"codigo":"84075","color":"#111111","confianza":"Alta","corr":0.72,"familia":"Postprocesamiento","lat":-0.14083,"lon":-78.353,"mae":0.87,"modelo":"BEST_OP_CV","n":30,"nombre":"Tababela","rating":6.12,"region":"Interandina","rmse":1.25},{"bias":-0.07,"codigo":"M1240","color":"#7570B3","confianza":"Alta","corr":0.52,"familia":"Postprocesamiento","lat":0.32978,"lon":-78.1322,"mae":1.1,"modelo":"BC_CLASSIC_ICON","n":30,"nombre":"Ibarra","rating":6.11,"region":"Interandina","rmse":1.36},{"bias":-0.03,"codigo":"84076","color":"#17A398","confianza":"Alta","corr":0.55,"familia":"Postprocesamiento","lat":-0.23179,"lon":-78.37043,"mae":1.14,"modelo":"ENS_MEDIAN","n":30,"nombre":"La Tola","rating":5.97,"region":"Interandina","rmse":1.67},{"bias":-0.15,"codigo":"84147","color":"#111111","confianza":"Alta","corr":0.25,"familia":"Postprocesamiento","lat":-1.21413,"lon":-78.57455,"mae":1.04,"modelo":"BEST_OP_CV","n":30,"nombre":"Ambato","rating":5.8,"region":"Interandina","rmse":1.41},{"bias":0.07,"codigo":"84160","color":"#7570B3","confianza":"Alta","corr":0.57,"familia":"Postprocesamiento","lat":-1.3671,"lon":-78.60554,"mae":1.35,"modelo":"BC_CLASSIC_ICON","n":30,"nombre":"Querochaca","rating":5.76,"region":"Interandina","rmse":1.59},{"bias":-0.1,"codigo":"84143","color":"#111111","confianza":"Alta","corr":0.19,"familia":"Postprocesamiento","lat":-1.01998,"lon":-78.59456,"mae":1.29,"modelo":"BEST_OP_CV","n":30,"nombre":"Rumipamba","rating":5.35,"region":"Interandina","rmse":1.72},{"bias":-0.13,"codigo":"84176","color":"#CC79A7","confianza":"Alta","corr":0.28,"familia":"Postprocesamiento","lat":-1.65333,"lon":-78.54889,"mae":1.31,"modelo":"QM_IFSHRES","n":30,"nombre":"Riobamba","rating":5.31,"region":"Interandina","rmse":1.87},{"bias":-0.15,"codigo":"84270","color":"#D55E00","confianza":"Alta","corr":0.47,"familia":"Postprocesamiento","lat":-4.0375,"lon":-79.2034,"mae":1.47,"modelo":"QM_AIFS025","n":30,"nombre":"Loja Argelia","rating":5.28,"region":"Interandina","rmse":1.94},{"bias":-0.56,"codigo":"M0024","color":"#CC79A7","confianza":"Alta","corr":0.5,"familia":"Postprocesamiento","lat":-0.1783,"lon":-78.48773,"mae":1.21,"modelo":"BC_CLASSIC_IFSHRES","n":30,"nombre":"I\u00f1aquito","rating":5.26,"region":"Interandina","rmse":1.63},{"bias":-0.42,"codigo":"84173","color":"#111111","confianza":"Alta","corr":0.35,"familia":"Postprocesamiento","lat":-1.65083,"lon":-78.68521,"mae":1.24,"modelo":"BEST_OP_CV","n":30,"nombre":"ESPOCH","rating":5.24,"region":"Interandina","rmse":1.57},{"bias":-0.24,"codigo":"84265","color":"#111111","confianza":"Alta","corr":0.63,"familia":"Postprocesamiento","lat":-3.99556,"lon":-79.37167,"mae":1.64,"modelo":"BEST_OP_CV","n":30,"nombre":"La Toma","rating":5.12,"region":"Interandina","rmse":2.03},{"bias":0.18,"codigo":"84056","color":"#A65628","confianza":"Alta","corr":0.65,"familia":"Postprocesamiento","lat":0.01116,"lon":-78.25505,"mae":1.75,"modelo":"BC_CLASSIC_METEOBLUE","n":30,"nombre":"Tomal\u00f3n","rating":5.1,"region":"Interandina","rmse":2.15},{"bias":-1.79,"codigo":"M0037","color":"#7570B3","confianza":"Media","corr":0.63,"familia":"Postprocesamiento","lat":-2.11805,"lon":-79.60038,"mae":1.8,"modelo":"BC_CLASSIC_ICON","n":23,"nombre":"Milagro","rating":4.16,"region":"Litoral","rmse":2.03}],"metricas":{"calif_media":6.6,"estaciones":40,"mas_ganador":"BEST_OP_CV"},"modo":"continuous","ranking":[{"bias":-0.11,"color":"#111111","confianza":"Alta","corr":0.39,"estaciones":40,"familia":"Postprocesamiento","mae":0.92,"modelo":"BEST_OP_CV","n":30,"rating":6.33,"rmse":1.2},{"bias":-0.09,"color":"#0B6E4F","confianza":"Alta","corr":0.36,"estaciones":40,"familia":"Postprocesamiento","mae":0.93,"modelo":"CONSENSO_OP_TOP5","n":30,"rating":6.3,"rmse":1.18},{"bias":-0.22,"color":"#A65628","confianza":"Alta","corr":0.34,"estaciones":40,"familia":"Postprocesamiento","mae":1.01,"modelo":"BC_CLASSIC_METEOBLUE","n":30,"rating":6.0,"rmse":1.28},{"bias":0.02,"color":"#CC79A7","confianza":"Alta","corr":0.3,"estaciones":40,"familia":"Postprocesamiento","mae":1.09,"modelo":"BC_CLASSIC_IFSHRES","n":30,"rating":5.79,"rmse":1.37},{"bias":-0.07,"color":"#F781BF","confianza":"Alta","corr":0.23,"estaciones":40,"familia":"Postprocesamiento","mae":1.11,"modelo":"BC_CLASSIC_AIFS025","n":30,"rating":5.71,"rmse":1.39},{"bias":-0.12,"color":"#7570B3","confianza":"Alta","corr":0.26,"estaciones":40,"familia":"Postprocesamiento","mae":1.15,"modelo":"BC_CLASSIC_ICON","n":30,"rating":5.67,"rmse":1.44},{"bias":-0.38,"color":"#1F78B4","confianza":"Alta","corr":0.41,"estaciones":40,"familia":"Postprocesamiento","mae":1.15,"modelo":"QM_METEOBLUE","n":30,"rating":5.63,"rmse":1.41},{"bias":0.0,"color":"#1B9E77","confianza":"Alta","corr":0.2,"estaciones":40,"familia":"Postprocesamiento","mae":1.21,"modelo":"BC_CLASSIC_IFS025","n":30,"rating":5.46,"rmse":1.52},{"bias":-0.2,"color":"#E7298A","confianza":"Alta","corr":0.21,"estaciones":40,"familia":"Postprocesamiento","mae":1.18,"modelo":"BC_CLASSIC_GFS05","n":30,"rating":5.45,"rmse":1.48},{"bias":-0.71,"color":"#17A398","confianza":"Alta","corr":0.49,"estaciones":40,"familia":"Postprocesamiento","mae":1.31,"modelo":"ENS_MEDIAN","n":30,"rating":5.36,"rmse":1.53},{"bias":-0.84,"color":"#8A2BE2","confianza":"Alta","corr":0.52,"estaciones":40,"familia":"Postprocesamiento","mae":1.35,"modelo":"ENS_MEAN","n":30,"rating":5.34,"rmse":1.56},{"bias":0.2,"color":"#CC79A7","confianza":"Alta","corr":0.33,"estaciones":40,"familia":"Postprocesamiento","mae":1.3,"modelo":"QM_IFSHRES","n":30,"rating":5.3,"rmse":1.56},{"bias":-0.13,"color":"#984EA3","confianza":"Alta","corr":0.17,"estaciones":40,"familia":"Postprocesamiento","mae":1.21,"modelo":"EMOS_GAUSS","n":30,"rating":5.3,"rmse":1.47},{"bias":-0.19,"color":"#FB9A99","confianza":"Alta","corr":0.32,"estaciones":40,"familia":"Postprocesamiento","mae":1.47,"modelo":"QM_ICON","n":30,"rating":5.11,"rmse":1.75},{"bias":-0.13,"color":"#D55E00","confianza":"Alta","corr":0.31,"estaciones":40,"familia":"Postprocesamiento","mae":1.5,"modelo":"QM_AIFS025","n":30,"rating":5.07,"rmse":1.76},{"bias":-0.43,"color":"#FDBF6F","confianza":"Alta","corr":0.3,"estaciones":40,"familia":"Postprocesamiento","mae":1.61,"modelo":"QM_GFS05","n":30,"rating":4.77,"rmse":1.88},{"bias":0.07,"color":"#B2DF8A","confianza":"Alta","corr":0.24,"estaciones":40,"familia":"Postprocesamiento","mae":1.69,"modelo":"QM_IFS025","n":30,"rating":4.71,"rmse":1.97},{"bias":0.33,"color":"#B33DC6","confianza":"Media","corr":0.06,"estaciones":40,"familia":"Postprocesamiento","mae":5.95,"modelo":"NGR","n":25,"rating":2.23,"rmse":6.16}],"sintesis_region":[{"modelo":"CONSENSO_OP_TOP5","region":"Amazonia"},{"modelo":"CONSENSO_OP_TOP5","region":"Insular"},{"modelo":"BEST_OP_CV","region":"Interandina"},{"modelo":"BC_CLASSIC_AIFS025","region":"Litoral"}],"ventana":"30"}
