{"bloque":"tmax","bloques":[{"clave":"precip_det","etiqueta":"Precipitaci\u00f3n: detecci\u00f3n"},{"clave":"precip_cua","etiqueta":"Precipitaci\u00f3n: cuantificaci\u00f3n"},{"clave":"tmax","etiqueta":"Temperatura m\u00e1xima"},{"clave":"tmin","etiqueta":"Temperatura m\u00ednima"}],"estaciones":[{"codigo":"84099","nombre":"El Coca","region":"Amazonia"},{"codigo":"84253","nombre":"Gualaquiza","region":"Amazonia"},{"codigo":"84151","nombre":"Jumandy","region":"Amazonia"},{"codigo":"84063","nombre":"Lago Agrio","region":"Amazonia"},{"codigo":"84217","nombre":"Macas","region":"Amazonia"},{"codigo":"84132","nombre":"N. Rocafu","region":"Amazonia"},{"codigo":"84163","nombre":"Pastaza","region":"Amazonia"},{"codigo":"84179","nombre":"Puyo","region":"Amazonia"},{"codigo":"84001","nombre":"Baltra","region":"Insular"},{"codigo":"84008","nombre":"S. Cristobal","region":"Insular"},{"codigo":"84010","nombre":"S. Cristobal A","region":"Insular"},{"codigo":"84147","nombre":"Ambato","region":"Interandina"},{"codigo":"84226","nombre":"Ca\u00f1ar","region":"Interandina"},{"codigo":"84239","nombre":"Cuenca","region":"Interandina"},{"codigo":"84173","nombre":"ESPOCH","region":"Interandina"},{"codigo":"M1240","nombre":"Ibarra","region":"Interandina"},{"codigo":"84045","nombre":"Inguincho","region":"Interandina"},{"codigo":"84088","nombre":"Izobamba","region":"Interandina"},{"codigo":"M0024","nombre":"I\u00f1aquito","region":"Interandina"},{"codigo":"84076","nombre":"La Tola","region":"Interandina"},{"codigo":"84265","nombre":"La Toma","region":"Interandina"},{"codigo":"84123","nombre":"Latacunga","region":"Interandina"},{"codigo":"84270","nombre":"Loja Argelia","region":"Interandina"},{"codigo":"84160","nombre":"Querochaca","region":"Interandina"},{"codigo":"84176","nombre":"Riobamba","region":"Interandina"},{"codigo":"84143","nombre":"Rumipamba","region":"Interandina"},{"codigo":"84036","nombre":"S. Gabriel","region":"Interandina"},{"codigo":"84075","nombre":"Tababela","region":"Interandina"},{"codigo":"84056","nombre":"Tomal\u00f3n","region":"Interandina"},{"codigo":"84027","nombre":"Tulc\u00e1n","region":"Interandina"},{"codigo":"84018","nombre":"Esmeraldas","region":"Litoral"},{"codigo":"84203","nombre":"Guayaquil","region":"Litoral"},{"codigo":"84050","nombre":"La Concordia","region":"Litoral"},{"codigo":"84117","nombre":"Manta","region":"Litoral"},{"codigo":"M0037","nombre":"Milagro","region":"Litoral"},{"codigo":"84140","nombre":"Pichilingue","region":"Litoral"},{"codigo":"84135","nombre":"Portoviejo","region":"Litoral"},{"codigo":"84105","nombre":"Puerto Ila","region":"Litoral"},{"codigo":"84200","nombre":"Salinas","region":"Litoral"},{"codigo":"84252","nombre":"Sta. Rosa","region":"Litoral"}],"familia":"No convencionales","ganadores":[{"bias":0.12,"codigo":"84045","color":"#D55E00","confianza":"Baja","corr":0.94,"familia":"No convencionales","lat":0.25694,"lon":-78.40524,"mae":0.23,"modelo":"METEOBLUE","n":7,"nombre":"Inguincho","rating":8.73,"region":"Interandina","rmse":0.36},{"bias":0.01,"codigo":"84140","color":"#A6761D","confianza":"Baja","corr":0.91,"familia":"No convencionales","lat":-1.07434,"lon":-79.4929,"mae":0.61,"modelo":"NEMSSA","n":7,"nombre":"Pichilingue","rating":7.75,"region":"Litoral","rmse":0.7},{"bias":-0.47,"codigo":"84117","color":"#D55E00","confianza":"Baja","corr":0.94,"familia":"No convencionales","lat":-0.95,"lon":-80.68333,"mae":0.47,"modelo":"METEOBLUE","n":7,"nombre":"Manta","rating":7.62,"region":"Litoral","rmse":0.54},{"bias":0.34,"codigo":"84088","color":"#00A9A5","confianza":"Baja","corr":0.63,"familia":"No convencionales","lat":-0.36593,"lon":-78.55513,"mae":0.5,"modelo":"NEMSGLOBAL","n":7,"nombre":"Izobamba","rating":7.33,"region":"Interandina","rmse":0.61},{"bias":-0.51,"codigo":"84200","color":"#D55E00","confianza":"Baja","corr":0.74,"familia":"No convencionales","lat":-2.2,"lon":-80.98972,"mae":0.51,"modelo":"METEOBLUE","n":7,"nombre":"Salinas","rating":7.25,"region":"Litoral","rmse":0.61},{"bias":-0.01,"codigo":"84163","color":"#648FFF","confianza":"Baja","corr":0.61,"familia":"No convencionales","lat":-1.5,"lon":-78.06667,"mae":0.7,"modelo":"UMGLOBAL10","n":7,"nombre":"Pastaza","rating":7.23,"region":"Amazonia","rmse":0.82},{"bias":-0.56,"codigo":"84123","color":"#CC79A7","confianza":"Baja","corr":0.8,"familia":"No convencionales","lat":-0.91333,"lon":-78.61556,"mae":0.61,"modelo":"GEM15","n":7,"nombre":"Latacunga","rating":6.98,"region":"Interandina","rmse":0.71},{"bias":-0.24,"codigo":"84105","color":"#D55E00","confianza":"Baja","corr":0.92,"familia":"No convencionales","lat":-0.493,"lon":-79.34892,"mae":0.83,"modelo":"METEOBLUE","n":7,"nombre":"Puerto Ila","rating":6.83,"region":"Litoral","rmse":0.99},{"bias":-0.04,"codigo":"84203","color":"#CC79A7","confianza":"Baja","corr":0.66,"familia":"No convencionales","lat":-2.15333,"lon":-79.88333,"mae":0.92,"modelo":"GEM15","n":7,"nombre":"Guayaquil","rating":6.71,"region":"Litoral","rmse":1.06},{"bias":-0.76,"codigo":"84252","color":"#D55E00","confianza":"Baja","corr":0.97,"familia":"No convencionales","lat":-3.43583,"lon":-79.98333,"mae":0.76,"modelo":"METEOBLUE","n":7,"nombre":"Sta. Rosa","rating":6.58,"region":"Litoral","rmse":0.92},{"bias":0.59,"codigo":"M1240","color":"#648FFF","confianza":"Baja","corr":0.87,"familia":"No convencionales","lat":0.32978,"lon":-78.1322,"mae":0.82,"modelo":"UMGLOBAL10","n":7,"nombre":"Ibarra","rating":6.54,"region":"Interandina","rmse":0.9},{"bias":-0.63,"codigo":"84010","color":"#D55E00","confianza":"Baja","corr":0.67,"familia":"No convencionales","lat":-0.909,"lon":-89.617,"mae":0.63,"modelo":"METEOBLUE","n":7,"nombre":"S. Cristobal A","rating":6.48,"region":"Insular","rmse":1.05},{"bias":-0.19,"codigo":"84226","color":"#00A9A5","confianza":"Baja","corr":0.76,"familia":"No convencionales","lat":-2.55221,"lon":-78.94519,"mae":1.05,"modelo":"NEMSGLOBAL","n":7,"nombre":"Ca\u00f1ar","rating":6.38,"region":"Interandina","rmse":1.11},{"bias":-0.47,"codigo":"84179","color":"#648FFF","confianza":"Baja","corr":0.61,"familia":"No convencionales","lat":-1.5057,"lon":-77.956,"mae":0.78,"modelo":"UMGLOBAL10","n":7,"nombre":"Puyo","rating":6.36,"region":"Amazonia","rmse":1.02},{"bias":0.5,"codigo":"84160","color":"#A6761D","confianza":"Baja","corr":0.89,"familia":"No convencionales","lat":-1.3671,"lon":-78.60554,"mae":0.97,"modelo":"NEMSSA","n":7,"nombre":"Querochaca","rating":6.27,"region":"Interandina","rmse":1.11},{"bias":0.33,"codigo":"84147","color":"#A6761D","confianza":"Baja","corr":0.76,"familia":"No convencionales","lat":-1.21413,"lon":-78.57455,"mae":1.01,"modelo":"NEMSSA","n":7,"nombre":"Ambato","rating":6.18,"region":"Interandina","rmse":1.22},{"bias":-0.01,"codigo":"84270","color":"#648FFF","confianza":"Baja","corr":0.77,"familia":"No convencionales","lat":-4.0375,"lon":-79.2034,"mae":1.25,"modelo":"UMGLOBAL10","n":7,"nombre":"Loja Argelia","rating":6.18,"region":"Interandina","rmse":1.53},{"bias":-0.46,"codigo":"M0024","color":"#785EF0","confianza":"Baja","corr":0.75,"familia":"No convencionales","lat":-0.1783,"lon":-78.48773,"mae":0.98,"modelo":"MFGLOBAL","n":7,"nombre":"I\u00f1aquito","rating":6.02,"region":"Interandina","rmse":1.3},{"bias":-0.93,"codigo":"84008","color":"#D55E00","confianza":"Baja","corr":0.8,"familia":"No convencionales","lat":-0.90406,"lon":-89.61431,"mae":0.93,"modelo":"METEOBLUE","n":7,"nombre":"S. Cristobal","rating":5.92,"region":"Insular","rmse":1.13},{"bias":-0.79,"codigo":"84063","color":"#D55E00","confianza":"Baja","corr":0.88,"familia":"No convencionales","lat":0.0925,"lon":-76.86944,"mae":1.02,"modelo":"METEOBLUE","n":7,"nombre":"Lago Agrio","rating":5.91,"region":"Amazonia","rmse":1.19},{"bias":-0.79,"codigo":"84036","color":"#D55E00","confianza":"Baja","corr":0.42,"familia":"No convencionales","lat":0.60417,"lon":-77.81944,"mae":0.89,"modelo":"METEOBLUE","n":7,"nombre":"S. Gabriel","rating":5.75,"region":"Interandina","rmse":1.06},{"bias":0.67,"codigo":"M0037","color":"#56B4E9","confianza":"Baja","corr":0.82,"familia":"No convencionales","lat":-2.11805,"lon":-79.60038,"mae":1.03,"modelo":"NEMSGLOBAL_E","n":7,"nombre":"Milagro","rating":5.72,"region":"Litoral","rmse":1.52},{"bias":-0.96,"codigo":"84018","color":"#D55E00","confianza":"Baja","corr":0.51,"familia":"No convencionales","lat":0.97917,"lon":-79.62444,"mae":1.05,"modelo":"METEOBLUE","n":7,"nombre":"Esmeraldas","rating":5.28,"region":"Litoral","rmse":1.44},{"bias":-1.31,"codigo":"84135","color":"#CC79A7","confianza":"Baja","corr":0.97,"familia":"No convencionales","lat":-1.17343,"lon":-80.38736,"mae":1.31,"modelo":"GEM15","n":7,"nombre":"Portoviejo","rating":5.26,"region":"Litoral","rmse":1.46},{"bias":1.13,"codigo":"84143","color":"#A6761D","confianza":"Baja","corr":0.66,"familia":"No convencionales","lat":-1.01998,"lon":-78.59456,"mae":1.13,"modelo":"NEMSSA","n":7,"nombre":"Rumipamba","rating":5.24,"region":"Interandina","rmse":1.45},{"bias":-1.38,"codigo":"84239","color":"#D55E00","confianza":"Baja","corr":0.95,"familia":"No convencionales","lat":-2.88917,"lon":-78.98417,"mae":1.38,"modelo":"METEOBLUE","n":7,"nombre":"Cuenca","rating":5.15,"region":"Interandina","rmse":1.46},{"bias":-1.28,"codigo":"84076","color":"#A6761D","confianza":"Baja","corr":0.76,"familia":"No convencionales","lat":-0.23179,"lon":-78.37043,"mae":1.28,"modelo":"NEMSSA","n":7,"nombre":"La Tola","rating":5.11,"region":"Interandina","rmse":1.46},{"bias":-0.72,"codigo":"84132","color":"#CC79A7","confianza":"Baja","corr":0.42,"familia":"No convencionales","lat":-0.92003,"lon":-75.40303,"mae":1.37,"modelo":"GEM15","n":7,"nombre":"N. Rocafu","rating":4.78,"region":"Amazonia","rmse":1.87},{"bias":-1.33,"codigo":"84217","color":"#785EF0","confianza":"Baja","corr":0.66,"familia":"No convencionales","lat":-2.29861,"lon":-78.12056,"mae":1.46,"modelo":"MFGLOBAL","n":7,"nombre":"Macas","rating":4.74,"region":"Amazonia","rmse":1.64},{"bias":-1.5,"codigo":"84265","color":"#D55E00","confianza":"Baja","corr":0.78,"familia":"No convencionales","lat":-3.99556,"lon":-79.37167,"mae":1.5,"modelo":"METEOBLUE","n":7,"nombre":"La Toma","rating":4.66,"region":"Interandina","rmse":1.84},{"bias":-1.16,"codigo":"84027","color":"#CC79A7","confianza":"Baja","corr":0.46,"familia":"No convencionales","lat":0.81667,"lon":-77.7,"mae":1.56,"modelo":"GEM15","n":7,"nombre":"Tulc\u00e1n","rating":4.37,"region":"Interandina","rmse":1.98},{"bias":-1.2,"codigo":"84151","color":"#D55E00","confianza":"Baja","corr":0.36,"familia":"No convencionales","lat":-1.057,"lon":-77.584,"mae":1.63,"modelo":"METEOBLUE","n":7,"nombre":"Jumandy","rating":4.36,"region":"Amazonia","rmse":1.68},{"bias":-1.86,"codigo":"84099","color":"#D55E00","confianza":"Baja","corr":0.86,"familia":"No convencionales","lat":-0.46056,"lon":-76.98806,"mae":1.86,"modelo":"METEOBLUE","n":7,"nombre":"El Coca","rating":4.28,"region":"Amazonia","rmse":2.14},{"bias":-1.08,"codigo":"84001","color":"#D55E00","confianza":"Baja","corr":-0.27,"familia":"No convencionales","lat":-0.445,"lon":-90.269,"mae":1.28,"modelo":"METEOBLUE","n":7,"nombre":"Baltra","rating":4.27,"region":"Insular","rmse":1.45},{"bias":-2.0,"codigo":"84050","color":"#785EF0","confianza":"Baja","corr":0.94,"familia":"No convencionales","lat":-0.02478,"lon":-79.38028,"mae":2.0,"modelo":"MFGLOBAL","n":7,"nombre":"La Concordia","rating":4.27,"region":"Litoral","rmse":2.08},{"bias":-1.59,"codigo":"84056","color":"#A6761D","confianza":"Baja","corr":0.39,"familia":"No convencionales","lat":0.01116,"lon":-78.25505,"mae":1.88,"modelo":"NEMSSA","n":7,"nombre":"Tomal\u00f3n","rating":3.9,"region":"Interandina","rmse":2.11},{"bias":-2.49,"codigo":"84173","color":"#D55E00","confianza":"Baja","corr":0.81,"familia":"No convencionales","lat":-1.65083,"lon":-78.68521,"mae":2.49,"modelo":"METEOBLUE","n":7,"nombre":"ESPOCH","rating":3.63,"region":"Interandina","rmse":2.8},{"bias":-1.6,"codigo":"84075","color":"#D55E00","confianza":"Baja","corr":0.35,"familia":"No convencionales","lat":-0.14083,"lon":-78.353,"mae":2.26,"modelo":"METEOBLUE","n":7,"nombre":"Tababela","rating":3.55,"region":"Interandina","rmse":2.43},{"bias":-3.35,"codigo":"84253","color":"#CC79A7","confianza":"Baja","corr":0.76,"familia":"No convencionales","lat":-3.42333,"lon":-78.56694,"mae":3.35,"modelo":"GEM15","n":7,"nombre":"Gualaquiza","rating":3.13,"region":"Amazonia","rmse":3.7},{"bias":-3.73,"codigo":"84176","color":"#56B4E9","confianza":"Baja","corr":0.84,"familia":"No convencionales","lat":-1.65333,"lon":-78.54889,"mae":3.73,"modelo":"NEMSGLOBAL_E","n":7,"nombre":"Riobamba","rating":3.12,"region":"Interandina","rmse":3.78}],"metricas":{"calif_media":5.6,"estaciones":40,"mas_ganador":"METEOBLUE"},"modo":"continuous","ranking":[{"bias":-1.48,"color":"#D55E00","confianza":"Baja","corr":0.66,"estaciones":40,"familia":"No convencionales","mae":1.69,"modelo":"METEOBLUE","n":7,"rating":4.87,"rmse":1.93},{"bias":-1.94,"color":"#A6761D","confianza":"Baja","corr":0.47,"estaciones":37,"familia":"No convencionales","mae":2.56,"modelo":"NEMSSA","n":7,"rating":3.95,"rmse":2.79},{"bias":-2.07,"color":"#CC79A7","confianza":"Baja","corr":0.43,"estaciones":40,"familia":"No convencionales","mae":2.56,"modelo":"GEM15","n":7,"rating":3.86,"rmse":2.85},{"bias":-3.46,"color":"#648FFF","confianza":"Baja","corr":0.49,"estaciones":40,"familia":"No convencionales","mae":3.61,"modelo":"UMGLOBAL10","n":7,"rating":3.58,"rmse":3.8},{"bias":-2.49,"color":"#785EF0","confianza":"Baja","corr":0.42,"estaciones":40,"familia":"No convencionales","mae":2.96,"modelo":"MFGLOBAL","n":7,"rating":3.57,"rmse":3.17},{"bias":-2.36,"color":"#56B4E9","confianza":"Baja","corr":0.44,"estaciones":40,"familia":"No convencionales","mae":2.93,"modelo":"NEMSGLOBAL_E","n":7,"rating":3.56,"rmse":3.17},{"bias":-2.15,"color":"#00A9A5","confianza":"Baja","corr":0.37,"estaciones":40,"familia":"No convencionales","mae":2.83,"modelo":"NEMSGLOBAL","n":7,"rating":3.47,"rmse":3.09},{"bias":-3.76,"color":"#B33DC6","confianza":"Baja","corr":0.29,"estaciones":36,"familia":"No convencionales","mae":4.12,"modelo":"SA01","n":7,"rating":3.12,"rmse":4.38}],"sintesis_region":[{"modelo":"METEOBLUE","region":"Amazonia"},{"modelo":"METEOBLUE","region":"Insular"},{"modelo":"METEOBLUE","region":"Interandina"},{"modelo":"METEOBLUE","region":"Litoral"}],"ventana":"7"}
