{"bloque":"tmin","bloques":[{"clave":"precip_det","etiqueta":"Precipitaci\u00f3n: detecci\u00f3n"},{"clave":"precip_cua","etiqueta":"Precipitaci\u00f3n: cuantificaci\u00f3n"},{"clave":"tmax","etiqueta":"Temperatura m\u00e1xima"},{"clave":"tmin","etiqueta":"Temperatura m\u00ednima"}],"estaciones":[{"codigo":"84099","nombre":"El Coca","region":"Amazonia"},{"codigo":"84253","nombre":"Gualaquiza","region":"Amazonia"},{"codigo":"84151","nombre":"Jumandy","region":"Amazonia"},{"codigo":"84063","nombre":"Lago Agrio","region":"Amazonia"},{"codigo":"84217","nombre":"Macas","region":"Amazonia"},{"codigo":"84132","nombre":"N. Rocafu","region":"Amazonia"},{"codigo":"84163","nombre":"Pastaza","region":"Amazonia"},{"codigo":"84179","nombre":"Puyo","region":"Amazonia"},{"codigo":"84001","nombre":"Baltra","region":"Insular"},{"codigo":"84008","nombre":"S. Cristobal","region":"Insular"},{"codigo":"84010","nombre":"S. Cristobal A","region":"Insular"},{"codigo":"84147","nombre":"Ambato","region":"Interandina"},{"codigo":"84226","nombre":"Ca\u00f1ar","region":"Interandina"},{"codigo":"84239","nombre":"Cuenca","region":"Interandina"},{"codigo":"84173","nombre":"ESPOCH","region":"Interandina"},{"codigo":"M1240","nombre":"Ibarra","region":"Interandina"},{"codigo":"84045","nombre":"Inguincho","region":"Interandina"},{"codigo":"84088","nombre":"Izobamba","region":"Interandina"},{"codigo":"M0024","nombre":"I\u00f1aquito","region":"Interandina"},{"codigo":"84076","nombre":"La Tola","region":"Interandina"},{"codigo":"84265","nombre":"La Toma","region":"Interandina"},{"codigo":"84123","nombre":"Latacunga","region":"Interandina"},{"codigo":"84270","nombre":"Loja Argelia","region":"Interandina"},{"codigo":"84160","nombre":"Querochaca","region":"Interandina"},{"codigo":"84176","nombre":"Riobamba","region":"Interandina"},{"codigo":"84143","nombre":"Rumipamba","region":"Interandina"},{"codigo":"84036","nombre":"S. Gabriel","region":"Interandina"},{"codigo":"84075","nombre":"Tababela","region":"Interandina"},{"codigo":"84056","nombre":"Tomal\u00f3n","region":"Interandina"},{"codigo":"84027","nombre":"Tulc\u00e1n","region":"Interandina"},{"codigo":"84018","nombre":"Esmeraldas","region":"Litoral"},{"codigo":"84203","nombre":"Guayaquil","region":"Litoral"},{"codigo":"84050","nombre":"La Concordia","region":"Litoral"},{"codigo":"84117","nombre":"Manta","region":"Litoral"},{"codigo":"M0037","nombre":"Milagro","region":"Litoral"},{"codigo":"84140","nombre":"Pichilingue","region":"Litoral"},{"codigo":"84135","nombre":"Portoviejo","region":"Litoral"},{"codigo":"84105","nombre":"Puerto Ila","region":"Litoral"},{"codigo":"84200","nombre":"Salinas","region":"Litoral"},{"codigo":"84252","nombre":"Sta. Rosa","region":"Litoral"}],"familia":"No convencionales","ganadores":[{"bias":0.04,"codigo":"84151","color":"#D55E00","confianza":"Baja","corr":0.76,"familia":"No convencionales","lat":-1.057,"lon":-77.584,"mae":0.22,"modelo":"METEOBLUE","n":7,"nombre":"Jumandy","rating":8.8,"region":"Amazonia","rmse":0.27},{"bias":0.23,"codigo":"84163","color":"#D55E00","confianza":"Baja","corr":0.67,"familia":"No convencionales","lat":-1.5,"lon":-78.06667,"mae":0.26,"modelo":"METEOBLUE","n":7,"nombre":"Pastaza","rating":8.31,"region":"Amazonia","rmse":0.33},{"bias":0.18,"codigo":"84132","color":"#D55E00","confianza":"Baja","corr":0.49,"familia":"No convencionales","lat":-0.92003,"lon":-75.40303,"mae":0.26,"modelo":"METEOBLUE","n":7,"nombre":"N. Rocafu","rating":8.03,"region":"Amazonia","rmse":0.49},{"bias":0.12,"codigo":"84099","color":"#D55E00","confianza":"Baja","corr":0.39,"familia":"No convencionales","lat":-0.46056,"lon":-76.98806,"mae":0.3,"modelo":"METEOBLUE","n":7,"nombre":"El Coca","rating":8.02,"region":"Amazonia","rmse":0.39},{"bias":0.24,"codigo":"84200","color":"#785EF0","confianza":"Baja","corr":0.48,"familia":"No convencionales","lat":-2.2,"lon":-80.98972,"mae":0.31,"modelo":"MFGLOBAL","n":7,"nombre":"Salinas","rating":7.93,"region":"Litoral","rmse":0.38},{"bias":-0.12,"codigo":"84027","color":"#D55E00","confianza":"Baja","corr":0.92,"familia":"No convencionales","lat":0.81667,"lon":-77.7,"mae":0.46,"modelo":"METEOBLUE","n":7,"nombre":"Tulc\u00e1n","rating":7.88,"region":"Interandina","rmse":0.69},{"bias":-0.04,"codigo":"84018","color":"#00A9A5","confianza":"Baja","corr":0.61,"familia":"No convencionales","lat":0.97917,"lon":-79.62444,"mae":0.47,"modelo":"NEMSGLOBAL","n":7,"nombre":"Esmeraldas","rating":7.77,"region":"Litoral","rmse":0.61},{"bias":-0.2,"codigo":"84105","color":"#A6761D","confianza":"Baja","corr":0.39,"familia":"No convencionales","lat":-0.493,"lon":-79.34892,"mae":0.37,"modelo":"NEMSSA","n":7,"nombre":"Puerto Ila","rating":7.73,"region":"Litoral","rmse":0.43},{"bias":0.05,"codigo":"84135","color":"#A6761D","confianza":"Baja","corr":0.59,"familia":"No convencionales","lat":-1.17343,"lon":-80.38736,"mae":0.49,"modelo":"NEMSSA","n":7,"nombre":"Portoviejo","rating":7.69,"region":"Litoral","rmse":0.61},{"bias":-0.27,"codigo":"84001","color":"#00A9A5","confianza":"Baja","corr":0.4,"familia":"No convencionales","lat":-0.445,"lon":-90.269,"mae":0.36,"modelo":"NEMSGLOBAL","n":7,"nombre":"Baltra","rating":7.67,"region":"Insular","rmse":0.44},{"bias":-0.37,"codigo":"84217","color":"#00A9A5","confianza":"Baja","corr":0.9,"familia":"No convencionales","lat":-2.29861,"lon":-78.12056,"mae":0.46,"modelo":"NEMSGLOBAL","n":7,"nombre":"Macas","rating":7.56,"region":"Amazonia","rmse":0.67},{"bias":0.01,"codigo":"84140","color":"#A6761D","confianza":"Baja","corr":0.4,"familia":"No convencionales","lat":-1.07434,"lon":-79.4929,"mae":0.51,"modelo":"NEMSSA","n":7,"nombre":"Pichilingue","rating":7.54,"region":"Litoral","rmse":0.64},{"bias":0.26,"codigo":"84050","color":"#785EF0","confianza":"Baja","corr":0.01,"familia":"No convencionales","lat":-0.02478,"lon":-79.38028,"mae":0.32,"modelo":"MFGLOBAL","n":7,"nombre":"La Concordia","rating":7.49,"region":"Litoral","rmse":0.38},{"bias":0.41,"codigo":"84117","color":"#D55E00","confianza":"Baja","corr":0.44,"familia":"No convencionales","lat":-0.95,"lon":-80.68333,"mae":0.42,"modelo":"METEOBLUE","n":7,"nombre":"Manta","rating":7.23,"region":"Litoral","rmse":0.63},{"bias":-0.15,"codigo":"84036","color":"#D55E00","confianza":"Baja","corr":0.77,"familia":"No convencionales","lat":0.60417,"lon":-77.81944,"mae":0.72,"modelo":"METEOBLUE","n":7,"nombre":"S. Gabriel","rating":7.11,"region":"Interandina","rmse":0.85},{"bias":-0.14,"codigo":"84008","color":"#648FFF","confianza":"Baja","corr":-0.32,"familia":"No convencionales","lat":-0.90406,"lon":-89.61431,"mae":0.39,"modelo":"UMGLOBAL10","n":7,"nombre":"S. Cristobal","rating":7.1,"region":"Insular","rmse":0.46},{"bias":0.48,"codigo":"84203","color":"#D55E00","confianza":"Baja","corr":0.53,"familia":"No convencionales","lat":-2.15333,"lon":-79.88333,"mae":0.51,"modelo":"METEOBLUE","n":7,"nombre":"Guayaquil","rating":7.04,"region":"Litoral","rmse":0.66},{"bias":0.25,"codigo":"84252","color":"#D55E00","confianza":"Baja","corr":0.58,"familia":"No convencionales","lat":-3.43583,"lon":-79.98333,"mae":0.65,"modelo":"METEOBLUE","n":7,"nombre":"Sta. Rosa","rating":6.91,"region":"Litoral","rmse":0.86},{"bias":-0.71,"codigo":"84253","color":"#DC267F","confianza":"Baja","corr":0.58,"familia":"No convencionales","lat":-3.42333,"lon":-78.56694,"mae":0.71,"modelo":"NEMSGLOBAL_E","n":7,"nombre":"Gualaquiza","rating":6.4,"region":"Amazonia","rmse":0.84},{"bias":0.76,"codigo":"84045","color":"#D55E00","confianza":"Baja","corr":0.76,"familia":"No convencionales","lat":0.25694,"lon":-78.40524,"mae":0.76,"modelo":"METEOBLUE","n":7,"nombre":"Inguincho","rating":6.39,"region":"Interandina","rmse":0.9},{"bias":0.55,"codigo":"84123","color":"#D55E00","confianza":"Baja","corr":0.84,"familia":"No convencionales","lat":-0.91333,"lon":-78.61556,"mae":0.85,"modelo":"METEOBLUE","n":7,"nombre":"Latacunga","rating":6.33,"region":"Interandina","rmse":1.11},{"bias":0.58,"codigo":"84179","color":"#D55E00","confianza":"Baja","corr":0.46,"familia":"No convencionales","lat":-1.5057,"lon":-77.956,"mae":0.64,"modelo":"METEOBLUE","n":7,"nombre":"Puyo","rating":6.32,"region":"Amazonia","rmse":1.05},{"bias":-0.4,"codigo":"84239","color":"#D55E00","confianza":"Baja","corr":0.96,"familia":"No convencionales","lat":-2.88917,"lon":-78.98417,"mae":1.06,"modelo":"METEOBLUE","n":7,"nombre":"Cuenca","rating":6.29,"region":"Interandina","rmse":1.14},{"bias":-0.37,"codigo":"M1240","color":"#D55E00","confianza":"Baja","corr":0.84,"familia":"No convencionales","lat":0.32978,"lon":-78.1322,"mae":1.01,"modelo":"METEOBLUE","n":7,"nombre":"Ibarra","rating":6.24,"region":"Interandina","rmse":1.19},{"bias":0.3,"codigo":"84063","color":"#DC267F","confianza":"Baja","corr":0.7,"familia":"No convencionales","lat":0.0925,"lon":-76.86944,"mae":1.05,"modelo":"NEMSGLOBAL_E","n":7,"nombre":"Lago Agrio","rating":6.19,"region":"Amazonia","rmse":1.12},{"bias":0.43,"codigo":"84010","color":"#648FFF","confianza":"Baja","corr":-0.68,"familia":"No convencionales","lat":-0.909,"lon":-89.617,"mae":0.56,"modelo":"UMGLOBAL10","n":7,"nombre":"S. Cristobal A","rating":5.92,"region":"Insular","rmse":0.64},{"bias":0.55,"codigo":"84173","color":"#785EF0","confianza":"Baja","corr":0.5,"familia":"No convencionales","lat":-1.65083,"lon":-78.68521,"mae":1.01,"modelo":"MFGLOBAL","n":7,"nombre":"ESPOCH","rating":5.63,"region":"Interandina","rmse":1.38},{"bias":-0.69,"codigo":"84226","color":"#D55E00","confianza":"Baja","corr":0.63,"familia":"No convencionales","lat":-2.55221,"lon":-78.94519,"mae":1.1,"modelo":"METEOBLUE","n":7,"nombre":"Ca\u00f1ar","rating":5.61,"region":"Interandina","rmse":1.25},{"bias":-0.46,"codigo":"84088","color":"#D55E00","confianza":"Baja","corr":0.17,"familia":"No convencionales","lat":-0.36593,"lon":-78.55513,"mae":1.0,"modelo":"METEOBLUE","n":7,"nombre":"Izobamba","rating":5.5,"region":"Interandina","rmse":1.25},{"bias":0.42,"codigo":"84160","color":"#785EF0","confianza":"Baja","corr":0.82,"familia":"No convencionales","lat":-1.3671,"lon":-78.60554,"mae":1.5,"modelo":"MFGLOBAL","n":7,"nombre":"Querochaca","rating":5.24,"region":"Interandina","rmse":1.93},{"bias":0.59,"codigo":"84075","color":"#A6761D","confianza":"Baja","corr":0.35,"familia":"No convencionales","lat":-0.14083,"lon":-78.353,"mae":1.35,"modelo":"NEMSSA","n":7,"nombre":"Tababela","rating":5.02,"region":"Interandina","rmse":1.52},{"bias":-1.0,"codigo":"84143","color":"#D55E00","confianza":"Baja","corr":0.69,"familia":"No convencionales","lat":-1.01998,"lon":-78.59456,"mae":1.4,"modelo":"METEOBLUE","n":7,"nombre":"Rumipamba","rating":4.93,"region":"Interandina","rmse":1.67},{"bias":-1.68,"codigo":"M0037","color":"#A6761D","confianza":"Baja","corr":0.82,"familia":"No convencionales","lat":-2.11805,"lon":-79.60038,"mae":1.68,"modelo":"NEMSSA","n":7,"nombre":"Milagro","rating":4.55,"region":"Litoral","rmse":1.77},{"bias":-0.61,"codigo":"84076","color":"#648FFF","confianza":"Baja","corr":0.59,"familia":"No convencionales","lat":-0.23179,"lon":-78.37043,"mae":1.7,"modelo":"UMGLOBAL10","n":7,"nombre":"La Tola","rating":4.47,"region":"Interandina","rmse":2.58},{"bias":-0.93,"codigo":"84056","color":"#A6761D","confianza":"Baja","corr":0.88,"familia":"No convencionales","lat":0.01116,"lon":-78.25505,"mae":1.89,"modelo":"NEMSSA","n":7,"nombre":"Tomal\u00f3n","rating":4.45,"region":"Interandina","rmse":2.44},{"bias":-1.21,"codigo":"84270","color":"#CC79A7","confianza":"Baja","corr":0.01,"familia":"No convencionales","lat":-4.0375,"lon":-79.2034,"mae":1.48,"modelo":"GEM15","n":7,"nombre":"Loja Argelia","rating":4.13,"region":"Interandina","rmse":1.75},{"bias":-1.85,"codigo":"84176","color":"#D55E00","confianza":"Baja","corr":0.27,"familia":"No convencionales","lat":-1.65333,"lon":-78.54889,"mae":1.85,"modelo":"METEOBLUE","n":7,"nombre":"Riobamba","rating":3.78,"region":"Interandina","rmse":2.07},{"bias":-2.37,"codigo":"M0024","color":"#785EF0","confianza":"Baja","corr":0.77,"familia":"No convencionales","lat":-0.1783,"lon":-78.48773,"mae":2.37,"modelo":"MFGLOBAL","n":7,"nombre":"I\u00f1aquito","rating":3.67,"region":"Interandina","rmse":2.72},{"bias":-2.35,"codigo":"84265","color":"#D55E00","confianza":"Baja","corr":0.85,"familia":"No convencionales","lat":-3.99556,"lon":-79.37167,"mae":2.65,"modelo":"METEOBLUE","n":7,"nombre":"La Toma","rating":3.56,"region":"Interandina","rmse":3.02},{"bias":-2.16,"codigo":"84147","color":"#D55E00","confianza":"Baja","corr":0.15,"familia":"No convencionales","lat":-1.21413,"lon":-78.57455,"mae":2.16,"modelo":"METEOBLUE","n":7,"nombre":"Ambato","rating":3.33,"region":"Interandina","rmse":2.4}],"metricas":{"calif_media":6.3,"estaciones":40,"mas_ganador":"METEOBLUE"},"modo":"continuous","ranking":[{"bias":-0.29,"color":"#D55E00","confianza":"Baja","corr":0.51,"estaciones":39,"familia":"No convencionales","mae":1.06,"modelo":"METEOBLUE","n":7,"rating":5.94,"rmse":1.28},{"bias":0.03,"color":"#785EF0","confianza":"Baja","corr":0.29,"estaciones":39,"familia":"No convencionales","mae":1.62,"modelo":"MFGLOBAL","n":7,"rating":4.75,"rmse":1.86},{"bias":-1.4,"color":"#A6761D","confianza":"Baja","corr":0.24,"estaciones":37,"familia":"No convencionales","mae":1.87,"modelo":"NEMSSA","n":7,"rating":4.52,"rmse":2.16},{"bias":-1.19,"color":"#648FFF","confianza":"Baja","corr":0.22,"estaciones":40,"familia":"No convencionales","mae":1.77,"modelo":"UMGLOBAL10","n":7,"rating":4.52,"rmse":2.04},{"bias":-1.85,"color":"#CC79A7","confianza":"Baja","corr":0.31,"estaciones":40,"familia":"No convencionales","mae":2.15,"modelo":"GEM15","n":7,"rating":4.41,"rmse":2.37},{"bias":-1.66,"color":"#00A9A5","confianza":"Baja","corr":0.13,"estaciones":40,"familia":"No convencionales","mae":2.19,"modelo":"NEMSGLOBAL","n":7,"rating":4.25,"rmse":2.51},{"bias":-1.21,"color":"#DC267F","confianza":"Baja","corr":0.09,"estaciones":40,"familia":"No convencionales","mae":2.02,"modelo":"NEMSGLOBAL_E","n":7,"rating":4.08,"rmse":2.32},{"bias":-2.15,"color":"#B33DC6","confianza":"Baja","corr":0.25,"estaciones":36,"familia":"No convencionales","mae":2.35,"modelo":"SA01","n":7,"rating":3.79,"rmse":2.68}],"sintesis_region":[{"modelo":"METEOBLUE","region":"Amazonia"},{"modelo":"UMGLOBAL10","region":"Insular"},{"modelo":"METEOBLUE","region":"Interandina"},{"modelo":"NEMSSA","region":"Litoral"}],"ventana":"7"}
