{"bloque":"tmax","bloques":[{"clave":"precip_det","etiqueta":"Precipitaci\u00f3n: detecci\u00f3n"},{"clave":"precip_cua","etiqueta":"Precipitaci\u00f3n: cuantificaci\u00f3n"},{"clave":"tmax","etiqueta":"Temperatura m\u00e1xima"},{"clave":"tmin","etiqueta":"Temperatura m\u00ednima"}],"estaciones":[{"codigo":"84099","nombre":"El Coca","region":"Amazonia"},{"codigo":"84253","nombre":"Gualaquiza","region":"Amazonia"},{"codigo":"84151","nombre":"Jumandy","region":"Amazonia"},{"codigo":"84063","nombre":"Lago Agrio","region":"Amazonia"},{"codigo":"84217","nombre":"Macas","region":"Amazonia"},{"codigo":"84132","nombre":"N. Rocafu","region":"Amazonia"},{"codigo":"84163","nombre":"Pastaza","region":"Amazonia"},{"codigo":"84179","nombre":"Puyo","region":"Amazonia"},{"codigo":"84001","nombre":"Baltra","region":"Insular"},{"codigo":"84008","nombre":"S. Cristobal","region":"Insular"},{"codigo":"84010","nombre":"S. Cristobal A","region":"Insular"},{"codigo":"84147","nombre":"Ambato","region":"Interandina"},{"codigo":"84226","nombre":"Ca\u00f1ar","region":"Interandina"},{"codigo":"84239","nombre":"Cuenca","region":"Interandina"},{"codigo":"84173","nombre":"ESPOCH","region":"Interandina"},{"codigo":"M1240","nombre":"Ibarra","region":"Interandina"},{"codigo":"84045","nombre":"Inguincho","region":"Interandina"},{"codigo":"84088","nombre":"Izobamba","region":"Interandina"},{"codigo":"M0024","nombre":"I\u00f1aquito","region":"Interandina"},{"codigo":"84076","nombre":"La Tola","region":"Interandina"},{"codigo":"84265","nombre":"La Toma","region":"Interandina"},{"codigo":"84123","nombre":"Latacunga","region":"Interandina"},{"codigo":"84270","nombre":"Loja Argelia","region":"Interandina"},{"codigo":"84160","nombre":"Querochaca","region":"Interandina"},{"codigo":"84176","nombre":"Riobamba","region":"Interandina"},{"codigo":"84143","nombre":"Rumipamba","region":"Interandina"},{"codigo":"84036","nombre":"S. Gabriel","region":"Interandina"},{"codigo":"84075","nombre":"Tababela","region":"Interandina"},{"codigo":"84056","nombre":"Tomal\u00f3n","region":"Interandina"},{"codigo":"84027","nombre":"Tulc\u00e1n","region":"Interandina"},{"codigo":"84018","nombre":"Esmeraldas","region":"Litoral"},{"codigo":"84203","nombre":"Guayaquil","region":"Litoral"},{"codigo":"84050","nombre":"La Concordia","region":"Litoral"},{"codigo":"84117","nombre":"Manta","region":"Litoral"},{"codigo":"M0037","nombre":"Milagro","region":"Litoral"},{"codigo":"84140","nombre":"Pichilingue","region":"Litoral"},{"codigo":"84135","nombre":"Portoviejo","region":"Litoral"},{"codigo":"84105","nombre":"Puerto Ila","region":"Litoral"},{"codigo":"84200","nombre":"Salinas","region":"Litoral"},{"codigo":"84252","nombre":"Sta. Rosa","region":"Litoral"}],"familia":"Convencionales","ganadores":[{"bias":-0.24,"codigo":"84088","color":"#56B4E9","confianza":"Media","corr":0.61,"familia":"Convencionales","lat":-0.36593,"lon":-78.55513,"mae":0.59,"modelo":"AIFS025","n":15,"nombre":"Izobamba","rating":7.13,"region":"Interandina","rmse":0.76},{"bias":-0.1,"codigo":"84123","color":"#004E89","confianza":"Media","corr":0.48,"familia":"Convencionales","lat":-0.91333,"lon":-78.61556,"mae":0.69,"modelo":"IFSHRES","n":15,"nombre":"Latacunga","rating":6.92,"region":"Interandina","rmse":0.91},{"bias":-0.65,"codigo":"84045","color":"#56B4E9","confianza":"Media","corr":0.66,"familia":"Convencionales","lat":0.25694,"lon":-78.40524,"mae":0.7,"modelo":"AIFS025","n":15,"nombre":"Inguincho","rating":6.48,"region":"Interandina","rmse":0.9},{"bias":-0.05,"codigo":"84105","color":"#E69F00","confianza":"Media","corr":0.51,"familia":"Convencionales","lat":-0.493,"lon":-79.34892,"mae":1.09,"modelo":"GFS05","n":15,"nombre":"Puerto Ila","rating":6.28,"region":"Litoral","rmse":1.17},{"bias":-0.31,"codigo":"84076","color":"#009E73","confianza":"Media","corr":0.46,"familia":"Convencionales","lat":-0.23179,"lon":-78.37043,"mae":0.83,"modelo":"ICON","n":15,"nombre":"La Tola","rating":6.23,"region":"Interandina","rmse":1.14},{"bias":-0.37,"codigo":"84140","color":"#004E89","confianza":"Media","corr":0.65,"familia":"Convencionales","lat":-1.07434,"lon":-79.4929,"mae":0.95,"modelo":"IFSHRES","n":15,"nombre":"Pichilingue","rating":6.18,"region":"Litoral","rmse":1.13},{"bias":-0.77,"codigo":"84203","color":"#56B4E9","confianza":"Media","corr":0.8,"familia":"Convencionales","lat":-2.15333,"lon":-79.88333,"mae":0.89,"modelo":"AIFS025","n":15,"nombre":"Guayaquil","rating":6.18,"region":"Litoral","rmse":0.97},{"bias":0.79,"codigo":"84226","color":"#0072B2","confianza":"Media","corr":0.81,"familia":"Convencionales","lat":-2.55221,"lon":-78.94519,"mae":0.94,"modelo":"IFS025","n":15,"nombre":"Ca\u00f1ar","rating":5.94,"region":"Interandina","rmse":1.2},{"bias":0.02,"codigo":"84252","color":"#E69F00","confianza":"Media","corr":0.46,"familia":"Convencionales","lat":-3.43583,"lon":-79.98333,"mae":1.21,"modelo":"GFS05","n":15,"nombre":"Sta. Rosa","rating":5.77,"region":"Litoral","rmse":1.81},{"bias":-0.19,"codigo":"84117","color":"#004E89","confianza":"Media","corr":0.05,"familia":"Convencionales","lat":-0.95,"lon":-80.68333,"mae":1.11,"modelo":"IFSHRES","n":15,"nombre":"Manta","rating":5.53,"region":"Litoral","rmse":1.32},{"bias":-0.62,"codigo":"84036","color":"#56B4E9","confianza":"Media","corr":0.35,"familia":"Convencionales","lat":0.60417,"lon":-77.81944,"mae":1.04,"modelo":"AIFS025","n":15,"nombre":"S. Gabriel","rating":5.5,"region":"Interandina","rmse":1.22},{"bias":-0.58,"codigo":"84163","color":"#0072B2","confianza":"Media","corr":0.57,"familia":"Convencionales","lat":-1.5,"lon":-78.06667,"mae":1.26,"modelo":"IFS025","n":15,"nombre":"Pastaza","rating":5.19,"region":"Amazonia","rmse":1.73},{"bias":1.18,"codigo":"84270","color":"#56B4E9","confianza":"Media","corr":0.66,"familia":"Convencionales","lat":-4.0375,"lon":-79.2034,"mae":1.47,"modelo":"AIFS025","n":15,"nombre":"Loja Argelia","rating":4.65,"region":"Interandina","rmse":1.91},{"bias":-1.14,"codigo":"84050","color":"#004E89","confianza":"Media","corr":0.17,"familia":"Convencionales","lat":-0.02478,"lon":-79.38028,"mae":1.36,"modelo":"IFSHRES","n":15,"nombre":"La Concordia","rating":4.44,"region":"Litoral","rmse":1.65},{"bias":-1.1,"codigo":"84179","color":"#004E89","confianza":"Media","corr":0.43,"familia":"Convencionales","lat":-1.5057,"lon":-77.956,"mae":1.72,"modelo":"IFSHRES","n":15,"nombre":"Puyo","rating":4.17,"region":"Amazonia","rmse":2.18},{"bias":-1.91,"codigo":"84018","color":"#009E73","confianza":"Media","corr":0.62,"familia":"Convencionales","lat":0.97917,"lon":-79.62444,"mae":1.91,"modelo":"ICON","n":15,"nombre":"Esmeraldas","rating":4.05,"region":"Litoral","rmse":2.06},{"bias":-0.34,"codigo":"84143","color":"#E69F00","confianza":"Media","corr":-0.45,"familia":"Convencionales","lat":-1.01998,"lon":-78.59456,"mae":1.69,"modelo":"GFS05","n":15,"nombre":"Rumipamba","rating":4.05,"region":"Interandina","rmse":1.94},{"bias":-1.67,"codigo":"84151","color":"#004E89","confianza":"Media","corr":0.63,"familia":"Convencionales","lat":-1.057,"lon":-77.584,"mae":1.98,"modelo":"IFSHRES","n":15,"nombre":"Jumandy","rating":4.01,"region":"Amazonia","rmse":2.18},{"bias":-1.86,"codigo":"84010","color":"#004E89","confianza":"Media","corr":0.46,"familia":"Convencionales","lat":-0.909,"lon":-89.617,"mae":1.86,"modelo":"IFSHRES","n":15,"nombre":"S. Cristobal A","rating":3.99,"region":"Insular","rmse":1.97},{"bias":-0.95,"codigo":"M0037","color":"#009E73","confianza":"Media","corr":0.22,"familia":"Convencionales","lat":-2.11805,"lon":-79.60038,"mae":1.77,"modelo":"ICON","n":15,"nombre":"Milagro","rating":3.96,"region":"Litoral","rmse":2.33},{"bias":-1.74,"codigo":"84239","color":"#004E89","confianza":"Media","corr":0.5,"familia":"Convencionales","lat":-2.88917,"lon":-78.98417,"mae":1.82,"modelo":"IFSHRES","n":15,"nombre":"Cuenca","rating":3.95,"region":"Interandina","rmse":2.26},{"bias":-1.66,"codigo":"84200","color":"#009E73","confianza":"Media","corr":0.09,"familia":"Convencionales","lat":-2.2,"lon":-80.98972,"mae":1.66,"modelo":"ICON","n":15,"nombre":"Salinas","rating":3.94,"region":"Litoral","rmse":1.73},{"bias":-2.09,"codigo":"84160","color":"#0072B2","confianza":"Media","corr":0.68,"familia":"Convencionales","lat":-1.3671,"lon":-78.60554,"mae":2.09,"modelo":"IFS025","n":15,"nombre":"Querochaca","rating":3.84,"region":"Interandina","rmse":2.43},{"bias":-1.8,"codigo":"84027","color":"#56B4E9","confianza":"Media","corr":0.5,"familia":"Convencionales","lat":0.81667,"lon":-77.7,"mae":2.01,"modelo":"AIFS025","n":15,"nombre":"Tulc\u00e1n","rating":3.83,"region":"Interandina","rmse":2.25},{"bias":-1.86,"codigo":"84063","color":"#56B4E9","confianza":"Media","corr":0.52,"familia":"Convencionales","lat":0.0925,"lon":-76.86944,"mae":1.93,"modelo":"AIFS025","n":15,"nombre":"Lago Agrio","rating":3.81,"region":"Amazonia","rmse":2.44},{"bias":-2.23,"codigo":"84056","color":"#004E89","confianza":"Media","corr":0.73,"familia":"Convencionales","lat":0.01116,"lon":-78.25505,"mae":2.23,"modelo":"IFSHRES","n":15,"nombre":"Tomal\u00f3n","rating":3.8,"region":"Interandina","rmse":2.45},{"bias":-2.13,"codigo":"M1240","color":"#004E89","confianza":"Media","corr":0.57,"familia":"Convencionales","lat":0.32978,"lon":-78.1322,"mae":2.13,"modelo":"IFSHRES","n":15,"nombre":"Ibarra","rating":3.75,"region":"Interandina","rmse":2.35},{"bias":-2.18,"codigo":"M0024","color":"#004E89","confianza":"Media","corr":0.57,"familia":"Convencionales","lat":-0.1783,"lon":-78.48773,"mae":2.25,"modelo":"IFSHRES","n":15,"nombre":"I\u00f1aquito","rating":3.62,"region":"Interandina","rmse":2.54},{"bias":-2.35,"codigo":"84135","color":"#0072B2","confianza":"Media","corr":0.58,"familia":"Convencionales","lat":-1.17343,"lon":-80.38736,"mae":2.35,"modelo":"IFS025","n":15,"nombre":"Portoviejo","rating":3.57,"region":"Litoral","rmse":2.53},{"bias":-2.81,"codigo":"84147","color":"#004E89","confianza":"Media","corr":0.86,"familia":"Convencionales","lat":-1.21413,"lon":-78.57455,"mae":2.81,"modelo":"IFSHRES","n":15,"nombre":"Ambato","rating":3.49,"region":"Interandina","rmse":3.03},{"bias":-2.6,"codigo":"84132","color":"#56B4E9","confianza":"Media","corr":0.67,"familia":"Convencionales","lat":-0.92003,"lon":-75.40303,"mae":2.6,"modelo":"AIFS025","n":15,"nombre":"N. Rocafu","rating":3.45,"region":"Amazonia","rmse":2.83},{"bias":-2.45,"codigo":"84075","color":"#009E73","confianza":"Media","corr":0.46,"familia":"Convencionales","lat":-0.14083,"lon":-78.353,"mae":2.66,"modelo":"ICON","n":15,"nombre":"Tababela","rating":3.24,"region":"Interandina","rmse":2.87},{"bias":-2.66,"codigo":"84217","color":"#004E89","confianza":"Media","corr":0.58,"familia":"Convencionales","lat":-2.29861,"lon":-78.12056,"mae":2.73,"modelo":"IFSHRES","n":15,"nombre":"Macas","rating":3.23,"region":"Amazonia","rmse":3.19},{"bias":-3.33,"codigo":"84253","color":"#004E89","confianza":"Media","corr":0.86,"familia":"Convencionales","lat":-3.42333,"lon":-78.56694,"mae":3.33,"modelo":"IFSHRES","n":15,"nombre":"Gualaquiza","rating":3.23,"region":"Amazonia","rmse":3.62},{"bias":-2.33,"codigo":"84001","color":"#004E89","confianza":"Media","corr":0.14,"familia":"Convencionales","lat":-0.445,"lon":-90.269,"mae":2.33,"modelo":"IFSHRES","n":15,"nombre":"Baltra","rating":3.22,"region":"Insular","rmse":2.41},{"bias":-3.0,"codigo":"84099","color":"#E69F00","confianza":"Media","corr":0.79,"familia":"Convencionales","lat":-0.46056,"lon":-76.98806,"mae":3.25,"modelo":"GFS05","n":15,"nombre":"El Coca","rating":3.2,"region":"Amazonia","rmse":3.61},{"bias":-3.12,"codigo":"84008","color":"#009E73","confianza":"Media","corr":0.4,"familia":"Convencionales","lat":-0.90406,"lon":-89.61431,"mae":3.12,"modelo":"ICON","n":15,"nombre":"S. Cristobal","rating":2.93,"region":"Insular","rmse":3.28},{"bias":-4.47,"codigo":"84265","color":"#009E73","confianza":"Media","corr":0.76,"familia":"Convencionales","lat":-3.99556,"lon":-79.37167,"mae":4.47,"modelo":"ICON","n":15,"nombre":"La Toma","rating":2.86,"region":"Interandina","rmse":4.59},{"bias":-5.66,"codigo":"84173","color":"#004E89","confianza":"Media","corr":0.6,"familia":"Convencionales","lat":-1.65083,"lon":-78.68521,"mae":5.66,"modelo":"IFSHRES","n":15,"nombre":"ESPOCH","rating":2.57,"region":"Interandina","rmse":5.8},{"bias":-5.06,"codigo":"84176","color":"#004E89","confianza":"Media","corr":0.36,"familia":"Convencionales","lat":-1.65333,"lon":-78.54889,"mae":5.06,"modelo":"IFSHRES","n":15,"nombre":"Riobamba","rating":2.4,"region":"Interandina","rmse":5.39}],"metricas":{"calif_media":4.4,"estaciones":40,"mas_ganador":"IFSHRES"},"modo":"continuous","ranking":[{"bias":-2.23,"color":"#004E89","confianza":"Media","corr":0.49,"estaciones":40,"familia":"Convencionales","mae":2.41,"modelo":"IFSHRES","n":15,"rating":3.83,"rmse":2.67},{"bias":-3.05,"color":"#56B4E9","confianza":"Media","corr":0.5,"estaciones":40,"familia":"Convencionales","mae":3.19,"modelo":"AIFS025","n":15,"rating":3.56,"rmse":3.4},{"bias":-2.66,"color":"#009E73","confianza":"Media","corr":0.47,"estaciones":40,"familia":"Convencionales","mae":2.96,"modelo":"ICON","n":15,"rating":3.53,"rmse":3.22},{"bias":-3.39,"color":"#0072B2","confianza":"Media","corr":0.42,"estaciones":40,"familia":"Convencionales","mae":3.77,"modelo":"IFS025","n":15,"rating":3.31,"rmse":4.01},{"bias":-2.83,"color":"#E69F00","confianza":"Media","corr":0.36,"estaciones":40,"familia":"Convencionales","mae":3.57,"modelo":"GFS05","n":15,"rating":3.23,"rmse":3.89}],"sintesis_region":[{"modelo":"IFSHRES","region":"Amazonia"},{"modelo":"IFSHRES","region":"Insular"},{"modelo":"IFSHRES","region":"Interandina"},{"modelo":"IFSHRES","region":"Litoral"}],"ventana":"15"}
