{"bloque":"precip_cua","bloques":[{"clave":"precip_det","etiqueta":"Precipitaci\u00f3n: detecci\u00f3n"},{"clave":"precip_cua","etiqueta":"Precipitaci\u00f3n: cuantificaci\u00f3n"},{"clave":"tmax","etiqueta":"Temperatura m\u00e1xima"},{"clave":"tmin","etiqueta":"Temperatura m\u00ednima"}],"estaciones":[{"codigo":"M5190","nombre":"Captaci\u00f3n Central","region":"Amazonia"},{"codigo":"M5187","nombre":"El Chaco 1","region":"Amazonia"},{"codigo":"M5189","nombre":"El Chaco 2","region":"Amazonia"},{"codigo":"84099","nombre":"El Coca","region":"Amazonia"},{"codigo":"84253","nombre":"Gualaquiza","region":"Amazonia"},{"codigo":"CP03","nombre":"Guarumales","region":"Amazonia"},{"codigo":"84151","nombre":"Jumandy","region":"Amazonia"},{"codigo":"84063","nombre":"Lago Agrio","region":"Amazonia"},{"codigo":"84217","nombre":"Macas","region":"Amazonia"},{"codigo":"M1040","nombre":"Macas INA","region":"Amazonia"},{"codigo":"84132","nombre":"N. Rocafu","region":"Amazonia"},{"codigo":"M0188","nombre":"Papallacta","region":"Amazonia"},{"codigo":"84163","nombre":"Pastaza","region":"Amazonia"},{"codigo":"84179","nombre":"Puyo","region":"Amazonia"},{"codigo":"M5008","nombre":"Quijos-Cosan","region":"Amazonia"},{"codigo":"M5254","nombre":"Salve Faccha","region":"Amazonia"},{"codigo":"M1124","nombre":"Sierra Azul","region":"Amazonia"},{"codigo":"M1219","nombre":"Tena Hda","region":"Amazonia"},{"codigo":"M5021","nombre":"Yura Faccha Oyacachi","region":"Amazonia"},{"codigo":"84001","nombre":"Baltra","region":"Insular"},{"codigo":"84008","nombre":"S. Cristobal","region":"Insular"},{"codigo":"84010","nombre":"S. Cristobal A","region":"Insular"},{"codigo":"84147","nombre":"Ambato","region":"Interandina"},{"codigo":"CP01","nombre":"Arenales","region":"Interandina"},{"codigo":"M0055","nombre":"Bicenten","region":"Interandina"},{"codigo":"M5101","nombre":"Calder\u00f3n","region":"Interandina"},{"codigo":"84226","nombre":"Ca\u00f1ar","region":"Interandina"},{"codigo":"CP02","nombre":"Celec Cuenca","region":"Interandina"},{"codigo":"84239","nombre":"Cuenca","region":"Interandina"},{"codigo":"84173","nombre":"ESPOCH","region":"Interandina"},{"codigo":"M0102","nombre":"El \u00c1ngel","region":"Interandina"},{"codigo":"HN03","nombre":"Guayacan","region":"Interandina"},{"codigo":"M1240","nombre":"Ibarra","region":"Interandina"},{"codigo":"84045","nombre":"Inguincho","region":"Interandina"},{"codigo":"84088","nombre":"Izobamba","region":"Interandina"},{"codigo":"M0024","nombre":"I\u00f1aquito","region":"Interandina"},{"codigo":"HN04","nombre":"La Cocha","region":"Interandina"},{"codigo":"M0124","nombre":"La Man\u00e1","region":"Interandina"},{"codigo":"84076","nombre":"La Tola","region":"Interandina"},{"codigo":"84265","nombre":"La Toma","region":"Interandina"},{"codigo":"84123","nombre":"Latacunga","region":"Interandina"},{"codigo":"84270","nombre":"Loja Argelia","region":"Interandina"},{"codigo":"M0105","nombre":"Otavalo","region":"Interandina"},{"codigo":"M0391","nombre":"Pallatanga","region":"Interandina"},{"codigo":"84160","nombre":"Querochaca","region":"Interandina"},{"codigo":"84176","nombre":"Riobamba","region":"Interandina"},{"codigo":"84143","nombre":"Rumipamba","region":"Interandina"},{"codigo":"84036","nombre":"S. Gabriel","region":"Interandina"},{"codigo":"M1274","nombre":"Salesiana","region":"Interandina"},{"codigo":"CP04","nombre":"Sevilla","region":"Interandina"},{"codigo":"CP05","nombre":"Sta.B\u00e1rbara","region":"Interandina"},{"codigo":"84075","nombre":"Tababela","region":"Interandina"},{"codigo":"84056","nombre":"Tomal\u00f3n","region":"Interandina"},{"codigo":"84027","nombre":"Tulc\u00e1n","region":"Interandina"},{"codigo":"HN11","nombre":"Cerradora","region":"Litoral"},{"codigo":"M0162","nombre":"Chone","region":"Litoral"},{"codigo":"HN12","nombre":"DJ Colimes","region":"Litoral"},{"codigo":"HM002","nombre":"Daule","region":"Litoral"},{"codigo":"HN01","nombre":"Dique 1","region":"Litoral"},{"codigo":"84018","nombre":"Esmeraldas","region":"Litoral"},{"codigo":"HN13","nombre":"Flavio Alfaro","region":"Litoral"},{"codigo":"HN02","nombre":"Gualipe","region":"Litoral"},{"codigo":"84203","nombre":"Guayaquil","region":"Litoral"},{"codigo":"M1271","nombre":"Gye(Facult)","region":"Litoral"},{"codigo":"M5135","nombre":"Huaquillas","region":"Litoral"},{"codigo":"HN14","nombre":"La Cancha","region":"Litoral"},{"codigo":"HN15","nombre":"La Capilla","region":"Litoral"},{"codigo":"84050","nombre":"La Concordia","region":"Litoral"},{"codigo":"M1170","nombre":"La Libertad","region":"Litoral"},{"codigo":"HN16","nombre":"La Palizada","region":"Litoral"},{"codigo":"HN22","nombre":"La Presa","region":"Litoral"},{"codigo":"M5090","nombre":"La Troncal","region":"Litoral"},{"codigo":"84117","nombre":"Manta","region":"Litoral"},{"codigo":"HN05","nombre":"Met. Baba","region":"Litoral"},{"codigo":"HN06","nombre":"Met. Chaune","region":"Litoral"},{"codigo":"HN07","nombre":"Met. Toachi","region":"Litoral"},{"codigo":"M0037","nombre":"Milagro","region":"Litoral"},{"codigo":"HN17","nombre":"Murucumba","region":"Litoral"},{"codigo":"M1207","nombre":"Nobol","region":"Litoral"},{"codigo":"HN18","nombre":"Olmedo","region":"Litoral"},{"codigo":"M1253","nombre":"P. Hondo","region":"Litoral"},{"codigo":"HN19","nombre":"Pajan","region":"Litoral"},{"codigo":"HN20","nombre":"Palestina","region":"Litoral"},{"codigo":"84140","nombre":"Pichilingue","region":"Litoral"},{"codigo":"HN21","nombre":"Pichincha","region":"Litoral"},{"codigo":"84135","nombre":"Portoviejo","region":"Litoral"},{"codigo":"HN23","nombre":"Pto. Lim\u00f3n","region":"Litoral"},{"codigo":"HN24","nombre":"Puca","region":"Litoral"},{"codigo":"84105","nombre":"Puerto Ila","region":"Litoral"},{"codigo":"HN08","nombre":"Q. AJ Lulu","region":"Litoral"},{"codigo":"M0156","nombre":"Quinind\u00e9","region":"Litoral"},{"codigo":"HN25","nombre":"Rio Colimes","region":"Litoral"},{"codigo":"HN26","nombre":"Rio Congo","region":"Litoral"},{"codigo":"84200","nombre":"Salinas","region":"Litoral"},{"codigo":"HN09","nombre":"San Miguel","region":"Litoral"},{"codigo":"HN10","nombre":"San Pablo","region":"Litoral"},{"codigo":"HN27","nombre":"San Pedro De Oro","region":"Litoral"},{"codigo":"HN28","nombre":"Santa Lucia","region":"Litoral"},{"codigo":"84252","nombre":"Sta. Rosa","region":"Litoral"},{"codigo":"HN29","nombre":"Union 71","region":"Litoral"}],"familia":"Todos","ganadores":[{"bias":0.03,"codigo":"M1170","color":"#009E73","confianza":"Media","corr":1.0,"familia":"Convencionales","lat":-2.23358,"lon":-80.87507,"mae":0.03,"modelo":"ICON","n":15,"nombre":"La Libertad","rating":9.94,"region":"Litoral","rmse":0.11},{"bias":0.0,"codigo":"84200","color":"#6A1B9A","confianza":"Media","corr":1.0,"familia":"Postprocesamiento","lat":-2.2,"lon":-80.98972,"mae":0.0,"modelo":"CONSENSO_OP_CAL","n":15,"nombre":"Salinas","rating":9.94,"region":"Litoral","rmse":0.0},{"bias":0.02,"codigo":"84265","color":"#FE6100","confianza":"Media","corr":1.0,"familia":"ML","lat":-3.99556,"lon":-79.37167,"mae":0.05,"modelo":"ML_GBR","n":15,"nombre":"La Toma","rating":9.94,"region":"Interandina","rmse":0.08},{"bias":-0.09,"codigo":"HN15","color":"#56B4E9","confianza":"Media","corr":1.0,"familia":"No convencionales","lat":-1.69924,"lon":-79.99773,"mae":0.09,"modelo":"NEMSGLOBAL_E","n":15,"nombre":"La Capilla","rating":9.84,"region":"Litoral","rmse":0.31},{"bias":-0.09,"codigo":"HN28","color":"#56B4E9","confianza":"Media","corr":1.0,"familia":"No convencionales","lat":-1.71536,"lon":-79.99002,"mae":0.09,"modelo":"NEMSGLOBAL_E","n":15,"nombre":"Santa Lucia","rating":9.84,"region":"Litoral","rmse":0.31},{"bias":0.11,"codigo":"84123","color":"#009E73","confianza":"Media","corr":0.95,"familia":"Convencionales","lat":-0.91333,"lon":-78.61556,"mae":0.11,"modelo":"ICON","n":15,"nombre":"Latacunga","rating":9.78,"region":"Interandina","rmse":0.28},{"bias":-0.12,"codigo":"84173","color":"#377EB8","confianza":"Media","corr":0.99,"familia":"Postprocesamiento","lat":-1.65083,"lon":-78.68521,"mae":0.18,"modelo":"BC_CLASSIC_IFSHRES","n":15,"nombre":"ESPOCH","rating":9.76,"region":"Interandina","rmse":0.33},{"bias":0.13,"codigo":"84075","color":"#A6761D","confianza":"Media","corr":0.99,"familia":"No convencionales","lat":-0.14083,"lon":-78.353,"mae":0.19,"modelo":"NEMSSA","n":15,"nombre":"Tababela","rating":9.74,"region":"Interandina","rmse":0.34},{"bias":-0.04,"codigo":"HM002","color":"#6A1B9A","confianza":"Media","corr":0.65,"familia":"Postprocesamiento","lat":-1.85449,"lon":-79.98518,"mae":0.09,"modelo":"CONSENSO_OP_CAL","n":15,"nombre":"Daule","rating":9.57,"region":"Litoral","rmse":0.16},{"bias":-0.0,"codigo":"84147","color":"#785EF0","confianza":"Media","corr":0.94,"familia":"No convencionales","lat":-1.21413,"lon":-78.57455,"mae":0.33,"modelo":"MFGLOBAL","n":15,"nombre":"Ambato","rating":9.55,"region":"Interandina","rmse":0.74},{"bias":0.21,"codigo":"84176","color":"#A6761D","confianza":"Media","corr":0.99,"familia":"No convencionales","lat":-1.65333,"lon":-78.54889,"mae":0.29,"modelo":"NEMSSA","n":15,"nombre":"Riobamba","rating":9.55,"region":"Interandina","rmse":0.82},{"bias":0.13,"codigo":"M1271","color":"#CC79A7","confianza":"Media","corr":0.68,"familia":"Postprocesamiento","lat":-2.14646,"lon":-79.91734,"mae":0.13,"modelo":"QM_IFSHRES","n":15,"nombre":"Gye(Facult)","rating":9.52,"region":"Litoral","rmse":0.32},{"bias":0.2,"codigo":"M1253","color":"#A6761D","confianza":"Media","corr":0.72,"familia":"No convencionales","lat":-2.1925,"lon":-80.02417,"mae":0.2,"modelo":"NEMSSA","n":15,"nombre":"P. Hondo","rating":9.47,"region":"Litoral","rmse":0.4},{"bias":-0.09,"codigo":"84252","color":"#A6761D","confianza":"Media","corr":0.96,"familia":"No convencionales","lat":-3.43583,"lon":-79.98333,"mae":0.43,"modelo":"NEMSSA","n":15,"nombre":"Sta. Rosa","rating":9.4,"region":"Litoral","rmse":1.15},{"bias":0.24,"codigo":"84203","color":"#DC267F","confianza":"Media","corr":0.72,"familia":"ML","lat":-2.15333,"lon":-79.88333,"mae":0.29,"modelo":"ML_XGB","n":15,"nombre":"Guayaquil","rating":9.39,"region":"Litoral","rmse":0.44},{"bias":0.01,"codigo":"84036","color":"#DC267F","confianza":"Media","corr":0.98,"familia":"ML","lat":0.60417,"lon":-77.81944,"mae":0.62,"modelo":"ML_XGB","n":15,"nombre":"S. Gabriel","rating":9.38,"region":"Interandina","rmse":0.86},{"bias":0.47,"codigo":"84076","color":"#6A1B9A","confianza":"Media","corr":0.99,"familia":"Postprocesamiento","lat":-0.23179,"lon":-78.37043,"mae":0.47,"modelo":"CONSENSO_OP_CAL","n":15,"nombre":"La Tola","rating":9.34,"region":"Interandina","rmse":0.93},{"bias":0.03,"codigo":"HN18","color":"#6A1B9A","confianza":"Media","corr":0.79,"familia":"Postprocesamiento","lat":-1.3932,"lon":-80.21461,"mae":0.46,"modelo":"CONSENSO_OP_CAL","n":15,"nombre":"Olmedo","rating":9.32,"region":"Litoral","rmse":0.79},{"bias":0.32,"codigo":"84239","color":"#FE6100","confianza":"Media","corr":0.73,"familia":"ML","lat":-2.88917,"lon":-78.98417,"mae":0.36,"modelo":"ML_GBR","n":15,"nombre":"Cuenca","rating":9.3,"region":"Interandina","rmse":0.58},{"bias":-0.22,"codigo":"84140","color":"#1B9E77","confianza":"Media","corr":0.95,"familia":"Postprocesamiento","lat":-1.07434,"lon":-79.4929,"mae":0.55,"modelo":"BC_CLASSIC_IFS025","n":15,"nombre":"Pichilingue","rating":9.3,"region":"Litoral","rmse":1.05},{"bias":0.38,"codigo":"M1274","color":"#999933","confianza":"Media","corr":0.94,"familia":"ML","lat":-0.28192,"lon":-78.55024,"mae":0.58,"modelo":"HURDLE_CAT","n":15,"nombre":"Salesiana","rating":9.27,"region":"Interandina","rmse":0.85},{"bias":0.2,"codigo":"CP02","color":"#6A1B9A","confianza":"Media","corr":0.63,"familia":"Postprocesamiento","lat":-2.85926,"lon":-78.93337,"mae":0.36,"modelo":"CONSENSO_OP_CAL","n":15,"nombre":"Celec Cuenca","rating":9.22,"region":"Interandina","rmse":0.68},{"bias":0.11,"codigo":"84143","color":"#B33DC6","confianza":"Media","corr":0.96,"familia":"No convencionales","lat":-1.01998,"lon":-78.59456,"mae":0.7,"modelo":"SA01","n":15,"nombre":"Rumipamba","rating":9.21,"region":"Interandina","rmse":1.24},{"bias":-0.28,"codigo":"M1207","color":"#1F78B4","confianza":"Media","corr":0.77,"familia":"Postprocesamiento","lat":-1.92154,"lon":-80.06279,"mae":0.58,"modelo":"QM_METEOBLUE","n":15,"nombre":"Nobol","rating":9.16,"region":"Litoral","rmse":0.8},{"bias":0.51,"codigo":"M0102","color":"#377EB8","confianza":"Media","corr":0.8,"familia":"ML","lat":0.619,"lon":-77.94496,"mae":0.56,"modelo":"ML_HGB","n":15,"nombre":"El \u00c1ngel","rating":9.14,"region":"Interandina","rmse":0.8},{"bias":0.46,"codigo":"84045","color":"#009E73","confianza":"Media","corr":0.97,"familia":"Postprocesamiento","lat":0.25694,"lon":-78.40524,"mae":0.68,"modelo":"QM_AIFS025","n":15,"nombre":"Inguincho","rating":9.13,"region":"Interandina","rmse":1.23},{"bias":0.08,"codigo":"84088","color":"#999933","confianza":"Media","corr":0.9,"familia":"ML","lat":-0.36593,"lon":-78.55513,"mae":0.8,"modelo":"HURDLE_CAT","n":15,"nombre":"Izobamba","rating":9.06,"region":"Interandina","rmse":1.42},{"bias":-0.61,"codigo":"HN25","color":"#56B4E9","confianza":"Media","corr":0.94,"familia":"No convencionales","lat":-1.53925,"lon":-80.02371,"mae":0.61,"modelo":"NEMSGLOBAL_E","n":15,"nombre":"Rio Colimes","rating":9.04,"region":"Litoral","rmse":1.56},{"bias":0.55,"codigo":"M0055","color":"#4DAF4A","confianza":"Media","corr":0.72,"familia":"ML","lat":-0.14111,"lon":-78.48714,"mae":0.55,"modelo":"ML_LGBM","n":15,"nombre":"Bicenten","rating":9.0,"region":"Interandina","rmse":1.12},{"bias":0.48,"codigo":"M0024","color":"#FE6100","confianza":"Media","corr":0.75,"familia":"ML","lat":-0.1783,"lon":-78.48773,"mae":0.61,"modelo":"HURDLE_LGBM","n":15,"nombre":"I\u00f1aquito","rating":8.99,"region":"Interandina","rmse":1.17},{"bias":0.25,"codigo":"M0105","color":"#4DAF4A","confianza":"Media","corr":0.52,"familia":"ML","lat":0.24342,"lon":-78.25006,"mae":0.51,"modelo":"ML_LGBM","n":15,"nombre":"Otavalo","rating":8.97,"region":"Interandina","rmse":0.89},{"bias":-0.09,"codigo":"84001","color":"#8A2BE2","confianza":"Media","corr":0.36,"familia":"Postprocesamiento","lat":-0.445,"lon":-90.269,"mae":0.35,"modelo":"ENS_MEAN","n":15,"nombre":"Baltra","rating":8.97,"region":"Insular","rmse":0.88},{"bias":0.35,"codigo":"HN24","color":"#A65628","confianza":"Media","corr":0.65,"familia":"Postprocesamiento","lat":-1.37354,"lon":-79.97472,"mae":0.7,"modelo":"BC_CLASSIC_METEOBLUE","n":15,"nombre":"Puca","rating":8.88,"region":"Litoral","rmse":1.2},{"bias":0.44,"codigo":"84027","color":"#8A2BE2","confianza":"Media","corr":0.77,"familia":"ML","lat":0.81667,"lon":-77.7,"mae":0.82,"modelo":"ML_ET","n":15,"nombre":"Tulc\u00e1n","rating":8.88,"region":"Interandina","rmse":1.22},{"bias":0.43,"codigo":"84226","color":"#A6761D","confianza":"Media","corr":0.92,"familia":"No convencionales","lat":-2.55221,"lon":-78.94519,"mae":0.84,"modelo":"NEMSSA","n":15,"nombre":"Ca\u00f1ar","rating":8.84,"region":"Interandina","rmse":2.04},{"bias":-0.4,"codigo":"84160","color":"#1B3A6B","confianza":"Media","corr":0.89,"familia":"Postprocesamiento","lat":-1.3671,"lon":-78.60554,"mae":1.01,"modelo":"CONSENSO_OP_TOP10","n":15,"nombre":"Querochaca","rating":8.82,"region":"Interandina","rmse":1.57},{"bias":0.28,"codigo":"CP05","color":"#1F78B4","confianza":"Media","corr":0.61,"familia":"Postprocesamiento","lat":-2.86493,"lon":-78.77274,"mae":0.78,"modelo":"QM_METEOBLUE","n":15,"nombre":"Sta.B\u00e1rbara","rating":8.77,"region":"Interandina","rmse":1.36},{"bias":-0.37,"codigo":"84056","color":"#A6761D","confianza":"Media","corr":0.84,"familia":"No convencionales","lat":0.01116,"lon":-78.25505,"mae":0.78,"modelo":"NEMSSA","n":15,"nombre":"Tomal\u00f3n","rating":8.77,"region":"Interandina","rmse":2.28},{"bias":-0.76,"codigo":"HN12","color":"#56B4E9","confianza":"Media","corr":0.88,"familia":"No convencionales","lat":-1.55262,"lon":-79.99809,"mae":0.76,"modelo":"NEMSGLOBAL_E","n":15,"nombre":"DJ Colimes","rating":8.75,"region":"Litoral","rmse":2.14},{"bias":-0.76,"codigo":"HN20","color":"#56B4E9","confianza":"Media","corr":0.88,"familia":"No convencionales","lat":-1.62349,"lon":-79.98158,"mae":0.76,"modelo":"NEMSGLOBAL_E","n":15,"nombre":"Palestina","rating":8.75,"region":"Litoral","rmse":2.14},{"bias":-0.21,"codigo":"HN19","color":"#E7298A","confianza":"Media","corr":0.7,"familia":"Postprocesamiento","lat":-1.55707,"lon":-80.43704,"mae":1.16,"modelo":"BC_CLASSIC_GFS05","n":15,"nombre":"Pajan","rating":8.48,"region":"Litoral","rmse":2.22},{"bias":1.14,"codigo":"CP04","color":"#0072B2","confianza":"Media","corr":0.82,"familia":"Convencionales","lat":-2.79976,"lon":-78.65003,"mae":1.25,"modelo":"IFS025","n":15,"nombre":"Sevilla","rating":8.41,"region":"Interandina","rmse":1.79},{"bias":-0.12,"codigo":"84270","color":"#17A398","confianza":"Media","corr":0.4,"familia":"Postprocesamiento","lat":-4.0375,"lon":-79.2034,"mae":1.09,"modelo":"ENS_MEDIAN","n":15,"nombre":"Loja Argelia","rating":8.38,"region":"Interandina","rmse":1.66},{"bias":-0.72,"codigo":"M0188","color":"#FDBF6F","confianza":"Media","corr":0.91,"familia":"Postprocesamiento","lat":-0.38062,"lon":-78.1414,"mae":1.9,"modelo":"QM_GFS05","n":15,"nombre":"Papallacta","rating":8.15,"region":"Amazonia","rmse":2.37},{"bias":-0.04,"codigo":"M5135","color":"#00A9A5","confianza":"Media","corr":null,"familia":"No convencionales","lat":-3.48205,"lon":-80.2275,"mae":0.04,"modelo":"NEMSGLOBAL","n":15,"nombre":"Huaquillas","rating":8.12,"region":"Litoral","rmse":0.15},{"bias":-0.7,"codigo":"84018","color":"#7570B3","confianza":"Media","corr":0.47,"familia":"Postprocesamiento","lat":0.97917,"lon":-79.62444,"mae":1.13,"modelo":"BC_CLASSIC_ICON","n":15,"nombre":"Esmeraldas","rating":8.11,"region":"Litoral","rmse":2.51},{"bias":-0.69,"codigo":"HN26","color":"#FDBF6F","confianza":"Media","corr":0.34,"familia":"Postprocesamiento","lat":-1.03848,"lon":-79.69452,"mae":1.5,"modelo":"QM_GFS05","n":15,"nombre":"Rio Congo","rating":7.88,"region":"Litoral","rmse":2.17},{"bias":0.23,"codigo":"M5090","color":"#984EA3","confianza":"Media","corr":null,"familia":"ML","lat":-2.52865,"lon":-79.50257,"mae":0.23,"modelo":"ML_HUBER","n":15,"nombre":"La Troncal","rating":7.87,"region":"Litoral","rmse":0.48},{"bias":0.41,"codigo":"M0162","color":"#FE6100","confianza":"Media","corr":0.46,"familia":"ML","lat":-0.6308,"lon":-80.03651,"mae":1.86,"modelo":"HURDLE_LGBM","n":15,"nombre":"Chone","rating":7.84,"region":"Litoral","rmse":2.34},{"bias":1.93,"codigo":"84135","color":"#785EF0","confianza":"Media","corr":0.91,"familia":"No convencionales","lat":-1.17343,"lon":-80.38736,"mae":1.93,"modelo":"MFGLOBAL","n":15,"nombre":"Portoviejo","rating":7.76,"region":"Litoral","rmse":3.01},{"bias":-0.79,"codigo":"HN02","color":"#A6761D","confianza":"Media","corr":0.76,"familia":"No convencionales","lat":-0.76071,"lon":-79.27486,"mae":2.35,"modelo":"NEMSSA","n":15,"nombre":"Gualipe","rating":7.73,"region":"Litoral","rmse":2.73},{"bias":0.93,"codigo":"84132","color":"#FE6100","confianza":"Media","corr":0.71,"familia":"ML","lat":-0.92003,"lon":-75.40303,"mae":2.32,"modelo":"HURDLE_LGBM","n":15,"nombre":"N. Rocafu","rating":7.6,"region":"Amazonia","rmse":3.07},{"bias":0.05,"codigo":"HN04","color":"#A6761D","confianza":"Media","corr":0.39,"familia":"No convencionales","lat":-0.57889,"lon":-79.02222,"mae":2.15,"modelo":"NEMSSA","n":15,"nombre":"La Cocha","rating":7.58,"region":"Interandina","rmse":3.16},{"bias":-1.09,"codigo":"84008","color":"#A65628","confianza":"Media","corr":0.54,"familia":"Postprocesamiento","lat":-0.90406,"lon":-89.61431,"mae":2.18,"modelo":"BC_CLASSIC_METEOBLUE","n":15,"nombre":"S. Cristobal","rating":7.57,"region":"Insular","rmse":2.55},{"bias":-0.48,"codigo":"HN13","color":"#B33DC6","confianza":"Media","corr":0.48,"familia":"Postprocesamiento","lat":-0.45454,"lon":-79.90448,"mae":2.12,"modelo":"BC_CLASSIC_AIFS025","n":15,"nombre":"Flavio Alfaro","rating":7.5,"region":"Litoral","rmse":3.51},{"bias":-0.95,"codigo":"M1240","color":"#CC79A7","confianza":"Media","corr":0.2,"familia":"Postprocesamiento","lat":0.32978,"lon":-78.1322,"mae":1.39,"modelo":"QM_IFSHRES","n":15,"nombre":"Ibarra","rating":7.5,"region":"Interandina","rmse":3.52},{"bias":0.33,"codigo":"M5101","color":"#8A2BE2","confianza":"Media","corr":0.72,"familia":"Postprocesamiento","lat":-0.07737,"lon":-78.43295,"mae":2.8,"modelo":"ENS_MEAN","n":15,"nombre":"Calder\u00f3n","rating":7.41,"region":"Interandina","rmse":3.89},{"bias":-1.12,"codigo":"84117","color":"#785EF0","confianza":"Media","corr":-0.1,"familia":"No convencionales","lat":-0.95,"lon":-80.68333,"mae":1.15,"modelo":"MFGLOBAL","n":15,"nombre":"Manta","rating":7.38,"region":"Litoral","rmse":3.15},{"bias":0.55,"codigo":"HN11","color":"#785EF0","confianza":"Media","corr":0.73,"familia":"No convencionales","lat":-0.76374,"lon":-79.80413,"mae":2.54,"modelo":"MFGLOBAL","n":15,"nombre":"Cerradora","rating":7.23,"region":"Litoral","rmse":5.47},{"bias":-2.37,"codigo":"M5021","color":"#E69F00","confianza":"Media","corr":0.92,"familia":"Convencionales","lat":-0.18836,"lon":-78.11066,"mae":2.97,"modelo":"GFS05","n":15,"nombre":"Yura Faccha Oyacachi","rating":7.09,"region":"Amazonia","rmse":3.94},{"bias":-2.48,"codigo":"84010","color":"#D55E00","confianza":"Media","corr":0.72,"familia":"No convencionales","lat":-0.909,"lon":-89.617,"mae":2.62,"modelo":"METEOBLUE","n":15,"nombre":"S. Cristobal A","rating":7.07,"region":"Insular","rmse":3.73},{"bias":-0.08,"codigo":"HN08","color":"#377EB8","confianza":"Media","corr":0.15,"familia":"ML","lat":-0.89042,"lon":-79.46725,"mae":2.46,"modelo":"ML_HGB","n":15,"nombre":"Q. AJ Lulu","rating":7.06,"region":"Litoral","rmse":4.17},{"bias":-1.66,"codigo":"HN05","color":"#56B4E9","confianza":"Media","corr":0.27,"familia":"No convencionales","lat":-0.44903,"lon":-79.18796,"mae":2.47,"modelo":"NEMSGLOBAL_E","n":15,"nombre":"Met. Baba","rating":7.0,"region":"Litoral","rmse":2.97},{"bias":-0.76,"codigo":"HN01","color":"#A65628","confianza":"Media","corr":0.82,"familia":"Postprocesamiento","lat":-0.67092,"lon":-79.4155,"mae":3.35,"modelo":"BC_CLASSIC_METEOBLUE","n":15,"nombre":"Dique 1","rating":6.96,"region":"Litoral","rmse":5.42},{"bias":-0.48,"codigo":"M1040","color":"#CC79A7","confianza":"Media","corr":0.88,"familia":"Postprocesamiento","lat":-2.22982,"lon":-78.12501,"mae":3.81,"modelo":"QM_IFSHRES","n":15,"nombre":"Macas INA","rating":6.94,"region":"Amazonia","rmse":5.33},{"bias":0.8,"codigo":"HN14","color":"#6A1B9A","confianza":"Media","corr":0.77,"familia":"Postprocesamiento","lat":-0.42911,"lon":-79.55993,"mae":3.68,"modelo":"CONSENSO_OP_CAL","n":15,"nombre":"La Cancha","rating":6.9,"region":"Litoral","rmse":4.7},{"bias":0.78,"codigo":"HN27","color":"#CC79A7","confianza":"Media","corr":0.62,"familia":"No convencionales","lat":-0.61648,"lon":-79.72021,"mae":3.26,"modelo":"GEM15","n":15,"nombre":"San Pedro De Oro","rating":6.88,"region":"Litoral","rmse":4.94},{"bias":-0.49,"codigo":"M5254","color":"#A6761D","confianza":"Media","corr":0.46,"familia":"No convencionales","lat":-0.23383,"lon":-78.16968,"mae":3.17,"modelo":"NEMSSA","n":15,"nombre":"Salve Faccha","rating":6.77,"region":"Amazonia","rmse":5.39},{"bias":1.78,"codigo":"HN23","color":"#FB9A99","confianza":"Media","corr":0.96,"familia":"Postprocesamiento","lat":-0.39067,"lon":-79.37231,"mae":3.78,"modelo":"QM_ICON","n":15,"nombre":"Pto. Lim\u00f3n","rating":6.76,"region":"Litoral","rmse":5.24},{"bias":-1.71,"codigo":"CP03","color":"#D55E00","confianza":"Media","corr":0.76,"familia":"No convencionales","lat":-2.79945,"lon":-78.49954,"mae":3.87,"modelo":"METEOBLUE","n":15,"nombre":"Guarumales","rating":6.71,"region":"Amazonia","rmse":4.23},{"bias":-1.69,"codigo":"HN06","color":"#A65628","confianza":"Media","corr":0.82,"familia":"Postprocesamiento","lat":-0.67212,"lon":-79.46899,"mae":3.58,"modelo":"BC_CLASSIC_METEOBLUE","n":15,"nombre":"Met. Chaune","rating":6.65,"region":"Litoral","rmse":5.65},{"bias":-2.05,"codigo":"84217","color":"#D55E00","confianza":"Media","corr":0.9,"familia":"No convencionales","lat":-2.29861,"lon":-78.12056,"mae":3.87,"modelo":"METEOBLUE","n":15,"nombre":"Macas","rating":6.6,"region":"Amazonia","rmse":5.41},{"bias":0.21,"codigo":"M0037","color":"#009E73","confianza":"Media","corr":0.78,"familia":"Convencionales","lat":-2.11805,"lon":-79.60038,"mae":3.61,"modelo":"ICON","n":15,"nombre":"Milagro","rating":6.58,"region":"Litoral","rmse":8.66},{"bias":-0.95,"codigo":"HN07","color":"#4DAF4A","confianza":"Media","corr":0.31,"familia":"ML","lat":-0.60921,"lon":-79.19896,"mae":3.36,"modelo":"ML_LGBM","n":15,"nombre":"Met. Toachi","rating":6.56,"region":"Litoral","rmse":4.68},{"bias":-0.15,"codigo":"M0124","color":"#CC79A7","confianza":"Media","corr":0.32,"familia":"No convencionales","lat":-0.90903,"lon":-79.25367,"mae":3.82,"modelo":"GEM15","n":15,"nombre":"La Man\u00e1","rating":6.53,"region":"Interandina","rmse":5.27},{"bias":0.85,"codigo":"84151","color":"#17A398","confianza":"Media","corr":0.22,"familia":"Postprocesamiento","lat":-1.057,"lon":-77.584,"mae":3.58,"modelo":"ENS_MEDIAN","n":15,"nombre":"Jumandy","rating":6.37,"region":"Amazonia","rmse":5.11},{"bias":1.13,"codigo":"HN17","color":"#785EF0","confianza":"Media","corr":0.57,"familia":"No convencionales","lat":-0.9006,"lon":-79.64678,"mae":4.19,"modelo":"MFGLOBAL","n":15,"nombre":"Murucumba","rating":6.22,"region":"Litoral","rmse":6.71},{"bias":-0.97,"codigo":"HN10","color":"#FB9A99","confianza":"Media","corr":0.42,"familia":"Postprocesamiento","lat":-0.94816,"lon":-79.42562,"mae":3.91,"modelo":"QM_ICON","n":15,"nombre":"San Pablo","rating":6.1,"region":"Litoral","rmse":7.6},{"bias":0.34,"codigo":"M5190","color":"#56B4E9","confianza":"Media","corr":0.69,"familia":"Convencionales","lat":-0.19886,"lon":-77.68304,"mae":5.9,"modelo":"AIFS025","n":15,"nombre":"Captaci\u00f3n Central","rating":6.09,"region":"Amazonia","rmse":6.57},{"bias":-3.2,"codigo":"HN21","color":"#A6761D","confianza":"Media","corr":0.8,"familia":"No convencionales","lat":-1.0494,"lon":-79.81367,"mae":3.57,"modelo":"NEMSSA","n":15,"nombre":"Pichincha","rating":6.06,"region":"Litoral","rmse":8.35},{"bias":1.04,"codigo":"HN22","color":"#785EF0","confianza":"Media","corr":0.6,"familia":"No convencionales","lat":-0.92351,"lon":-79.75054,"mae":4.74,"modelo":"MFGLOBAL","n":15,"nombre":"La Presa","rating":6.0,"region":"Litoral","rmse":7.57},{"bias":-0.44,"codigo":"M1124","color":"#56B4E9","confianza":"Media","corr":0.49,"familia":"Convencionales","lat":-0.67418,"lon":-77.91936,"mae":5.39,"modelo":"AIFS025","n":15,"nombre":"Sierra Azul","rating":5.93,"region":"Amazonia","rmse":7.15},{"bias":-0.45,"codigo":"M1219","color":"#1B9E77","confianza":"Media","corr":0.42,"familia":"Postprocesamiento","lat":-0.91685,"lon":-77.81907,"mae":5.45,"modelo":"BC_CLASSIC_IFS025","n":15,"nombre":"Tena Hda","rating":5.71,"region":"Amazonia","rmse":8.47},{"bias":-0.07,"codigo":"CP01","color":"#6A1B9A","confianza":"Media","corr":0.72,"familia":"Postprocesamiento","lat":-2.56545,"lon":-78.56733,"mae":6.8,"modelo":"CONSENSO_OP_CAL","n":15,"nombre":"Arenales","rating":5.71,"region":"Interandina","rmse":9.41},{"bias":-0.0,"codigo":"84063","color":"#8A2BE2","confianza":"Media","corr":0.58,"familia":"Postprocesamiento","lat":0.0925,"lon":-76.86944,"mae":7.09,"modelo":"ENS_MEAN","n":15,"nombre":"Lago Agrio","rating":5.58,"region":"Amazonia","rmse":9.1},{"bias":0.1,"codigo":"M5008","color":"#6A1B9A","confianza":"Media","corr":0.52,"familia":"Postprocesamiento","lat":-0.57833,"lon":-77.86833,"mae":6.58,"modelo":"CONSENSO_OP_CAL","n":15,"nombre":"Quijos-Cosan","rating":5.57,"region":"Amazonia","rmse":9.25},{"bias":-0.53,"codigo":"84099","color":"#0072B2","confianza":"Media","corr":0.66,"familia":"Convencionales","lat":-0.46056,"lon":-76.98806,"mae":7.02,"modelo":"IFS025","n":15,"nombre":"El Coca","rating":5.54,"region":"Amazonia","rmse":8.9},{"bias":-1.17,"codigo":"HN03","color":"#56B4E9","confianza":"Media","corr":0.46,"familia":"Convencionales","lat":-0.88892,"lon":-79.16079,"mae":6.14,"modelo":"AIFS025","n":15,"nombre":"Guayacan","rating":5.48,"region":"Interandina","rmse":8.0},{"bias":-0.16,"codigo":"HN29","color":"#7570B3","confianza":"Media","corr":0.34,"familia":"Postprocesamiento","lat":-0.55975,"lon":-79.48669,"mae":6.47,"modelo":"BC_CLASSIC_ICON","n":15,"nombre":"Union 71","rating":5.47,"region":"Litoral","rmse":8.72},{"bias":-1.0,"codigo":"84253","color":"#B2DF8A","confianza":"Media","corr":0.49,"familia":"Postprocesamiento","lat":-3.42333,"lon":-78.56694,"mae":6.05,"modelo":"QM_IFS025","n":15,"nombre":"Gualaquiza","rating":5.35,"region":"Amazonia","rmse":10.03},{"bias":-1.13,"codigo":"HN16","color":"#CC79A7","confianza":"Media","corr":0.42,"familia":"No convencionales","lat":-0.54753,"lon":-79.58941,"mae":5.42,"modelo":"GEM15","n":15,"nombre":"La Palizada","rating":5.33,"region":"Litoral","rmse":10.92},{"bias":-1.02,"codigo":"M5187","color":"#56B4E9","confianza":"Media","corr":0.65,"familia":"Convencionales","lat":-0.13741,"lon":-77.47286,"mae":8.01,"modelo":"AIFS025","n":15,"nombre":"El Chaco 1","rating":5.14,"region":"Amazonia","rmse":10.29},{"bias":-2.21,"codigo":"M0156","color":"#785EF0","confianza":"Media","corr":-0.02,"familia":"No convencionales","lat":0.31944,"lon":-79.47108,"mae":4.95,"modelo":"MFGLOBAL","n":15,"nombre":"Quinind\u00e9","rating":5.1,"region":"Litoral","rmse":8.09},{"bias":-0.48,"codigo":"84050","color":"#999933","confianza":"Media","corr":-0.06,"familia":"ML","lat":-0.02478,"lon":-79.38028,"mae":6.11,"modelo":"HURDLE_CAT","n":15,"nombre":"La Concordia","rating":5.01,"region":"Litoral","rmse":9.63},{"bias":7.48,"codigo":"84105","color":"#648FFF","confianza":"Media","corr":0.89,"familia":"No convencionales","lat":-0.493,"lon":-79.34892,"mae":7.99,"modelo":"UMGLOBAL10","n":15,"nombre":"Puerto Ila","rating":4.57,"region":"Litoral","rmse":10.26},{"bias":-0.99,"codigo":"M0391","color":"#FB9A99","confianza":"Media","corr":0.64,"familia":"Postprocesamiento","lat":-2.00047,"lon":-78.97222,"mae":9.2,"modelo":"QM_ICON","n":15,"nombre":"Pallatanga","rating":4.52,"region":"Interandina","rmse":18.13},{"bias":-0.16,"codigo":"HN09","color":"#CC79A7","confianza":"Media","corr":0.36,"familia":"No convencionales","lat":-0.32172,"lon":-79.2362,"mae":9.29,"modelo":"GEM15","n":15,"nombre":"San Miguel","rating":4.49,"region":"Litoral","rmse":17.53},{"bias":-0.84,"codigo":"84179","color":"#648FFF","confianza":"Media","corr":0.26,"familia":"No convencionales","lat":-1.5057,"lon":-77.956,"mae":10.23,"modelo":"UMGLOBAL10","n":15,"nombre":"Puyo","rating":4.25,"region":"Amazonia","rmse":15.2},{"bias":-2.88,"codigo":"84163","color":"#648FFF","confianza":"Media","corr":0.35,"familia":"No convencionales","lat":-1.5,"lon":-78.06667,"mae":12.12,"modelo":"UMGLOBAL10","n":15,"nombre":"Pastaza","rating":3.7,"region":"Amazonia","rmse":17.51},{"bias":-5.95,"codigo":"M5189","color":"#004E89","confianza":"Media","corr":0.45,"familia":"Convencionales","lat":-0.13094,"lon":-77.45573,"mae":12.06,"modelo":"IFSHRES","n":15,"nombre":"El Chaco 2","rating":3.5,"region":"Amazonia","rmse":16.2}],"metricas":{"calif_media":7.6,"estaciones":100,"mas_ganador":"NEMSSA"},"modo":"quantification","ranking":[{"bias":-1.42,"color":"#8A2BE2","confianza":"Media","corr":0.38,"estaciones":93,"familia":"ML","mae":3.24,"modelo":"ML_ET","n":15,"rating":6.85,"rmse":5.57},{"bias":-1.34,"color":"#984EA3","confianza":"Media","corr":0.37,"estaciones":93,"familia":"ML","mae":3.3,"modelo":"HURDLE_RF","n":15,"rating":6.81,"rmse":5.57},{"bias":-1.49,"color":"#FE6100","confianza":"Media","corr":0.33,"estaciones":93,"familia":"ML","mae":3.27,"modelo":"ML_GBR","n":15,"rating":6.79,"rmse":5.64},{"bias":-1.52,"color":"#377EB8","confianza":"Media","corr":0.33,"estaciones":93,"familia":"ML","mae":3.28,"modelo":"ML_HGB","n":15,"rating":6.79,"rmse":5.62},{"bias":-1.37,"color":"#785EF0","confianza":"Media","corr":0.36,"estaciones":93,"familia":"ML","mae":3.31,"modelo":"ML_RF","n":15,"rating":6.79,"rmse":5.6},{"bias":-1.62,"color":"#999933","confianza":"Media","corr":0.36,"estaciones":100,"familia":"ML","mae":3.52,"modelo":"HURDLE_CAT","n":15,"rating":6.71,"rmse":5.99},{"bias":-1.51,"color":"#FE6100","confianza":"Media","corr":0.36,"estaciones":100,"familia":"ML","mae":3.55,"modelo":"HURDLE_LGBM","n":15,"rating":6.7,"rmse":5.98},{"bias":-1.53,"color":"#F781BF","confianza":"Media","corr":0.35,"estaciones":100,"familia":"ML","mae":3.53,"modelo":"HURDLE_XGB","n":15,"rating":6.69,"rmse":5.98},{"bias":-1.76,"color":"#E41A1C","confianza":"Media","corr":0.35,"estaciones":100,"familia":"ML","mae":3.52,"modelo":"ML_CAT","n":15,"rating":6.69,"rmse":6.04},{"bias":-1.43,"color":"#E69F00","confianza":"Media","corr":0.34,"estaciones":100,"familia":"ML","mae":3.62,"modelo":"HURDLE_LOGIT_RIDGE","n":15,"rating":6.67,"rmse":6.04},{"bias":-1.7,"color":"#DC267F","confianza":"Media","corr":0.33,"estaciones":100,"familia":"ML","mae":3.54,"modelo":"ML_XGB","n":15,"rating":6.67,"rmse":6.04},{"bias":-1.68,"color":"#FF7F00","confianza":"Media","corr":0.32,"estaciones":100,"familia":"ML","mae":3.58,"modelo":"ML_ELASTICNET","n":15,"rating":6.66,"rmse":6.07},{"bias":-1.67,"color":"#377EB8","confianza":"Media","corr":0.31,"estaciones":100,"familia":"ML","mae":3.59,"modelo":"ML_RIDGE","n":15,"rating":6.64,"rmse":6.09},{"bias":-1.8,"color":"#984EA3","confianza":"Media","corr":0.3,"estaciones":100,"familia":"ML","mae":3.56,"modelo":"ML_HUBER","n":15,"rating":6.64,"rmse":6.15},{"bias":-1.71,"color":"#4DAF4A","confianza":"Media","corr":0.31,"estaciones":100,"familia":"ML","mae":3.57,"modelo":"ML_LGBM","n":15,"rating":6.64,"rmse":6.06},{"bias":-0.05,"color":"#A65628","confianza":"Media","corr":0.39,"estaciones":100,"familia":"Postprocesamiento","mae":4.09,"modelo":"BC_CLASSIC_METEOBLUE","n":15,"rating":6.54,"rmse":6.41},{"bias":-0.74,"color":"#17A398","confianza":"Media","corr":0.35,"estaciones":100,"familia":"Postprocesamiento","mae":3.92,"modelo":"ENS_MEDIAN","n":15,"rating":6.48,"rmse":6.08},{"bias":-1.96,"color":"#A6761D","confianza":"Media","corr":0.33,"estaciones":97,"familia":"No convencionales","mae":3.94,"modelo":"NEMSSA","n":15,"rating":6.47,"rmse":6.78},{"bias":-0.91,"color":"#1F78B4","confianza":"Media","corr":0.43,"estaciones":100,"familia":"Postprocesamiento","mae":3.97,"modelo":"QM_METEOBLUE","n":15,"rating":6.45,"rmse":6.84},{"bias":0.47,"color":"#6A1B9A","confianza":"Media","corr":0.47,"estaciones":100,"familia":"Postprocesamiento","mae":4.36,"modelo":"CONSENSO_OP_CAL","n":15,"rating":6.43,"rmse":7.32},{"bias":0.27,"color":"#111111","confianza":"Media","corr":0.38,"estaciones":97,"familia":"Postprocesamiento","mae":4.36,"modelo":"BEST_OP_CV","n":15,"rating":6.37,"rmse":6.63},{"bias":0.04,"color":"#E7298A","confianza":"Media","corr":0.28,"estaciones":100,"familia":"Postprocesamiento","mae":4.33,"modelo":"BC_CLASSIC_GFS05","n":15,"rating":6.36,"rmse":6.75},{"bias":0.03,"color":"#B33DC6","confianza":"Media","corr":0.32,"estaciones":100,"familia":"Postprocesamiento","mae":4.22,"modelo":"BC_CLASSIC_AIFS025","n":15,"rating":6.35,"rmse":6.67},{"bias":0.58,"color":"#1B3A6B","confianza":"Media","corr":0.44,"estaciones":100,"familia":"Postprocesamiento","mae":4.33,"modelo":"CONSENSO_OP_TOP10","n":15,"rating":6.34,"rmse":6.33},{"bias":-2.16,"color":"#56B4E9","confianza":"Media","corr":0.3,"estaciones":100,"familia":"No convencionales","mae":3.94,"modelo":"NEMSGLOBAL_E","n":15,"rating":6.33,"rmse":6.68},{"bias":-1.31,"color":"#FDBF6F","confianza":"Media","corr":0.32,"estaciones":100,"familia":"Postprocesamiento","mae":4.06,"modelo":"QM_GFS05","n":15,"rating":6.31,"rmse":6.97},{"bias":-2.47,"color":"#00A9A5","confianza":"Media","corr":0.29,"estaciones":100,"familia":"No convencionales","mae":3.94,"modelo":"NEMSGLOBAL","n":15,"rating":6.23,"rmse":6.87},{"bias":-0.03,"color":"#377EB8","confianza":"Media","corr":0.26,"estaciones":100,"familia":"Postprocesamiento","mae":4.44,"modelo":"BC_CLASSIC_IFSHRES","n":15,"rating":6.22,"rmse":7.24},{"bias":-0.58,"color":"#009E73","confianza":"Media","corr":0.41,"estaciones":100,"familia":"Convencionales","mae":4.4,"modelo":"ICON","n":15,"rating":6.19,"rmse":7.29},{"bias":-0.57,"color":"#009E73","confianza":"Media","corr":0.34,"estaciones":100,"familia":"Postprocesamiento","mae":4.5,"modelo":"QM_AIFS025","n":15,"rating":6.14,"rmse":7.78},{"bias":-0.37,"color":"#CC79A7","confianza":"Media","corr":0.32,"estaciones":100,"familia":"Postprocesamiento","mae":4.52,"modelo":"QM_IFSHRES","n":15,"rating":6.13,"rmse":7.84},{"bias":0.9,"color":"#7570B3","confianza":"Media","corr":0.37,"estaciones":100,"familia":"Postprocesamiento","mae":4.76,"modelo":"BC_CLASSIC_ICON","n":15,"rating":6.11,"rmse":7.33},{"bias":0.46,"color":"#8A2BE2","confianza":"Media","corr":0.38,"estaciones":100,"familia":"Postprocesamiento","mae":4.56,"modelo":"ENS_MEAN","n":15,"rating":6.09,"rmse":6.46},{"bias":-0.03,"color":"#1B9E77","confianza":"Media","corr":0.25,"estaciones":100,"familia":"Postprocesamiento","mae":4.43,"modelo":"BC_CLASSIC_IFS025","n":15,"rating":6.09,"rmse":7.42},{"bias":-0.24,"color":"#B2DF8A","confianza":"Media","corr":0.32,"estaciones":100,"familia":"Postprocesamiento","mae":4.87,"modelo":"QM_IFS025","n":15,"rating":6.0,"rmse":8.38},{"bias":0.41,"color":"#FB9A99","confianza":"Media","corr":0.44,"estaciones":100,"familia":"Postprocesamiento","mae":4.84,"modelo":"QM_ICON","n":15,"rating":5.93,"rmse":8.4},{"bias":1.29,"color":"#D55E00","confianza":"Media","corr":0.45,"estaciones":97,"familia":"No convencionales","mae":5.09,"modelo":"METEOBLUE","n":15,"rating":5.92,"rmse":7.24},{"bias":0.86,"color":"#E69F00","confianza":"Media","corr":0.36,"estaciones":100,"familia":"Convencionales","mae":4.97,"modelo":"GFS05","n":15,"rating":5.86,"rmse":7.33},{"bias":-0.32,"color":"#785EF0","confianza":"Media","corr":0.37,"estaciones":97,"familia":"No convencionales","mae":5.03,"modelo":"MFGLOBAL","n":15,"rating":5.69,"rmse":8.75},{"bias":1.89,"color":"#56B4E9","confianza":"Media","corr":0.42,"estaciones":98,"familia":"Convencionales","mae":5.68,"modelo":"AIFS025","n":15,"rating":5.61,"rmse":7.66},{"bias":-0.51,"color":"#B33DC6","confianza":"Media","corr":0.13,"estaciones":91,"familia":"No convencionales","mae":5.34,"modelo":"SA01","n":15,"rating":5.59,"rmse":8.33},{"bias":1.04,"color":"#CC79A7","confianza":"Media","corr":0.29,"estaciones":100,"familia":"No convencionales","mae":5.77,"modelo":"GEM15","n":15,"rating":5.49,"rmse":9.24},{"bias":3.01,"color":"#648FFF","confianza":"Media","corr":0.39,"estaciones":100,"familia":"No convencionales","mae":6.47,"modelo":"UMGLOBAL10","n":15,"rating":5.29,"rmse":9.76},{"bias":2.75,"color":"#004E89","confianza":"Media","corr":0.31,"estaciones":100,"familia":"Convencionales","mae":6.43,"modelo":"IFSHRES","n":15,"rating":5.25,"rmse":9.69},{"bias":3.78,"color":"#0072B2","confianza":"Media","corr":0.32,"estaciones":100,"familia":"Convencionales","mae":7.39,"modelo":"IFS025","n":15,"rating":4.91,"rmse":10.75}],"sintesis_region":[{"modelo":"AIFS025","region":"Amazonia"},{"modelo":"ENS_MEAN","region":"Insular"},{"modelo":"NEMSSA","region":"Interandina"},{"modelo":"NEMSGLOBAL_E","region":"Litoral"}],"ventana":"15"}
