{"bloque":"tmax","bloques":[{"clave":"precip_det","etiqueta":"Precipitaci\u00f3n: detecci\u00f3n"},{"clave":"precip_cua","etiqueta":"Precipitaci\u00f3n: cuantificaci\u00f3n"},{"clave":"tmax","etiqueta":"Temperatura m\u00e1xima"},{"clave":"tmin","etiqueta":"Temperatura m\u00ednima"}],"estaciones":[{"codigo":"84099","nombre":"El Coca","region":"Amazonia"},{"codigo":"84253","nombre":"Gualaquiza","region":"Amazonia"},{"codigo":"84151","nombre":"Jumandy","region":"Amazonia"},{"codigo":"84063","nombre":"Lago Agrio","region":"Amazonia"},{"codigo":"84217","nombre":"Macas","region":"Amazonia"},{"codigo":"84132","nombre":"N. Rocafu","region":"Amazonia"},{"codigo":"84163","nombre":"Pastaza","region":"Amazonia"},{"codigo":"84179","nombre":"Puyo","region":"Amazonia"},{"codigo":"84001","nombre":"Baltra","region":"Insular"},{"codigo":"84008","nombre":"S. Cristobal","region":"Insular"},{"codigo":"84010","nombre":"S. Cristobal A","region":"Insular"},{"codigo":"84147","nombre":"Ambato","region":"Interandina"},{"codigo":"84226","nombre":"Ca\u00f1ar","region":"Interandina"},{"codigo":"84239","nombre":"Cuenca","region":"Interandina"},{"codigo":"84173","nombre":"ESPOCH","region":"Interandina"},{"codigo":"M1240","nombre":"Ibarra","region":"Interandina"},{"codigo":"84045","nombre":"Inguincho","region":"Interandina"},{"codigo":"84088","nombre":"Izobamba","region":"Interandina"},{"codigo":"M0024","nombre":"I\u00f1aquito","region":"Interandina"},{"codigo":"84076","nombre":"La Tola","region":"Interandina"},{"codigo":"84265","nombre":"La Toma","region":"Interandina"},{"codigo":"84123","nombre":"Latacunga","region":"Interandina"},{"codigo":"84270","nombre":"Loja Argelia","region":"Interandina"},{"codigo":"84160","nombre":"Querochaca","region":"Interandina"},{"codigo":"84176","nombre":"Riobamba","region":"Interandina"},{"codigo":"84143","nombre":"Rumipamba","region":"Interandina"},{"codigo":"84036","nombre":"S. Gabriel","region":"Interandina"},{"codigo":"84075","nombre":"Tababela","region":"Interandina"},{"codigo":"84056","nombre":"Tomal\u00f3n","region":"Interandina"},{"codigo":"84027","nombre":"Tulc\u00e1n","region":"Interandina"},{"codigo":"84018","nombre":"Esmeraldas","region":"Litoral"},{"codigo":"84203","nombre":"Guayaquil","region":"Litoral"},{"codigo":"84050","nombre":"La Concordia","region":"Litoral"},{"codigo":"84117","nombre":"Manta","region":"Litoral"},{"codigo":"M0037","nombre":"Milagro","region":"Litoral"},{"codigo":"84140","nombre":"Pichilingue","region":"Litoral"},{"codigo":"84135","nombre":"Portoviejo","region":"Litoral"},{"codigo":"84105","nombre":"Puerto Ila","region":"Litoral"},{"codigo":"84200","nombre":"Salinas","region":"Litoral"},{"codigo":"84252","nombre":"Sta. Rosa","region":"Litoral"}],"familia":"No convencionales","ganadores":[{"bias":-0.52,"codigo":"84200","color":"#D55E00","confianza":"Alta","corr":0.67,"familia":"No convencionales","lat":-2.2,"lon":-80.98972,"mae":0.52,"modelo":"METEOBLUE","n":30,"nombre":"Salinas","rating":7.13,"region":"Litoral","rmse":0.64},{"bias":-0.24,"codigo":"84105","color":"#D55E00","confianza":"Alta","corr":0.69,"familia":"No convencionales","lat":-0.493,"lon":-79.34892,"mae":0.78,"modelo":"METEOBLUE","n":30,"nombre":"Puerto Ila","rating":6.67,"region":"Litoral","rmse":1.04},{"bias":-0.12,"codigo":"84140","color":"#D55E00","confianza":"Alta","corr":0.62,"familia":"No convencionales","lat":-1.07434,"lon":-79.4929,"mae":1.01,"modelo":"METEOBLUE","n":30,"nombre":"Pichilingue","rating":6.32,"region":"Litoral","rmse":1.24},{"bias":0.14,"codigo":"84088","color":"#F781BF","confianza":"Alta","corr":0.65,"familia":"No convencionales","lat":-0.36593,"lon":-78.55513,"mae":1.07,"modelo":"NEMSGLOBAL_E","n":30,"nombre":"Izobamba","rating":6.12,"region":"Interandina","rmse":1.43},{"bias":-0.27,"codigo":"84045","color":"#A6761D","confianza":"Alta","corr":0.71,"familia":"No convencionales","lat":0.25694,"lon":-78.40524,"mae":1.03,"modelo":"NEMSSA","n":30,"nombre":"Inguincho","rating":6.11,"region":"Interandina","rmse":1.33},{"bias":0.52,"codigo":"84117","color":"#B33DC6","confianza":"Alta","corr":0.64,"familia":"No convencionales","lat":-0.95,"lon":-80.68333,"mae":0.95,"modelo":"SA01","n":30,"nombre":"Manta","rating":6.03,"region":"Litoral","rmse":1.13},{"bias":0.26,"codigo":"M0037","color":"#D55E00","confianza":"Media","corr":0.49,"familia":"No convencionales","lat":-2.11805,"lon":-79.60038,"mae":1.09,"modelo":"METEOBLUE","n":25,"nombre":"Milagro","rating":5.76,"region":"Litoral","rmse":1.48},{"bias":0.16,"codigo":"84203","color":"#CC79A7","confianza":"Alta","corr":0.65,"familia":"No convencionales","lat":-2.15333,"lon":-79.88333,"mae":1.33,"modelo":"GEM15","n":30,"nombre":"Guayaquil","rating":5.75,"region":"Litoral","rmse":1.55},{"bias":0.47,"codigo":"84163","color":"#648FFF","confianza":"Alta","corr":0.58,"familia":"No convencionales","lat":-1.5,"lon":-78.06667,"mae":1.05,"modelo":"UMGLOBAL10","n":30,"nombre":"Pastaza","rating":5.71,"region":"Amazonia","rmse":1.42},{"bias":0.3,"codigo":"84179","color":"#648FFF","confianza":"Alta","corr":0.51,"familia":"No convencionales","lat":-1.5057,"lon":-77.956,"mae":1.27,"modelo":"UMGLOBAL10","n":30,"nombre":"Puyo","rating":5.45,"region":"Amazonia","rmse":1.65},{"bias":-1.02,"codigo":"84018","color":"#D55E00","confianza":"Alta","corr":0.71,"familia":"No convencionales","lat":0.97917,"lon":-79.62444,"mae":1.08,"modelo":"METEOBLUE","n":30,"nombre":"Esmeraldas","rating":5.41,"region":"Litoral","rmse":1.4},{"bias":-0.68,"codigo":"84226","color":"#00A9A5","confianza":"Alta","corr":0.6,"familia":"No convencionales","lat":-2.55221,"lon":-78.94519,"mae":1.16,"modelo":"NEMSGLOBAL","n":30,"nombre":"Ca\u00f1ar","rating":5.37,"region":"Interandina","rmse":1.52},{"bias":-0.79,"codigo":"84123","color":"#CC79A7","confianza":"Alta","corr":0.6,"familia":"No convencionales","lat":-0.91333,"lon":-78.61556,"mae":1.15,"modelo":"GEM15","n":30,"nombre":"Latacunga","rating":5.37,"region":"Interandina","rmse":1.4},{"bias":-0.92,"codigo":"84252","color":"#D55E00","confianza":"Alta","corr":0.79,"familia":"No convencionales","lat":-3.43583,"lon":-79.98333,"mae":1.23,"modelo":"METEOBLUE","n":30,"nombre":"Sta. Rosa","rating":5.35,"region":"Litoral","rmse":1.45},{"bias":-0.41,"codigo":"84270","color":"#648FFF","confianza":"Alta","corr":0.7,"familia":"No convencionales","lat":-4.0375,"lon":-79.2034,"mae":1.43,"modelo":"UMGLOBAL10","n":30,"nombre":"Loja Argelia","rating":5.33,"region":"Interandina","rmse":1.69},{"bias":-0.96,"codigo":"84036","color":"#D55E00","confianza":"Alta","corr":0.6,"familia":"No convencionales","lat":0.60417,"lon":-77.81944,"mae":1.1,"modelo":"METEOBLUE","n":30,"nombre":"S. Gabriel","rating":5.31,"region":"Interandina","rmse":1.43},{"bias":-0.33,"codigo":"84143","color":"#A6761D","confianza":"Alta","corr":0.49,"familia":"No convencionales","lat":-1.01998,"lon":-78.59456,"mae":1.31,"modelo":"NEMSSA","n":30,"nombre":"Rumipamba","rating":5.31,"region":"Interandina","rmse":1.74},{"bias":-1.08,"codigo":"84010","color":"#D55E00","confianza":"Alta","corr":0.39,"familia":"No convencionales","lat":-0.909,"lon":-89.617,"mae":1.09,"modelo":"METEOBLUE","n":30,"nombre":"S. Cristobal A","rating":5.03,"region":"Insular","rmse":1.5},{"bias":-1.27,"codigo":"84265","color":"#D55E00","confianza":"Alta","corr":0.82,"familia":"No convencionales","lat":-3.99556,"lon":-79.37167,"mae":1.38,"modelo":"METEOBLUE","n":30,"nombre":"La Toma","rating":4.96,"region":"Interandina","rmse":1.67},{"bias":-0.86,"codigo":"84160","color":"#A6761D","confianza":"Alta","corr":0.62,"familia":"No convencionales","lat":-1.3671,"lon":-78.60554,"mae":1.33,"modelo":"NEMSSA","n":30,"nombre":"Querochaca","rating":4.94,"region":"Interandina","rmse":1.82},{"bias":-1.34,"codigo":"84239","color":"#D55E00","confianza":"Alta","corr":0.82,"familia":"No convencionales","lat":-2.88917,"lon":-78.98417,"mae":1.39,"modelo":"METEOBLUE","n":30,"nombre":"Cuenca","rating":4.87,"region":"Interandina","rmse":1.76},{"bias":-0.96,"codigo":"84076","color":"#D55E00","confianza":"Alta","corr":0.62,"familia":"No convencionales","lat":-0.23179,"lon":-78.37043,"mae":1.37,"modelo":"METEOBLUE","n":30,"nombre":"La Tola","rating":4.86,"region":"Interandina","rmse":1.78},{"bias":-1.19,"codigo":"84063","color":"#D55E00","confianza":"Alta","corr":0.74,"familia":"No convencionales","lat":0.0925,"lon":-76.86944,"mae":1.49,"modelo":"METEOBLUE","n":30,"nombre":"Lago Agrio","rating":4.73,"region":"Amazonia","rmse":1.84},{"bias":1.26,"codigo":"M1240","color":"#648FFF","confianza":"Alta","corr":0.6,"familia":"No convencionales","lat":0.32978,"lon":-78.1322,"mae":1.45,"modelo":"UMGLOBAL10","n":30,"nombre":"Ibarra","rating":4.56,"region":"Interandina","rmse":1.96},{"bias":-0.92,"codigo":"84151","color":"#D55E00","confianza":"Alta","corr":0.57,"familia":"No convencionales","lat":-1.057,"lon":-77.584,"mae":1.65,"modelo":"METEOBLUE","n":30,"nombre":"Jumandy","rating":4.55,"region":"Amazonia","rmse":1.91},{"bias":-0.55,"codigo":"84132","color":"#CC79A7","confianza":"Alta","corr":0.37,"familia":"No convencionales","lat":-0.92003,"lon":-75.40303,"mae":1.62,"modelo":"GEM15","n":30,"nombre":"N. Rocafu","rating":4.55,"region":"Amazonia","rmse":2.11},{"bias":0.38,"codigo":"84217","color":"#CC79A7","confianza":"Alta","corr":0.51,"familia":"No convencionales","lat":-2.29861,"lon":-78.12056,"mae":1.92,"modelo":"GEM15","n":30,"nombre":"Macas","rating":4.53,"region":"Amazonia","rmse":2.41},{"bias":-1.35,"codigo":"84027","color":"#785EF0","confianza":"Alta","corr":0.36,"familia":"No convencionales","lat":0.81667,"lon":-77.7,"mae":1.52,"modelo":"MFGLOBAL","n":30,"nombre":"Tulc\u00e1n","rating":4.32,"region":"Interandina","rmse":1.83},{"bias":-1.65,"codigo":"84075","color":"#D55E00","confianza":"Alta","corr":0.8,"familia":"No convencionales","lat":-0.14083,"lon":-78.353,"mae":1.82,"modelo":"METEOBLUE","n":30,"nombre":"Tababela","rating":4.29,"region":"Interandina","rmse":2.12},{"bias":-1.54,"codigo":"84008","color":"#D55E00","confianza":"Alta","corr":0.44,"familia":"No convencionales","lat":-0.90406,"lon":-89.61431,"mae":1.57,"modelo":"METEOBLUE","n":30,"nombre":"S. Cristobal","rating":4.26,"region":"Insular","rmse":1.9},{"bias":-1.68,"codigo":"84050","color":"#D55E00","confianza":"Alta","corr":0.64,"familia":"No convencionales","lat":-0.02478,"lon":-79.38028,"mae":1.74,"modelo":"METEOBLUE","n":30,"nombre":"La Concordia","rating":4.23,"region":"Litoral","rmse":2.03},{"bias":-1.64,"codigo":"84099","color":"#D55E00","confianza":"Alta","corr":0.77,"familia":"No convencionales","lat":-0.46056,"lon":-76.98806,"mae":1.79,"modelo":"METEOBLUE","n":30,"nombre":"El Coca","rating":4.22,"region":"Amazonia","rmse":2.26},{"bias":-1.71,"codigo":"84135","color":"#B33DC6","confianza":"Alta","corr":0.58,"familia":"No convencionales","lat":-1.17343,"lon":-80.38736,"mae":1.91,"modelo":"SA01","n":30,"nombre":"Portoviejo","rating":3.98,"region":"Litoral","rmse":2.24},{"bias":-1.49,"codigo":"M0024","color":"#CC79A7","confianza":"Alta","corr":0.5,"familia":"No convencionales","lat":-0.1783,"lon":-78.48773,"mae":1.91,"modelo":"GEM15","n":30,"nombre":"I\u00f1aquito","rating":3.84,"region":"Interandina","rmse":2.59},{"bias":-1.88,"codigo":"84001","color":"#648FFF","confianza":"Alta","corr":0.34,"familia":"No convencionales","lat":-0.445,"lon":-90.269,"mae":1.88,"modelo":"UMGLOBAL10","n":30,"nombre":"Baltra","rating":3.82,"region":"Insular","rmse":2.07},{"bias":-2.26,"codigo":"84147","color":"#D55E00","confianza":"Alta","corr":0.64,"familia":"No convencionales","lat":-1.21413,"lon":-78.57455,"mae":2.26,"modelo":"METEOBLUE","n":30,"nombre":"Ambato","rating":3.58,"region":"Interandina","rmse":2.84},{"bias":-2.31,"codigo":"84253","color":"#D55E00","confianza":"Alta","corr":0.59,"familia":"No convencionales","lat":-3.42333,"lon":-78.56694,"mae":2.31,"modelo":"METEOBLUE","n":30,"nombre":"Gualaquiza","rating":3.45,"region":"Amazonia","rmse":3.01},{"bias":-2.86,"codigo":"84056","color":"#A6761D","confianza":"Alta","corr":0.6,"familia":"No convencionales","lat":0.01116,"lon":-78.25505,"mae":2.97,"modelo":"NEMSSA","n":30,"nombre":"Tomal\u00f3n","rating":3.11,"region":"Interandina","rmse":3.52},{"bias":-3.26,"codigo":"84173","color":"#D55E00","confianza":"Alta","corr":0.52,"familia":"No convencionales","lat":-1.65083,"lon":-78.68521,"mae":3.26,"modelo":"METEOBLUE","n":30,"nombre":"ESPOCH","rating":2.91,"region":"Interandina","rmse":3.79},{"bias":-3.65,"codigo":"84176","color":"#F781BF","confianza":"Alta","corr":0.6,"familia":"No convencionales","lat":-1.65333,"lon":-78.54889,"mae":3.69,"modelo":"NEMSGLOBAL_E","n":30,"nombre":"Riobamba","rating":2.9,"region":"Interandina","rmse":3.82}],"metricas":{"calif_media":4.9,"estaciones":40,"mas_ganador":"METEOBLUE"},"modo":"continuous","ranking":[{"bias":-1.59,"color":"#D55E00","confianza":"Alta","corr":0.64,"estaciones":40,"familia":"No convencionales","mae":1.84,"modelo":"METEOBLUE","n":30,"rating":4.52,"rmse":2.18},{"bias":-2.35,"color":"#CC79A7","confianza":"Alta","corr":0.45,"estaciones":40,"familia":"No convencionales","mae":2.84,"modelo":"GEM15","n":30,"rating":3.55,"rmse":3.27},{"bias":-2.44,"color":"#A6761D","confianza":"Alta","corr":0.44,"estaciones":37,"familia":"No convencionales","mae":2.87,"modelo":"NEMSSA","n":30,"rating":3.5,"rmse":3.25},{"bias":-3.34,"color":"#648FFF","confianza":"Alta","corr":0.51,"estaciones":40,"familia":"No convencionales","mae":3.59,"modelo":"UMGLOBAL10","n":30,"rating":3.43,"rmse":3.86},{"bias":-2.83,"color":"#785EF0","confianza":"Alta","corr":0.42,"estaciones":40,"familia":"No convencionales","mae":3.29,"modelo":"MFGLOBAL","n":30,"rating":3.21,"rmse":3.66},{"bias":-2.62,"color":"#F781BF","confianza":"Alta","corr":0.39,"estaciones":40,"familia":"No convencionales","mae":3.14,"modelo":"NEMSGLOBAL_E","n":30,"rating":3.2,"rmse":3.53},{"bias":-2.57,"color":"#00A9A5","confianza":"Alta","corr":0.39,"estaciones":40,"familia":"No convencionales","mae":3.18,"modelo":"NEMSGLOBAL","n":30,"rating":3.16,"rmse":3.58},{"bias":-4.06,"color":"#B33DC6","confianza":"Media","corr":0.4,"estaciones":36,"familia":"No convencionales","mae":4.45,"modelo":"SA01","n":29,"rating":3.07,"rmse":4.8}],"sintesis_region":[{"modelo":"METEOBLUE","region":"Amazonia"},{"modelo":"METEOBLUE","region":"Insular"},{"modelo":"METEOBLUE","region":"Interandina"},{"modelo":"METEOBLUE","region":"Litoral"}],"ventana":"30"}
