{"bloque":"tmin","bloques":[{"clave":"precip_det","etiqueta":"Precipitaci\u00f3n: detecci\u00f3n"},{"clave":"precip_cua","etiqueta":"Precipitaci\u00f3n: cuantificaci\u00f3n"},{"clave":"tmax","etiqueta":"Temperatura m\u00e1xima"},{"clave":"tmin","etiqueta":"Temperatura m\u00ednima"}],"estaciones":[{"codigo":"84099","nombre":"El Coca","region":"Amazonia"},{"codigo":"84253","nombre":"Gualaquiza","region":"Amazonia"},{"codigo":"84151","nombre":"Jumandy","region":"Amazonia"},{"codigo":"84063","nombre":"Lago Agrio","region":"Amazonia"},{"codigo":"84217","nombre":"Macas","region":"Amazonia"},{"codigo":"84132","nombre":"N. Rocafu","region":"Amazonia"},{"codigo":"84163","nombre":"Pastaza","region":"Amazonia"},{"codigo":"84179","nombre":"Puyo","region":"Amazonia"},{"codigo":"84001","nombre":"Baltra","region":"Insular"},{"codigo":"84008","nombre":"S. Cristobal","region":"Insular"},{"codigo":"84010","nombre":"S. Cristobal A","region":"Insular"},{"codigo":"84147","nombre":"Ambato","region":"Interandina"},{"codigo":"84226","nombre":"Ca\u00f1ar","region":"Interandina"},{"codigo":"84239","nombre":"Cuenca","region":"Interandina"},{"codigo":"84173","nombre":"ESPOCH","region":"Interandina"},{"codigo":"M1240","nombre":"Ibarra","region":"Interandina"},{"codigo":"84045","nombre":"Inguincho","region":"Interandina"},{"codigo":"84088","nombre":"Izobamba","region":"Interandina"},{"codigo":"M0024","nombre":"I\u00f1aquito","region":"Interandina"},{"codigo":"84076","nombre":"La Tola","region":"Interandina"},{"codigo":"84265","nombre":"La Toma","region":"Interandina"},{"codigo":"84123","nombre":"Latacunga","region":"Interandina"},{"codigo":"84270","nombre":"Loja Argelia","region":"Interandina"},{"codigo":"84160","nombre":"Querochaca","region":"Interandina"},{"codigo":"84176","nombre":"Riobamba","region":"Interandina"},{"codigo":"84143","nombre":"Rumipamba","region":"Interandina"},{"codigo":"84036","nombre":"S. Gabriel","region":"Interandina"},{"codigo":"84075","nombre":"Tababela","region":"Interandina"},{"codigo":"84056","nombre":"Tomal\u00f3n","region":"Interandina"},{"codigo":"84027","nombre":"Tulc\u00e1n","region":"Interandina"},{"codigo":"84018","nombre":"Esmeraldas","region":"Litoral"},{"codigo":"84203","nombre":"Guayaquil","region":"Litoral"},{"codigo":"84050","nombre":"La Concordia","region":"Litoral"},{"codigo":"84117","nombre":"Manta","region":"Litoral"},{"codigo":"M0037","nombre":"Milagro","region":"Litoral"},{"codigo":"84140","nombre":"Pichilingue","region":"Litoral"},{"codigo":"84135","nombre":"Portoviejo","region":"Litoral"},{"codigo":"84105","nombre":"Puerto Ila","region":"Litoral"},{"codigo":"84200","nombre":"Salinas","region":"Litoral"},{"codigo":"84252","nombre":"Sta. Rosa","region":"Litoral"}],"familia":"No convencionales","ganadores":[{"bias":0.03,"codigo":"84151","color":"#D55E00","confianza":"Baja","corr":0.79,"familia":"No convencionales","lat":-1.057,"lon":-77.584,"mae":0.21,"modelo":"METEOBLUE","n":7,"nombre":"Jumandy","rating":8.9,"region":"Amazonia","rmse":0.24},{"bias":0.24,"codigo":"84099","color":"#D55E00","confianza":"Baja","corr":0.68,"familia":"No convencionales","lat":-0.46056,"lon":-76.98806,"mae":0.24,"modelo":"METEOBLUE","n":7,"nombre":"El Coca","rating":8.35,"region":"Amazonia","rmse":0.33},{"bias":0.03,"codigo":"84001","color":"#984EA3","confianza":"Baja","corr":0.31,"familia":"No convencionales","lat":-0.445,"lon":-90.269,"mae":0.27,"modelo":"NEMSGLOBAL_E","n":7,"nombre":"Baltra","rating":8.22,"region":"Insular","rmse":0.34},{"bias":0.08,"codigo":"84163","color":"#D55E00","confianza":"Baja","corr":0.21,"familia":"No convencionales","lat":-1.5,"lon":-78.06667,"mae":0.25,"modelo":"METEOBLUE","n":7,"nombre":"Pastaza","rating":8.09,"region":"Amazonia","rmse":0.33},{"bias":0.11,"codigo":"84132","color":"#D55E00","confianza":"Baja","corr":0.45,"familia":"No convencionales","lat":-0.92003,"lon":-75.40303,"mae":0.27,"modelo":"METEOBLUE","n":7,"nombre":"N. Rocafu","rating":8.05,"region":"Amazonia","rmse":0.5},{"bias":-0.29,"codigo":"84200","color":"#B33DC6","confianza":"Baja","corr":0.26,"familia":"No convencionales","lat":-2.2,"lon":-80.98972,"mae":0.29,"modelo":"SA01","n":7,"nombre":"Salinas","rating":7.72,"region":"Litoral","rmse":0.38},{"bias":0.31,"codigo":"84140","color":"#785EF0","confianza":"Baja","corr":0.42,"familia":"No convencionales","lat":-1.07434,"lon":-79.4929,"mae":0.37,"modelo":"MFGLOBAL","n":7,"nombre":"Pichilingue","rating":7.55,"region":"Litoral","rmse":0.5},{"bias":0.15,"codigo":"84105","color":"#D55E00","confianza":"Baja","corr":0.2,"familia":"No convencionales","lat":-0.493,"lon":-79.34892,"mae":0.43,"modelo":"METEOBLUE","n":7,"nombre":"Puerto Ila","rating":7.43,"region":"Litoral","rmse":0.48},{"bias":0.03,"codigo":"84135","color":"#A6761D","confianza":"Baja","corr":0.45,"familia":"No convencionales","lat":-1.17343,"lon":-80.38736,"mae":0.57,"modelo":"NEMSSA","n":7,"nombre":"Portoviejo","rating":7.35,"region":"Litoral","rmse":0.72},{"bias":-0.36,"codigo":"84050","color":"#D55E00","confianza":"Baja","corr":0.15,"familia":"No convencionales","lat":-0.02478,"lon":-79.38028,"mae":0.38,"modelo":"METEOBLUE","n":7,"nombre":"La Concordia","rating":7.26,"region":"Litoral","rmse":0.47},{"bias":-0.08,"codigo":"84027","color":"#D55E00","confianza":"Baja","corr":0.84,"familia":"No convencionales","lat":0.81667,"lon":-77.7,"mae":0.72,"modelo":"METEOBLUE","n":7,"nombre":"Tulc\u00e1n","rating":7.21,"region":"Interandina","rmse":0.93},{"bias":-0.09,"codigo":"84008","color":"#648FFF","confianza":"Baja","corr":-0.38,"familia":"No convencionales","lat":-0.90406,"lon":-89.61431,"mae":0.38,"modelo":"UMGLOBAL10","n":7,"nombre":"S. Cristobal","rating":7.17,"region":"Insular","rmse":0.43},{"bias":0.44,"codigo":"84117","color":"#D55E00","confianza":"Baja","corr":0.49,"familia":"No convencionales","lat":-0.95,"lon":-80.68333,"mae":0.45,"modelo":"METEOBLUE","n":7,"nombre":"Manta","rating":7.15,"region":"Litoral","rmse":0.65},{"bias":0.19,"codigo":"84173","color":"#785EF0","confianza":"Baja","corr":0.69,"familia":"No convencionales","lat":-1.65083,"lon":-78.68521,"mae":0.67,"modelo":"MFGLOBAL","n":7,"nombre":"ESPOCH","rating":7.11,"region":"Interandina","rmse":0.8},{"bias":-0.13,"codigo":"84036","color":"#648FFF","confianza":"Baja","corr":0.69,"familia":"No convencionales","lat":0.60417,"lon":-77.81944,"mae":0.7,"modelo":"UMGLOBAL10","n":7,"nombre":"S. Gabriel","rating":7.08,"region":"Interandina","rmse":0.85},{"bias":-0.04,"codigo":"84252","color":"#A6761D","confianza":"Baja","corr":-0.32,"familia":"No convencionales","lat":-3.43583,"lon":-79.98333,"mae":0.5,"modelo":"NEMSSA","n":7,"nombre":"Sta. Rosa","rating":6.8,"region":"Litoral","rmse":0.7},{"bias":-0.4,"codigo":"84063","color":"#984EA3","confianza":"Baja","corr":0.86,"familia":"No convencionales","lat":0.0925,"lon":-76.86944,"mae":0.76,"modelo":"NEMSGLOBAL_E","n":7,"nombre":"Lago Agrio","rating":6.79,"region":"Amazonia","rmse":0.88},{"bias":-0.29,"codigo":"84018","color":"#00A9A5","confianza":"Baja","corr":0.39,"familia":"No convencionales","lat":0.97917,"lon":-79.62444,"mae":0.7,"modelo":"NEMSGLOBAL","n":7,"nombre":"Esmeraldas","rating":6.67,"region":"Litoral","rmse":0.78},{"bias":-0.47,"codigo":"84203","color":"#648FFF","confianza":"Baja","corr":0.24,"familia":"No convencionales","lat":-2.15333,"lon":-79.88333,"mae":0.57,"modelo":"UMGLOBAL10","n":7,"nombre":"Guayaquil","rating":6.64,"region":"Litoral","rmse":0.71},{"bias":-0.63,"codigo":"84217","color":"#648FFF","confianza":"Baja","corr":0.57,"familia":"No convencionales","lat":-2.29861,"lon":-78.12056,"mae":0.63,"modelo":"UMGLOBAL10","n":7,"nombre":"Macas","rating":6.57,"region":"Amazonia","rmse":0.83},{"bias":-0.36,"codigo":"84045","color":"#648FFF","confianza":"Baja","corr":0.31,"familia":"No convencionales","lat":0.25694,"lon":-78.40524,"mae":0.75,"modelo":"UMGLOBAL10","n":7,"nombre":"Inguincho","rating":6.37,"region":"Interandina","rmse":0.87},{"bias":0.48,"codigo":"84010","color":"#648FFF","confianza":"Baja","corr":-0.45,"familia":"No convencionales","lat":-0.909,"lon":-89.617,"mae":0.55,"modelo":"UMGLOBAL10","n":7,"nombre":"S. Cristobal A","rating":6.11,"region":"Insular","rmse":0.63},{"bias":-0.22,"codigo":"84056","color":"#A6761D","confianza":"Baja","corr":0.99,"familia":"No convencionales","lat":0.01116,"lon":-78.25505,"mae":1.24,"modelo":"NEMSSA","n":7,"nombre":"Tomal\u00f3n","rating":6.07,"region":"Interandina","rmse":1.52},{"bias":-0.33,"codigo":"84270","color":"#785EF0","confianza":"Baja","corr":0.77,"familia":"No convencionales","lat":-4.0375,"lon":-79.2034,"mae":1.05,"modelo":"MFGLOBAL","n":7,"nombre":"Loja Argelia","rating":6.07,"region":"Interandina","rmse":1.34},{"bias":-0.09,"codigo":"84239","color":"#D55E00","confianza":"Baja","corr":0.79,"familia":"No convencionales","lat":-2.88917,"lon":-78.98417,"mae":1.36,"modelo":"METEOBLUE","n":7,"nombre":"Cuenca","rating":5.91,"region":"Interandina","rmse":1.62},{"bias":-0.6,"codigo":"84226","color":"#D55E00","confianza":"Baja","corr":0.7,"familia":"No convencionales","lat":-2.55221,"lon":-78.94519,"mae":1.01,"modelo":"METEOBLUE","n":7,"nombre":"Ca\u00f1ar","rating":5.9,"region":"Interandina","rmse":1.19},{"bias":-0.16,"codigo":"84076","color":"#A6761D","confianza":"Baja","corr":0.81,"familia":"No convencionales","lat":-0.23179,"lon":-78.37043,"mae":1.22,"modelo":"NEMSSA","n":7,"nombre":"La Tola","rating":5.86,"region":"Interandina","rmse":1.8},{"bias":0.75,"codigo":"84179","color":"#D55E00","confianza":"Baja","corr":0.55,"familia":"No convencionales","lat":-1.5057,"lon":-77.956,"mae":0.88,"modelo":"METEOBLUE","n":7,"nombre":"Puyo","rating":5.85,"region":"Amazonia","rmse":1.16},{"bias":-0.47,"codigo":"M1240","color":"#D55E00","confianza":"Baja","corr":0.67,"familia":"No convencionales","lat":0.32978,"lon":-78.1322,"mae":1.13,"modelo":"METEOBLUE","n":7,"nombre":"Ibarra","rating":5.78,"region":"Interandina","rmse":1.29},{"bias":-0.08,"codigo":"84160","color":"#785EF0","confianza":"Baja","corr":0.7,"familia":"No convencionales","lat":-1.3671,"lon":-78.60554,"mae":1.33,"modelo":"MFGLOBAL","n":7,"nombre":"Querochaca","rating":5.76,"region":"Interandina","rmse":1.86},{"bias":-0.43,"codigo":"84088","color":"#D55E00","confianza":"Baja","corr":-0.05,"familia":"No convencionales","lat":-0.36593,"lon":-78.55513,"mae":1.08,"modelo":"METEOBLUE","n":7,"nombre":"Izobamba","rating":5.2,"region":"Interandina","rmse":1.32},{"bias":0.21,"codigo":"84123","color":"#B33DC6","confianza":"Baja","corr":0.19,"familia":"No convencionales","lat":-0.91333,"lon":-78.61556,"mae":1.43,"modelo":"SA01","n":7,"nombre":"Latacunga","rating":5.0,"region":"Interandina","rmse":1.89},{"bias":-0.99,"codigo":"84143","color":"#785EF0","confianza":"Baja","corr":0.45,"familia":"No convencionales","lat":-1.01998,"lon":-78.59456,"mae":1.35,"modelo":"MFGLOBAL","n":7,"nombre":"Rumipamba","rating":4.82,"region":"Interandina","rmse":1.58},{"bias":-1.46,"codigo":"84176","color":"#D55E00","confianza":"Baja","corr":0.72,"familia":"No convencionales","lat":-1.65333,"lon":-78.54889,"mae":1.46,"modelo":"METEOBLUE","n":7,"nombre":"Riobamba","rating":4.78,"region":"Interandina","rmse":1.59},{"bias":-1.68,"codigo":"M0037","color":"#A6761D","confianza":"Baja","corr":0.82,"familia":"No convencionales","lat":-2.11805,"lon":-79.60038,"mae":1.68,"modelo":"NEMSSA","n":7,"nombre":"Milagro","rating":4.55,"region":"Litoral","rmse":1.77},{"bias":-1.2,"codigo":"84253","color":"#984EA3","confianza":"Baja","corr":0.15,"familia":"No convencionales","lat":-3.42333,"lon":-78.56694,"mae":1.2,"modelo":"NEMSGLOBAL_E","n":7,"nombre":"Gualaquiza","rating":4.54,"region":"Amazonia","rmse":1.7},{"bias":1.67,"codigo":"84075","color":"#A6761D","confianza":"Baja","corr":0.73,"familia":"No convencionales","lat":-0.14083,"lon":-78.353,"mae":1.67,"modelo":"NEMSSA","n":7,"nombre":"Tababela","rating":4.38,"region":"Interandina","rmse":1.99},{"bias":-1.76,"codigo":"M0024","color":"#785EF0","confianza":"Baja","corr":0.76,"familia":"No convencionales","lat":-0.1783,"lon":-78.48773,"mae":1.77,"modelo":"MFGLOBAL","n":7,"nombre":"I\u00f1aquito","rating":4.19,"region":"Interandina","rmse":2.34},{"bias":-1.65,"codigo":"84265","color":"#785EF0","confianza":"Baja","corr":0.76,"familia":"No convencionales","lat":-3.99556,"lon":-79.37167,"mae":2.29,"modelo":"MFGLOBAL","n":7,"nombre":"La Toma","rating":3.78,"region":"Interandina","rmse":2.81},{"bias":-2.0,"codigo":"84147","color":"#D55E00","confianza":"Baja","corr":0.13,"familia":"No convencionales","lat":-1.21413,"lon":-78.57455,"mae":2.0,"modelo":"METEOBLUE","n":7,"nombre":"Ambato","rating":3.46,"region":"Interandina","rmse":2.25}],"metricas":{"calif_media":6.3,"estaciones":40,"mas_ganador":"METEOBLUE"},"modo":"continuous","ranking":[{"bias":-0.21,"color":"#D55E00","confianza":"Baja","corr":0.44,"estaciones":39,"familia":"No convencionales","mae":1.14,"modelo":"METEOBLUE","n":7,"rating":5.72,"rmse":1.36},{"bias":0.09,"color":"#785EF0","confianza":"Baja","corr":0.31,"estaciones":39,"familia":"No convencionales","mae":1.59,"modelo":"MFGLOBAL","n":7,"rating":4.83,"rmse":1.85},{"bias":-1.0,"color":"#648FFF","confianza":"Baja","corr":0.3,"estaciones":40,"familia":"No convencionales","mae":1.65,"modelo":"UMGLOBAL10","n":7,"rating":4.76,"rmse":1.88},{"bias":-1.79,"color":"#CC79A7","confianza":"Baja","corr":0.34,"estaciones":40,"familia":"No convencionales","mae":2.11,"modelo":"GEM15","n":7,"rating":4.43,"rmse":2.35},{"bias":-1.52,"color":"#A6761D","confianza":"Baja","corr":0.11,"estaciones":37,"familia":"No convencionales","mae":1.98,"modelo":"NEMSSA","n":7,"rating":4.2,"rmse":2.28},{"bias":-1.84,"color":"#00A9A5","confianza":"Baja","corr":-0.02,"estaciones":40,"familia":"No convencionales","mae":2.35,"modelo":"NEMSGLOBAL","n":7,"rating":3.9,"rmse":2.69},{"bias":-1.5,"color":"#984EA3","confianza":"Baja","corr":-0.05,"estaciones":40,"familia":"No convencionales","mae":2.18,"modelo":"NEMSGLOBAL_E","n":7,"rating":3.85,"rmse":2.5},{"bias":-2.09,"color":"#B33DC6","confianza":"Baja","corr":0.17,"estaciones":36,"familia":"No convencionales","mae":2.32,"modelo":"SA01","n":7,"rating":3.68,"rmse":2.66}],"sintesis_region":[{"modelo":"METEOBLUE","region":"Amazonia"},{"modelo":"UMGLOBAL10","region":"Insular"},{"modelo":"METEOBLUE","region":"Interandina"},{"modelo":"NEMSSA","region":"Litoral"}],"ventana":"7"}
