{"bloque":"tmax","bloques":[{"clave":"precip_det","etiqueta":"Precipitaci\u00f3n: detecci\u00f3n"},{"clave":"precip_cua","etiqueta":"Precipitaci\u00f3n: cuantificaci\u00f3n"},{"clave":"tmax","etiqueta":"Temperatura m\u00e1xima"},{"clave":"tmin","etiqueta":"Temperatura m\u00ednima"}],"estaciones":[{"codigo":"84099","nombre":"El Coca","region":"Amazonia"},{"codigo":"84253","nombre":"Gualaquiza","region":"Amazonia"},{"codigo":"84151","nombre":"Jumandy","region":"Amazonia"},{"codigo":"84063","nombre":"Lago Agrio","region":"Amazonia"},{"codigo":"84217","nombre":"Macas","region":"Amazonia"},{"codigo":"84132","nombre":"N. Rocafu","region":"Amazonia"},{"codigo":"84163","nombre":"Pastaza","region":"Amazonia"},{"codigo":"84179","nombre":"Puyo","region":"Amazonia"},{"codigo":"84001","nombre":"Baltra","region":"Insular"},{"codigo":"84008","nombre":"S. Cristobal","region":"Insular"},{"codigo":"84010","nombre":"S. Cristobal A","region":"Insular"},{"codigo":"84147","nombre":"Ambato","region":"Interandina"},{"codigo":"84226","nombre":"Ca\u00f1ar","region":"Interandina"},{"codigo":"84239","nombre":"Cuenca","region":"Interandina"},{"codigo":"84173","nombre":"ESPOCH","region":"Interandina"},{"codigo":"M1240","nombre":"Ibarra","region":"Interandina"},{"codigo":"84045","nombre":"Inguincho","region":"Interandina"},{"codigo":"84088","nombre":"Izobamba","region":"Interandina"},{"codigo":"M0024","nombre":"I\u00f1aquito","region":"Interandina"},{"codigo":"84076","nombre":"La Tola","region":"Interandina"},{"codigo":"84265","nombre":"La Toma","region":"Interandina"},{"codigo":"84123","nombre":"Latacunga","region":"Interandina"},{"codigo":"84270","nombre":"Loja Argelia","region":"Interandina"},{"codigo":"84160","nombre":"Querochaca","region":"Interandina"},{"codigo":"84176","nombre":"Riobamba","region":"Interandina"},{"codigo":"84143","nombre":"Rumipamba","region":"Interandina"},{"codigo":"84036","nombre":"S. Gabriel","region":"Interandina"},{"codigo":"84075","nombre":"Tababela","region":"Interandina"},{"codigo":"84056","nombre":"Tomal\u00f3n","region":"Interandina"},{"codigo":"84027","nombre":"Tulc\u00e1n","region":"Interandina"},{"codigo":"84018","nombre":"Esmeraldas","region":"Litoral"},{"codigo":"84203","nombre":"Guayaquil","region":"Litoral"},{"codigo":"84050","nombre":"La Concordia","region":"Litoral"},{"codigo":"84117","nombre":"Manta","region":"Litoral"},{"codigo":"M0037","nombre":"Milagro","region":"Litoral"},{"codigo":"84140","nombre":"Pichilingue","region":"Litoral"},{"codigo":"84135","nombre":"Portoviejo","region":"Litoral"},{"codigo":"84105","nombre":"Puerto Ila","region":"Litoral"},{"codigo":"84200","nombre":"Salinas","region":"Litoral"},{"codigo":"84252","nombre":"Sta. Rosa","region":"Litoral"}],"familia":"No convencionales","ganadores":[{"bias":0.1,"codigo":"84143","color":"#A6761D","confianza":"Baja","corr":0.87,"familia":"No convencionales","lat":-1.01998,"lon":-78.59456,"mae":0.53,"modelo":"NEMSSA","n":7,"nombre":"Rumipamba","rating":7.8,"region":"Interandina","rmse":0.61},{"bias":0.1,"codigo":"84203","color":"#785EF0","confianza":"Baja","corr":0.86,"familia":"No convencionales","lat":-2.15333,"lon":-79.88333,"mae":0.65,"modelo":"MFGLOBAL","n":7,"nombre":"Guayaquil","rating":7.45,"region":"Litoral","rmse":0.77},{"bias":0.27,"codigo":"84200","color":"#DC267F","confianza":"Baja","corr":0.14,"familia":"No convencionales","lat":-2.2,"lon":-80.98972,"mae":0.4,"modelo":"NEMSGLOBAL_E","n":7,"nombre":"Salinas","rating":7.31,"region":"Litoral","rmse":0.46},{"bias":-0.04,"codigo":"84217","color":"#CC79A7","confianza":"Baja","corr":0.92,"familia":"No convencionales","lat":-2.29861,"lon":-78.12056,"mae":0.81,"modelo":"GEM15","n":7,"nombre":"Macas","rating":7.21,"region":"Amazonia","rmse":0.92},{"bias":-0.01,"codigo":"84088","color":"#DC267F","confianza":"Baja","corr":0.52,"familia":"No convencionales","lat":-0.36593,"lon":-78.55513,"mae":0.66,"modelo":"NEMSGLOBAL_E","n":7,"nombre":"Izobamba","rating":7.2,"region":"Interandina","rmse":0.86},{"bias":0.31,"codigo":"84045","color":"#A6761D","confianza":"Baja","corr":0.47,"familia":"No convencionales","lat":0.25694,"lon":-78.40524,"mae":0.6,"modelo":"NEMSSA","n":7,"nombre":"Inguincho","rating":6.98,"region":"Interandina","rmse":0.68},{"bias":0.01,"codigo":"84179","color":"#CC79A7","confianza":"Baja","corr":0.91,"familia":"No convencionales","lat":-1.5057,"lon":-77.956,"mae":0.94,"modelo":"GEM15","n":7,"nombre":"Puyo","rating":6.94,"region":"Amazonia","rmse":1.12},{"bias":0.36,"codigo":"84117","color":"#B33DC6","confianza":"Baja","corr":0.34,"familia":"No convencionales","lat":-0.95,"lon":-80.68333,"mae":0.55,"modelo":"SA01","n":7,"nombre":"Manta","rating":6.92,"region":"Litoral","rmse":0.65},{"bias":-0.67,"codigo":"84099","color":"#D55E00","confianza":"Baja","corr":0.97,"familia":"No convencionales","lat":-0.46056,"lon":-76.98806,"mae":0.8,"modelo":"METEOBLUE","n":7,"nombre":"El Coca","rating":6.6,"region":"Amazonia","rmse":0.89},{"bias":-0.71,"codigo":"84160","color":"#A6761D","confianza":"Baja","corr":0.91,"familia":"No convencionales","lat":-1.3671,"lon":-78.60554,"mae":0.77,"modelo":"NEMSSA","n":7,"nombre":"Querochaca","rating":6.47,"region":"Interandina","rmse":1.01},{"bias":-0.3,"codigo":"84140","color":"#D55E00","confianza":"Baja","corr":0.9,"familia":"No convencionales","lat":-1.07434,"lon":-79.4929,"mae":1.01,"modelo":"METEOBLUE","n":7,"nombre":"Pichilingue","rating":6.32,"region":"Litoral","rmse":1.26},{"bias":0.76,"codigo":"M1240","color":"#648FFF","confianza":"Baja","corr":0.75,"familia":"No convencionales","lat":0.32978,"lon":-78.1322,"mae":0.76,"modelo":"UMGLOBAL10","n":7,"nombre":"Ibarra","rating":6.32,"region":"Interandina","rmse":0.97},{"bias":-0.72,"codigo":"84123","color":"#D55E00","confianza":"Baja","corr":0.68,"familia":"No convencionales","lat":-0.91333,"lon":-78.61556,"mae":0.77,"modelo":"METEOBLUE","n":7,"nombre":"Latacunga","rating":6.25,"region":"Interandina","rmse":0.99},{"bias":0.42,"codigo":"84147","color":"#A6761D","confianza":"Baja","corr":0.81,"familia":"No convencionales","lat":-1.21413,"lon":-78.57455,"mae":0.94,"modelo":"NEMSSA","n":7,"nombre":"Ambato","rating":6.23,"region":"Interandina","rmse":1.2},{"bias":-0.53,"codigo":"84265","color":"#D55E00","confianza":"Baja","corr":0.84,"familia":"No convencionales","lat":-3.99556,"lon":-79.37167,"mae":0.96,"modelo":"METEOBLUE","n":7,"nombre":"La Toma","rating":6.21,"region":"Interandina","rmse":1.08},{"bias":-0.13,"codigo":"84252","color":"#D55E00","confianza":"Baja","corr":0.66,"familia":"No convencionales","lat":-3.43583,"lon":-79.98333,"mae":1.03,"modelo":"METEOBLUE","n":7,"nombre":"Sta. Rosa","rating":6.21,"region":"Litoral","rmse":1.4},{"bias":-0.39,"codigo":"84163","color":"#648FFF","confianza":"Baja","corr":0.79,"familia":"No convencionales","lat":-1.5,"lon":-78.06667,"mae":1.05,"modelo":"UMGLOBAL10","n":7,"nombre":"Pastaza","rating":6.14,"region":"Amazonia","rmse":1.16},{"bias":-0.29,"codigo":"84027","color":"#785EF0","confianza":"Baja","corr":0.36,"familia":"No convencionales","lat":0.81667,"lon":-77.7,"mae":0.97,"modelo":"MFGLOBAL","n":7,"nombre":"Tulc\u00e1n","rating":6.06,"region":"Interandina","rmse":1.03},{"bias":-0.61,"codigo":"84135","color":"#CC79A7","confianza":"Baja","corr":0.73,"familia":"No convencionales","lat":-1.17343,"lon":-80.38736,"mae":1.06,"modelo":"GEM15","n":7,"nombre":"Portoviejo","rating":5.89,"region":"Litoral","rmse":1.15},{"bias":0.67,"codigo":"M0037","color":"#DC267F","confianza":"Baja","corr":0.82,"familia":"No convencionales","lat":-2.11805,"lon":-79.60038,"mae":1.03,"modelo":"NEMSGLOBAL_E","n":7,"nombre":"Milagro","rating":5.72,"region":"Litoral","rmse":1.52},{"bias":-1.24,"codigo":"84226","color":"#00A9A5","confianza":"Baja","corr":0.96,"familia":"No convencionales","lat":-2.55221,"lon":-78.94519,"mae":1.24,"modelo":"NEMSGLOBAL","n":7,"nombre":"Ca\u00f1ar","rating":5.43,"region":"Interandina","rmse":1.32},{"bias":-0.5,"codigo":"84076","color":"#D55E00","confianza":"Baja","corr":-0.05,"familia":"No convencionales","lat":-0.23179,"lon":-78.37043,"mae":1.16,"modelo":"METEOBLUE","n":7,"nombre":"La Tola","rating":5.01,"region":"Interandina","rmse":1.39},{"bias":-0.88,"codigo":"84151","color":"#D55E00","confianza":"Baja","corr":0.39,"familia":"No convencionales","lat":-1.057,"lon":-77.584,"mae":1.31,"modelo":"METEOBLUE","n":7,"nombre":"Jumandy","rating":4.97,"region":"Amazonia","rmse":1.41},{"bias":-1.29,"codigo":"84018","color":"#D55E00","confianza":"Baja","corr":0.67,"familia":"No convencionales","lat":0.97917,"lon":-79.62444,"mae":1.29,"modelo":"METEOBLUE","n":7,"nombre":"Esmeraldas","rating":4.92,"region":"Litoral","rmse":1.63},{"bias":-1.27,"codigo":"84105","color":"#648FFF","confianza":"Baja","corr":0.74,"familia":"No convencionales","lat":-0.493,"lon":-79.34892,"mae":1.33,"modelo":"UMGLOBAL10","n":7,"nombre":"Puerto Ila","rating":4.87,"region":"Litoral","rmse":1.79},{"bias":-1.22,"codigo":"84010","color":"#D55E00","confianza":"Baja","corr":0.34,"familia":"No convencionales","lat":-0.909,"lon":-89.617,"mae":1.22,"modelo":"METEOBLUE","n":7,"nombre":"S. Cristobal A","rating":4.74,"region":"Insular","rmse":1.59},{"bias":-1.56,"codigo":"84239","color":"#D55E00","confianza":"Baja","corr":0.76,"familia":"No convencionales","lat":-2.88917,"lon":-78.98417,"mae":1.56,"modelo":"METEOBLUE","n":7,"nombre":"Cuenca","rating":4.54,"region":"Interandina","rmse":1.95},{"bias":-1.28,"codigo":"84132","color":"#CC79A7","confianza":"Baja","corr":0.55,"familia":"No convencionales","lat":-0.92003,"lon":-75.40303,"mae":1.5,"modelo":"GEM15","n":7,"nombre":"N. Rocafu","rating":4.49,"region":"Amazonia","rmse":1.92},{"bias":-0.84,"codigo":"84270","color":"#785EF0","confianza":"Baja","corr":0.33,"familia":"No convencionales","lat":-4.0375,"lon":-79.2034,"mae":1.6,"modelo":"MFGLOBAL","n":7,"nombre":"Loja Argelia","rating":4.45,"region":"Interandina","rmse":1.83},{"bias":-1.76,"codigo":"84075","color":"#D55E00","confianza":"Baja","corr":0.8,"familia":"No convencionales","lat":-0.14083,"lon":-78.353,"mae":1.76,"modelo":"METEOBLUE","n":7,"nombre":"Tababela","rating":4.39,"region":"Interandina","rmse":1.92},{"bias":-1.44,"codigo":"84036","color":"#D55E00","confianza":"Baja","corr":0.39,"familia":"No convencionales","lat":0.60417,"lon":-77.81944,"mae":1.44,"modelo":"METEOBLUE","n":7,"nombre":"S. Gabriel","rating":4.37,"region":"Interandina","rmse":1.85},{"bias":-1.84,"codigo":"84001","color":"#D55E00","confianza":"Baja","corr":0.99,"familia":"No convencionales","lat":-0.445,"lon":-90.269,"mae":1.84,"modelo":"METEOBLUE","n":7,"nombre":"Baltra","rating":4.35,"region":"Insular","rmse":2.29},{"bias":-1.37,"codigo":"M0024","color":"#CC79A7","confianza":"Baja","corr":0.31,"familia":"No convencionales","lat":-0.1783,"lon":-78.48773,"mae":1.42,"modelo":"GEM15","n":7,"nombre":"I\u00f1aquito","rating":4.31,"region":"Interandina","rmse":1.9},{"bias":-1.68,"codigo":"84063","color":"#D55E00","confianza":"Baja","corr":0.33,"familia":"No convencionales","lat":0.0925,"lon":-76.86944,"mae":1.7,"modelo":"METEOBLUE","n":7,"nombre":"Lago Agrio","rating":3.9,"region":"Amazonia","rmse":2.2},{"bias":-1.96,"codigo":"84050","color":"#785EF0","confianza":"Baja","corr":0.48,"familia":"No convencionales","lat":-0.02478,"lon":-79.38028,"mae":1.96,"modelo":"MFGLOBAL","n":7,"nombre":"La Concordia","rating":3.8,"region":"Litoral","rmse":2.28},{"bias":-2.25,"codigo":"84056","color":"#A6761D","confianza":"Baja","corr":0.77,"familia":"No convencionales","lat":0.01116,"lon":-78.25505,"mae":2.25,"modelo":"NEMSSA","n":7,"nombre":"Tomal\u00f3n","rating":3.79,"region":"Interandina","rmse":2.55},{"bias":-1.89,"codigo":"84008","color":"#D55E00","confianza":"Baja","corr":0.38,"familia":"No convencionales","lat":-0.90406,"lon":-89.61431,"mae":1.89,"modelo":"METEOBLUE","n":7,"nombre":"S. Cristobal","rating":3.77,"region":"Insular","rmse":2.25},{"bias":-2.82,"codigo":"84253","color":"#CC79A7","confianza":"Baja","corr":0.7,"familia":"No convencionales","lat":-3.42333,"lon":-78.56694,"mae":2.82,"modelo":"GEM15","n":7,"nombre":"Gualaquiza","rating":3.28,"region":"Amazonia","rmse":3.34},{"bias":-3.41,"codigo":"84176","color":"#DC267F","confianza":"Baja","corr":0.75,"familia":"No convencionales","lat":-1.65333,"lon":-78.54889,"mae":3.41,"modelo":"NEMSGLOBAL_E","n":7,"nombre":"Riobamba","rating":3.16,"region":"Interandina","rmse":3.44},{"bias":-4.27,"codigo":"84173","color":"#00A9A5","confianza":"Baja","corr":0.51,"familia":"No convencionales","lat":-1.65083,"lon":-78.68521,"mae":4.27,"modelo":"NEMSGLOBAL","n":7,"nombre":"ESPOCH","rating":2.67,"region":"Interandina","rmse":4.4}],"metricas":{"calif_media":5.4,"estaciones":40,"mas_ganador":"METEOBLUE"},"modo":"continuous","ranking":[{"bias":-1.62,"color":"#D55E00","confianza":"Baja","corr":0.55,"estaciones":40,"familia":"No convencionales","mae":1.89,"modelo":"METEOBLUE","n":7,"rating":4.45,"rmse":2.17},{"bias":-2.15,"color":"#CC79A7","confianza":"Baja","corr":0.45,"estaciones":40,"familia":"No convencionales","mae":2.76,"modelo":"GEM15","n":7,"rating":3.74,"rmse":2.97},{"bias":-2.33,"color":"#A6761D","confianza":"Baja","corr":0.42,"estaciones":37,"familia":"No convencionales","mae":2.76,"modelo":"NEMSSA","n":7,"rating":3.74,"rmse":3.04},{"bias":-2.65,"color":"#DC267F","confianza":"Baja","corr":0.4,"estaciones":40,"familia":"No convencionales","mae":3.17,"modelo":"NEMSGLOBAL_E","n":7,"rating":3.37,"rmse":3.42},{"bias":-3.43,"color":"#648FFF","confianza":"Baja","corr":0.36,"estaciones":40,"familia":"No convencionales","mae":3.62,"modelo":"UMGLOBAL10","n":7,"rating":3.37,"rmse":3.82},{"bias":-2.7,"color":"#785EF0","confianza":"Baja","corr":0.35,"estaciones":40,"familia":"No convencionales","mae":3.13,"modelo":"MFGLOBAL","n":7,"rating":3.36,"rmse":3.35},{"bias":-2.34,"color":"#00A9A5","confianza":"Baja","corr":0.32,"estaciones":40,"familia":"No convencionales","mae":3.01,"modelo":"NEMSGLOBAL","n":7,"rating":3.3,"rmse":3.27},{"bias":-3.93,"color":"#B33DC6","confianza":"Baja","corr":0.21,"estaciones":36,"familia":"No convencionales","mae":4.34,"modelo":"SA01","n":7,"rating":3.03,"rmse":4.67}],"sintesis_region":[{"modelo":"GEM15","region":"Amazonia"},{"modelo":"METEOBLUE","region":"Insular"},{"modelo":"METEOBLUE","region":"Interandina"},{"modelo":"METEOBLUE","region":"Litoral"}],"ventana":"7"}
