{"bloque":"tmin","bloques":[{"clave":"precip_det","etiqueta":"Precipitaci\u00f3n: detecci\u00f3n"},{"clave":"precip_cua","etiqueta":"Precipitaci\u00f3n: cuantificaci\u00f3n"},{"clave":"tmax","etiqueta":"Temperatura m\u00e1xima"},{"clave":"tmin","etiqueta":"Temperatura m\u00ednima"}],"estaciones":[{"codigo":"84099","nombre":"El Coca","region":"Amazonia"},{"codigo":"84253","nombre":"Gualaquiza","region":"Amazonia"},{"codigo":"84151","nombre":"Jumandy","region":"Amazonia"},{"codigo":"84063","nombre":"Lago Agrio","region":"Amazonia"},{"codigo":"84217","nombre":"Macas","region":"Amazonia"},{"codigo":"84132","nombre":"N. Rocafu","region":"Amazonia"},{"codigo":"84163","nombre":"Pastaza","region":"Amazonia"},{"codigo":"84179","nombre":"Puyo","region":"Amazonia"},{"codigo":"84001","nombre":"Baltra","region":"Insular"},{"codigo":"84008","nombre":"S. Cristobal","region":"Insular"},{"codigo":"84010","nombre":"S. Cristobal A","region":"Insular"},{"codigo":"84147","nombre":"Ambato","region":"Interandina"},{"codigo":"84226","nombre":"Ca\u00f1ar","region":"Interandina"},{"codigo":"84239","nombre":"Cuenca","region":"Interandina"},{"codigo":"84173","nombre":"ESPOCH","region":"Interandina"},{"codigo":"M1240","nombre":"Ibarra","region":"Interandina"},{"codigo":"84045","nombre":"Inguincho","region":"Interandina"},{"codigo":"84088","nombre":"Izobamba","region":"Interandina"},{"codigo":"M0024","nombre":"I\u00f1aquito","region":"Interandina"},{"codigo":"84076","nombre":"La Tola","region":"Interandina"},{"codigo":"84265","nombre":"La Toma","region":"Interandina"},{"codigo":"84123","nombre":"Latacunga","region":"Interandina"},{"codigo":"84270","nombre":"Loja Argelia","region":"Interandina"},{"codigo":"84160","nombre":"Querochaca","region":"Interandina"},{"codigo":"84176","nombre":"Riobamba","region":"Interandina"},{"codigo":"84143","nombre":"Rumipamba","region":"Interandina"},{"codigo":"84036","nombre":"S. Gabriel","region":"Interandina"},{"codigo":"84075","nombre":"Tababela","region":"Interandina"},{"codigo":"84056","nombre":"Tomal\u00f3n","region":"Interandina"},{"codigo":"84027","nombre":"Tulc\u00e1n","region":"Interandina"},{"codigo":"84018","nombre":"Esmeraldas","region":"Litoral"},{"codigo":"84203","nombre":"Guayaquil","region":"Litoral"},{"codigo":"84050","nombre":"La Concordia","region":"Litoral"},{"codigo":"84117","nombre":"Manta","region":"Litoral"},{"codigo":"M0037","nombre":"Milagro","region":"Litoral"},{"codigo":"84140","nombre":"Pichilingue","region":"Litoral"},{"codigo":"84135","nombre":"Portoviejo","region":"Litoral"},{"codigo":"84105","nombre":"Puerto Ila","region":"Litoral"},{"codigo":"84200","nombre":"Salinas","region":"Litoral"},{"codigo":"84252","nombre":"Sta. Rosa","region":"Litoral"}],"familia":"No convencionales","ganadores":[{"bias":0.11,"codigo":"84151","color":"#D55E00","confianza":"Baja","corr":0.89,"familia":"No convencionales","lat":-1.057,"lon":-77.584,"mae":0.17,"modelo":"METEOBLUE","n":7,"nombre":"Jumandy","rating":9.02,"region":"Amazonia","rmse":0.21},{"bias":0.13,"codigo":"84200","color":"#CC79A7","confianza":"Baja","corr":0.75,"familia":"No convencionales","lat":-2.2,"lon":-80.98972,"mae":0.22,"modelo":"GEM15","n":7,"nombre":"Salinas","rating":8.66,"region":"Litoral","rmse":0.26},{"bias":0.14,"codigo":"84163","color":"#D55E00","confianza":"Baja","corr":0.73,"familia":"No convencionales","lat":-1.5,"lon":-78.06667,"mae":0.32,"modelo":"METEOBLUE","n":7,"nombre":"Pastaza","rating":8.17,"region":"Amazonia","rmse":0.47},{"bias":0.09,"codigo":"84105","color":"#00A9A5","confianza":"Baja","corr":0.68,"familia":"No convencionales","lat":-0.493,"lon":-79.34892,"mae":0.43,"modelo":"NEMSGLOBAL","n":7,"nombre":"Puerto Ila","rating":7.94,"region":"Litoral","rmse":0.51},{"bias":-0.14,"codigo":"84252","color":"#D55E00","confianza":"Baja","corr":0.89,"familia":"No convencionales","lat":-3.43583,"lon":-79.98333,"mae":0.46,"modelo":"METEOBLUE","n":7,"nombre":"Sta. Rosa","rating":7.93,"region":"Litoral","rmse":0.57},{"bias":0.33,"codigo":"84140","color":"#A6761D","confianza":"Baja","corr":0.84,"familia":"No convencionales","lat":-1.07434,"lon":-79.4929,"mae":0.41,"modelo":"NEMSSA","n":7,"nombre":"Pichilingue","rating":7.8,"region":"Litoral","rmse":0.51},{"bias":0.05,"codigo":"84132","color":"#D55E00","confianza":"Baja","corr":0.33,"familia":"No convencionales","lat":-0.92003,"lon":-75.40303,"mae":0.34,"modelo":"METEOBLUE","n":7,"nombre":"N. Rocafu","rating":7.8,"region":"Amazonia","rmse":0.58},{"bias":0.37,"codigo":"84117","color":"#D55E00","confianza":"Baja","corr":0.89,"familia":"No convencionales","lat":-0.95,"lon":-80.68333,"mae":0.43,"modelo":"METEOBLUE","n":7,"nombre":"Manta","rating":7.73,"region":"Litoral","rmse":0.55},{"bias":0.35,"codigo":"84203","color":"#D55E00","confianza":"Baja","corr":0.67,"familia":"No convencionales","lat":-2.15333,"lon":-79.88333,"mae":0.4,"modelo":"METEOBLUE","n":7,"nombre":"Guayaquil","rating":7.71,"region":"Litoral","rmse":0.45},{"bias":-0.18,"codigo":"84135","color":"#A6761D","confianza":"Baja","corr":0.66,"familia":"No convencionales","lat":-1.17343,"lon":-80.38736,"mae":0.55,"modelo":"NEMSSA","n":7,"nombre":"Portoviejo","rating":7.45,"region":"Litoral","rmse":0.63},{"bias":-0.06,"codigo":"84001","color":"#00A9A5","confianza":"Baja","corr":0.15,"familia":"No convencionales","lat":-0.445,"lon":-90.269,"mae":0.5,"modelo":"NEMSGLOBAL","n":7,"nombre":"Baltra","rating":7.32,"region":"Insular","rmse":0.56},{"bias":-0.01,"codigo":"84008","color":"#648FFF","confianza":"Baja","corr":0.13,"familia":"No convencionales","lat":-0.90406,"lon":-89.61431,"mae":0.53,"modelo":"UMGLOBAL10","n":7,"nombre":"S. Cristobal","rating":7.26,"region":"Insular","rmse":0.62},{"bias":0.22,"codigo":"84239","color":"#D55E00","confianza":"Baja","corr":0.8,"familia":"No convencionales","lat":-2.88917,"lon":-78.98417,"mae":0.64,"modelo":"METEOBLUE","n":7,"nombre":"Cuenca","rating":7.26,"region":"Interandina","rmse":0.76},{"bias":-0.49,"codigo":"M0024","color":"#648FFF","confianza":"Baja","corr":0.78,"familia":"No convencionales","lat":-0.1783,"lon":-78.48773,"mae":0.59,"modelo":"UMGLOBAL10","n":7,"nombre":"I\u00f1aquito","rating":7.06,"region":"Interandina","rmse":0.72},{"bias":-0.21,"codigo":"84099","color":"#D55E00","confianza":"Baja","corr":0.58,"familia":"No convencionales","lat":-0.46056,"lon":-76.98806,"mae":0.66,"modelo":"METEOBLUE","n":7,"nombre":"El Coca","rating":7.0,"region":"Amazonia","rmse":0.81},{"bias":0.47,"codigo":"84265","color":"#D55E00","confianza":"Baja","corr":0.9,"familia":"No convencionales","lat":-3.99556,"lon":-79.37167,"mae":0.75,"modelo":"METEOBLUE","n":7,"nombre":"La Toma","rating":6.87,"region":"Interandina","rmse":0.78},{"bias":-0.26,"codigo":"84018","color":"#00A9A5","confianza":"Baja","corr":0.47,"familia":"No convencionales","lat":0.97917,"lon":-79.62444,"mae":0.67,"modelo":"NEMSGLOBAL","n":7,"nombre":"Esmeraldas","rating":6.86,"region":"Litoral","rmse":0.75},{"bias":-0.14,"codigo":"84027","color":"#B33DC6","confianza":"Baja","corr":0.74,"familia":"No convencionales","lat":0.81667,"lon":-77.7,"mae":0.85,"modelo":"SA01","n":7,"nombre":"Tulc\u00e1n","rating":6.8,"region":"Interandina","rmse":0.98},{"bias":0.23,"codigo":"84088","color":"#D55E00","confianza":"Baja","corr":0.91,"familia":"No convencionales","lat":-0.36593,"lon":-78.55513,"mae":0.89,"modelo":"METEOBLUE","n":7,"nombre":"Izobamba","rating":6.76,"region":"Interandina","rmse":1.01},{"bias":-0.02,"codigo":"84050","color":"#D55E00","confianza":"Baja","corr":0.11,"familia":"No convencionales","lat":-0.02478,"lon":-79.38028,"mae":0.73,"modelo":"METEOBLUE","n":7,"nombre":"La Concordia","rating":6.69,"region":"Litoral","rmse":0.85},{"bias":-0.66,"codigo":"M1240","color":"#CC79A7","confianza":"Baja","corr":0.64,"familia":"No convencionales","lat":0.32978,"lon":-78.1322,"mae":0.68,"modelo":"GEM15","n":7,"nombre":"Ibarra","rating":6.49,"region":"Interandina","rmse":0.9},{"bias":0.35,"codigo":"84179","color":"#00A9A5","confianza":"Baja","corr":0.77,"familia":"No convencionales","lat":-1.5057,"lon":-77.956,"mae":0.92,"modelo":"NEMSGLOBAL","n":7,"nombre":"Puyo","rating":6.44,"region":"Amazonia","rmse":1.0},{"bias":0.48,"codigo":"84076","color":"#D55E00","confianza":"Baja","corr":0.71,"familia":"No convencionales","lat":-0.23179,"lon":-78.37043,"mae":0.87,"modelo":"METEOBLUE","n":7,"nombre":"La Tola","rating":6.36,"region":"Interandina","rmse":0.97},{"bias":-0.11,"codigo":"84173","color":"#785EF0","confianza":"Baja","corr":0.2,"familia":"No convencionales","lat":-1.65083,"lon":-78.68521,"mae":0.9,"modelo":"MFGLOBAL","n":7,"nombre":"ESPOCH","rating":6.24,"region":"Interandina","rmse":1.03},{"bias":-0.48,"codigo":"84226","color":"#D55E00","confianza":"Baja","corr":0.61,"familia":"No convencionales","lat":-2.55221,"lon":-78.94519,"mae":0.9,"modelo":"METEOBLUE","n":7,"nombre":"Ca\u00f1ar","rating":6.19,"region":"Interandina","rmse":1.01},{"bias":0.1,"codigo":"84056","color":"#A6761D","confianza":"Baja","corr":0.53,"familia":"No convencionales","lat":0.01116,"lon":-78.25505,"mae":1.09,"modelo":"NEMSSA","n":7,"nombre":"Tomal\u00f3n","rating":6.16,"region":"Interandina","rmse":1.28},{"bias":0.2,"codigo":"84045","color":"#B33DC6","confianza":"Baja","corr":0.31,"familia":"No convencionales","lat":0.25694,"lon":-78.40524,"mae":0.96,"modelo":"SA01","n":7,"nombre":"Inguincho","rating":6.1,"region":"Interandina","rmse":1.08},{"bias":-0.58,"codigo":"84036","color":"#0072B2","confianza":"Baja","corr":0.55,"familia":"No convencionales","lat":0.60417,"lon":-77.81944,"mae":0.83,"modelo":"NEMSGLOBAL_E","n":7,"nombre":"S. Gabriel","rating":6.05,"region":"Interandina","rmse":1.15},{"bias":0.66,"codigo":"84063","color":"#0072B2","confianza":"Baja","corr":0.79,"familia":"No convencionales","lat":0.0925,"lon":-76.86944,"mae":1.03,"modelo":"NEMSGLOBAL_E","n":7,"nombre":"Lago Agrio","rating":5.95,"region":"Amazonia","rmse":1.14},{"bias":0.23,"codigo":"84217","color":"#A6761D","confianza":"Baja","corr":0.11,"familia":"No convencionales","lat":-2.29861,"lon":-78.12056,"mae":1.07,"modelo":"NEMSSA","n":7,"nombre":"Macas","rating":5.55,"region":"Amazonia","rmse":1.37},{"bias":1.3,"codigo":"84075","color":"#D55E00","confianza":"Baja","corr":0.96,"familia":"No convencionales","lat":-0.14083,"lon":-78.353,"mae":1.3,"modelo":"METEOBLUE","n":7,"nombre":"Tababela","rating":5.31,"region":"Interandina","rmse":1.39},{"bias":-0.91,"codigo":"84143","color":"#D55E00","confianza":"Baja","corr":0.62,"familia":"No convencionales","lat":-1.01998,"lon":-78.59456,"mae":1.2,"modelo":"METEOBLUE","n":7,"nombre":"Rumipamba","rating":5.26,"region":"Interandina","rmse":1.4},{"bias":1.0,"codigo":"84010","color":"#648FFF","confianza":"Baja","corr":0.11,"familia":"No convencionales","lat":-0.909,"lon":-89.617,"mae":1.0,"modelo":"UMGLOBAL10","n":7,"nombre":"S. Cristobal A","rating":5.24,"region":"Insular","rmse":1.03},{"bias":-0.43,"codigo":"84253","color":"#D55E00","confianza":"Baja","corr":-0.48,"familia":"No convencionales","lat":-3.42333,"lon":-78.56694,"mae":0.93,"modelo":"METEOBLUE","n":7,"nombre":"Gualaquiza","rating":5.16,"region":"Amazonia","rmse":1.09},{"bias":1.25,"codigo":"84123","color":"#D55E00","confianza":"Baja","corr":0.74,"familia":"No convencionales","lat":-0.91333,"lon":-78.61556,"mae":1.37,"modelo":"METEOBLUE","n":7,"nombre":"Latacunga","rating":4.91,"region":"Interandina","rmse":1.66},{"bias":-0.09,"codigo":"84160","color":"#785EF0","confianza":"Baja","corr":-0.1,"familia":"No convencionales","lat":-1.3671,"lon":-78.60554,"mae":1.66,"modelo":"MFGLOBAL","n":7,"nombre":"Querochaca","rating":4.61,"region":"Interandina","rmse":2.17},{"bias":-1.68,"codigo":"M0037","color":"#A6761D","confianza":"Baja","corr":0.82,"familia":"No convencionales","lat":-2.11805,"lon":-79.60038,"mae":1.68,"modelo":"NEMSSA","n":7,"nombre":"Milagro","rating":4.55,"region":"Litoral","rmse":1.77},{"bias":-0.93,"codigo":"84270","color":"#648FFF","confianza":"Baja","corr":0.58,"familia":"No convencionales","lat":-4.0375,"lon":-79.2034,"mae":1.63,"modelo":"UMGLOBAL10","n":7,"nombre":"Loja Argelia","rating":4.46,"region":"Interandina","rmse":2.13},{"bias":-2.24,"codigo":"84147","color":"#A6761D","confianza":"Baja","corr":0.54,"familia":"No convencionales","lat":-1.21413,"lon":-78.57455,"mae":2.24,"modelo":"NEMSSA","n":7,"nombre":"Ambato","rating":3.62,"region":"Interandina","rmse":2.44},{"bias":-1.28,"codigo":"84176","color":"#D55E00","confianza":"Baja","corr":-0.13,"familia":"No convencionales","lat":-1.65333,"lon":-78.54889,"mae":2.42,"modelo":"METEOBLUE","n":7,"nombre":"Riobamba","rating":2.99,"region":"Interandina","rmse":2.93}],"metricas":{"calif_media":6.4,"estaciones":40,"mas_ganador":"METEOBLUE"},"modo":"continuous","ranking":[{"bias":0.06,"color":"#D55E00","confianza":"Baja","corr":0.45,"estaciones":39,"familia":"No convencionales","mae":1.02,"modelo":"METEOBLUE","n":7,"rating":5.88,"rmse":1.21},{"bias":-0.9,"color":"#A6761D","confianza":"Baja","corr":0.15,"estaciones":37,"familia":"No convencionales","mae":1.58,"modelo":"NEMSSA","n":7,"rating":4.63,"rmse":1.85},{"bias":0.06,"color":"#785EF0","confianza":"Baja","corr":0.12,"estaciones":39,"familia":"No convencionales","mae":1.65,"modelo":"MFGLOBAL","n":7,"rating":4.58,"rmse":1.89},{"bias":-0.8,"color":"#648FFF","confianza":"Baja","corr":0.17,"estaciones":40,"familia":"No convencionales","mae":1.66,"modelo":"UMGLOBAL10","n":7,"rating":4.48,"rmse":1.87},{"bias":-1.26,"color":"#00A9A5","confianza":"Baja","corr":0.11,"estaciones":40,"familia":"No convencionales","mae":1.97,"modelo":"NEMSGLOBAL","n":7,"rating":4.23,"rmse":2.29},{"bias":-1.9,"color":"#CC79A7","confianza":"Baja","corr":0.21,"estaciones":40,"familia":"No convencionales","mae":2.35,"modelo":"GEM15","n":7,"rating":4.18,"rmse":2.59},{"bias":-0.8,"color":"#0072B2","confianza":"Baja","corr":0.07,"estaciones":40,"familia":"No convencionales","mae":1.84,"modelo":"NEMSGLOBAL_E","n":7,"rating":4.07,"rmse":2.12},{"bias":-1.91,"color":"#B33DC6","confianza":"Baja","corr":0.29,"estaciones":36,"familia":"No convencionales","mae":2.2,"modelo":"SA01","n":7,"rating":4.05,"rmse":2.47}],"sintesis_region":[{"modelo":"METEOBLUE","region":"Amazonia"},{"modelo":"UMGLOBAL10","region":"Insular"},{"modelo":"METEOBLUE","region":"Interandina"},{"modelo":"METEOBLUE","region":"Litoral"}],"ventana":"7"}
