{"bloque":"tmin","bloques":[{"clave":"precip_det","etiqueta":"Precipitaci\u00f3n: detecci\u00f3n"},{"clave":"precip_cua","etiqueta":"Precipitaci\u00f3n: cuantificaci\u00f3n"},{"clave":"tmax","etiqueta":"Temperatura m\u00e1xima"},{"clave":"tmin","etiqueta":"Temperatura m\u00ednima"}],"estaciones":[{"codigo":"84099","nombre":"El Coca","region":"Amazonia"},{"codigo":"84253","nombre":"Gualaquiza","region":"Amazonia"},{"codigo":"84151","nombre":"Jumandy","region":"Amazonia"},{"codigo":"84063","nombre":"Lago Agrio","region":"Amazonia"},{"codigo":"84217","nombre":"Macas","region":"Amazonia"},{"codigo":"84132","nombre":"N. Rocafu","region":"Amazonia"},{"codigo":"84163","nombre":"Pastaza","region":"Amazonia"},{"codigo":"84179","nombre":"Puyo","region":"Amazonia"},{"codigo":"84001","nombre":"Baltra","region":"Insular"},{"codigo":"84008","nombre":"S. Cristobal","region":"Insular"},{"codigo":"84010","nombre":"S. Cristobal A","region":"Insular"},{"codigo":"84147","nombre":"Ambato","region":"Interandina"},{"codigo":"84226","nombre":"Ca\u00f1ar","region":"Interandina"},{"codigo":"84239","nombre":"Cuenca","region":"Interandina"},{"codigo":"84173","nombre":"ESPOCH","region":"Interandina"},{"codigo":"M1240","nombre":"Ibarra","region":"Interandina"},{"codigo":"84045","nombre":"Inguincho","region":"Interandina"},{"codigo":"84088","nombre":"Izobamba","region":"Interandina"},{"codigo":"M0024","nombre":"I\u00f1aquito","region":"Interandina"},{"codigo":"84076","nombre":"La Tola","region":"Interandina"},{"codigo":"84265","nombre":"La Toma","region":"Interandina"},{"codigo":"84123","nombre":"Latacunga","region":"Interandina"},{"codigo":"84270","nombre":"Loja Argelia","region":"Interandina"},{"codigo":"84160","nombre":"Querochaca","region":"Interandina"},{"codigo":"84176","nombre":"Riobamba","region":"Interandina"},{"codigo":"84143","nombre":"Rumipamba","region":"Interandina"},{"codigo":"84036","nombre":"S. Gabriel","region":"Interandina"},{"codigo":"84075","nombre":"Tababela","region":"Interandina"},{"codigo":"84056","nombre":"Tomal\u00f3n","region":"Interandina"},{"codigo":"84027","nombre":"Tulc\u00e1n","region":"Interandina"},{"codigo":"84018","nombre":"Esmeraldas","region":"Litoral"},{"codigo":"84203","nombre":"Guayaquil","region":"Litoral"},{"codigo":"84050","nombre":"La Concordia","region":"Litoral"},{"codigo":"84117","nombre":"Manta","region":"Litoral"},{"codigo":"M0037","nombre":"Milagro","region":"Litoral"},{"codigo":"84140","nombre":"Pichilingue","region":"Litoral"},{"codigo":"84135","nombre":"Portoviejo","region":"Litoral"},{"codigo":"84105","nombre":"Puerto Ila","region":"Litoral"},{"codigo":"84200","nombre":"Salinas","region":"Litoral"},{"codigo":"84252","nombre":"Sta. Rosa","region":"Litoral"}],"familia":"Convencionales","ganadores":[{"bias":0.01,"codigo":"84200","color":"#E69F00","confianza":"Media","corr":0.47,"familia":"Convencionales","lat":-2.2,"lon":-80.98972,"mae":0.3,"modelo":"GFS05","n":15,"nombre":"Salinas","rating":8.32,"region":"Litoral","rmse":0.34},{"bias":0.15,"codigo":"84008","color":"#009E73","confianza":"Media","corr":0.47,"familia":"Convencionales","lat":-0.90406,"lon":-89.61431,"mae":0.39,"modelo":"ICON","n":15,"nombre":"S. Cristobal","rating":7.76,"region":"Insular","rmse":0.48},{"bias":0.31,"codigo":"84163","color":"#56B4E9","confianza":"Media","corr":0.58,"familia":"Convencionales","lat":-1.5,"lon":-78.06667,"mae":0.42,"modelo":"AIFS025","n":15,"nombre":"Pastaza","rating":7.59,"region":"Amazonia","rmse":0.51},{"bias":-0.09,"codigo":"84105","color":"#009E73","confianza":"Media","corr":0.31,"familia":"Convencionales","lat":-0.493,"lon":-79.34892,"mae":0.45,"modelo":"ICON","n":15,"nombre":"Puerto Ila","rating":7.57,"region":"Litoral","rmse":0.5},{"bias":-0.32,"codigo":"84001","color":"#56B4E9","confianza":"Media","corr":0.76,"familia":"Convencionales","lat":-0.445,"lon":-90.269,"mae":0.51,"modelo":"AIFS025","n":15,"nombre":"Baltra","rating":7.48,"region":"Insular","rmse":0.59},{"bias":0.36,"codigo":"84132","color":"#009E73","confianza":"Media","corr":0.55,"familia":"Convencionales","lat":-0.92003,"lon":-75.40303,"mae":0.44,"modelo":"ICON","n":15,"nombre":"N. Rocafu","rating":7.32,"region":"Amazonia","rmse":0.64},{"bias":-0.34,"codigo":"84135","color":"#004E89","confianza":"Media","corr":0.57,"familia":"Convencionales","lat":-1.17343,"lon":-80.38736,"mae":0.51,"modelo":"IFSHRES","n":15,"nombre":"Portoviejo","rating":7.22,"region":"Litoral","rmse":0.66},{"bias":-0.14,"codigo":"84050","color":"#004E89","confianza":"Media","corr":0.36,"familia":"Convencionales","lat":-0.02478,"lon":-79.38028,"mae":0.54,"modelo":"IFSHRES","n":15,"nombre":"La Concordia","rating":7.18,"region":"Litoral","rmse":0.7},{"bias":0.35,"codigo":"84140","color":"#56B4E9","confianza":"Media","corr":0.48,"familia":"Convencionales","lat":-1.07434,"lon":-79.4929,"mae":0.53,"modelo":"AIFS025","n":15,"nombre":"Pichilingue","rating":7.04,"region":"Litoral","rmse":0.7},{"bias":-0.13,"codigo":"84063","color":"#56B4E9","confianza":"Media","corr":0.65,"familia":"Convencionales","lat":0.0925,"lon":-76.86944,"mae":0.67,"modelo":"AIFS025","n":15,"nombre":"Lago Agrio","rating":7.0,"region":"Amazonia","rmse":0.97},{"bias":0.3,"codigo":"84203","color":"#009E73","confianza":"Media","corr":-0.07,"familia":"Convencionales","lat":-2.15333,"lon":-79.88333,"mae":0.42,"modelo":"ICON","n":15,"nombre":"Guayaquil","rating":6.94,"region":"Litoral","rmse":0.58},{"bias":-0.15,"codigo":"84217","color":"#56B4E9","confianza":"Media","corr":0.44,"familia":"Convencionales","lat":-2.29861,"lon":-78.12056,"mae":0.65,"modelo":"AIFS025","n":15,"nombre":"Macas","rating":6.89,"region":"Amazonia","rmse":0.9},{"bias":0.02,"codigo":"M1240","color":"#009E73","confianza":"Media","corr":0.74,"familia":"Convencionales","lat":0.32978,"lon":-78.1322,"mae":0.9,"modelo":"ICON","n":15,"nombre":"Ibarra","rating":6.86,"region":"Interandina","rmse":1.07},{"bias":-0.2,"codigo":"84179","color":"#004E89","confianza":"Media","corr":0.65,"familia":"Convencionales","lat":-1.5057,"lon":-77.956,"mae":0.76,"modelo":"IFSHRES","n":15,"nombre":"Puyo","rating":6.82,"region":"Amazonia","rmse":0.89},{"bias":-0.52,"codigo":"84151","color":"#009E73","confianza":"Media","corr":0.52,"familia":"Convencionales","lat":-1.057,"lon":-77.584,"mae":0.63,"modelo":"ICON","n":15,"nombre":"Jumandy","rating":6.73,"region":"Amazonia","rmse":0.72},{"bias":-0.17,"codigo":"84027","color":"#009E73","confianza":"Media","corr":0.75,"familia":"Convencionales","lat":0.81667,"lon":-77.7,"mae":0.99,"modelo":"ICON","n":15,"nombre":"Tulc\u00e1n","rating":6.39,"region":"Interandina","rmse":1.23},{"bias":0.01,"codigo":"84099","color":"#009E73","confianza":"Media","corr":-0.09,"familia":"Convencionales","lat":-0.46056,"lon":-76.98806,"mae":0.79,"modelo":"ICON","n":15,"nombre":"El Coca","rating":6.31,"region":"Amazonia","rmse":1.01},{"bias":-0.46,"codigo":"84018","color":"#E69F00","confianza":"Media","corr":0.23,"familia":"Convencionales","lat":0.97917,"lon":-79.62444,"mae":0.72,"modelo":"GFS05","n":15,"nombre":"Esmeraldas","rating":6.3,"region":"Litoral","rmse":0.79},{"bias":0.33,"codigo":"84252","color":"#004E89","confianza":"Media","corr":0.45,"familia":"Convencionales","lat":-3.43583,"lon":-79.98333,"mae":0.83,"modelo":"IFSHRES","n":15,"nombre":"Sta. Rosa","rating":6.29,"region":"Litoral","rmse":1.01},{"bias":0.35,"codigo":"84088","color":"#009E73","confianza":"Media","corr":0.72,"familia":"Convencionales","lat":-0.36593,"lon":-78.55513,"mae":0.99,"modelo":"ICON","n":15,"nombre":"Izobamba","rating":6.23,"region":"Interandina","rmse":1.11},{"bias":-0.21,"codigo":"M0024","color":"#E69F00","confianza":"Media","corr":0.72,"familia":"Convencionales","lat":-0.1783,"lon":-78.48773,"mae":1.04,"modelo":"GFS05","n":15,"nombre":"I\u00f1aquito","rating":6.19,"region":"Interandina","rmse":1.32},{"bias":0.07,"codigo":"84226","color":"#0072B2","confianza":"Media","corr":0.56,"familia":"Convencionales","lat":-2.55221,"lon":-78.94519,"mae":1.09,"modelo":"IFS025","n":15,"nombre":"Ca\u00f1ar","rating":6.17,"region":"Interandina","rmse":1.32},{"bias":0.37,"codigo":"84173","color":"#56B4E9","confianza":"Media","corr":0.44,"familia":"Convencionales","lat":-1.65083,"lon":-78.68521,"mae":0.89,"modelo":"AIFS025","n":15,"nombre":"ESPOCH","rating":6.04,"region":"Interandina","rmse":1.18},{"bias":-0.02,"codigo":"84270","color":"#009E73","confianza":"Media","corr":0.65,"familia":"Convencionales","lat":-4.0375,"lon":-79.2034,"mae":1.41,"modelo":"ICON","n":15,"nombre":"Loja Argelia","rating":5.86,"region":"Interandina","rmse":1.58},{"bias":0.9,"codigo":"84010","color":"#009E73","confianza":"Media","corr":0.46,"familia":"Convencionales","lat":-0.909,"lon":-89.617,"mae":0.9,"modelo":"ICON","n":15,"nombre":"S. Cristobal A","rating":5.82,"region":"Insular","rmse":0.93},{"bias":-0.09,"codigo":"84143","color":"#009E73","confianza":"Media","corr":0.45,"familia":"Convencionales","lat":-1.01998,"lon":-78.59456,"mae":1.1,"modelo":"ICON","n":15,"nombre":"Rumipamba","rating":5.8,"region":"Interandina","rmse":1.75},{"bias":-0.34,"codigo":"84045","color":"#004E89","confianza":"Media","corr":-0.04,"familia":"Convencionales","lat":0.25694,"lon":-78.40524,"mae":0.91,"modelo":"IFSHRES","n":15,"nombre":"Inguincho","rating":5.65,"region":"Interandina","rmse":1.11},{"bias":-0.05,"codigo":"84075","color":"#009E73","confianza":"Media","corr":0.23,"familia":"Convencionales","lat":-0.14083,"lon":-78.353,"mae":1.25,"modelo":"ICON","n":15,"nombre":"Tababela","rating":5.58,"region":"Interandina","rmse":1.58},{"bias":-0.7,"codigo":"84117","color":"#56B4E9","confianza":"Media","corr":0.16,"familia":"Convencionales","lat":-0.95,"lon":-80.68333,"mae":0.93,"modelo":"AIFS025","n":15,"nombre":"Manta","rating":5.55,"region":"Litoral","rmse":1.03},{"bias":0.23,"codigo":"84160","color":"#56B4E9","confianza":"Media","corr":0.69,"familia":"Convencionales","lat":-1.3671,"lon":-78.60554,"mae":1.46,"modelo":"AIFS025","n":15,"nombre":"Querochaca","rating":5.44,"region":"Interandina","rmse":1.8},{"bias":-0.52,"codigo":"84036","color":"#004E89","confianza":"Media","corr":0.49,"familia":"Convencionales","lat":0.60417,"lon":-77.81944,"mae":1.36,"modelo":"IFSHRES","n":15,"nombre":"S. Gabriel","rating":5.12,"region":"Interandina","rmse":1.64},{"bias":-0.53,"codigo":"84265","color":"#009E73","confianza":"Media","corr":0.79,"familia":"Convencionales","lat":-3.99556,"lon":-79.37167,"mae":1.6,"modelo":"ICON","n":15,"nombre":"La Toma","rating":5.1,"region":"Interandina","rmse":1.82},{"bias":-0.85,"codigo":"84147","color":"#56B4E9","confianza":"Media","corr":0.39,"familia":"Convencionales","lat":-1.21413,"lon":-78.57455,"mae":1.21,"modelo":"AIFS025","n":15,"nombre":"Ambato","rating":5.06,"region":"Interandina","rmse":1.44},{"bias":-1.33,"codigo":"M0037","color":"#009E73","confianza":"Media","corr":0.77,"familia":"Convencionales","lat":-2.11805,"lon":-79.60038,"mae":1.33,"modelo":"ICON","n":15,"nombre":"Milagro","rating":5.04,"region":"Litoral","rmse":1.5},{"bias":-0.54,"codigo":"84176","color":"#004E89","confianza":"Media","corr":0.48,"familia":"Convencionales","lat":-1.65333,"lon":-78.54889,"mae":1.56,"modelo":"IFSHRES","n":15,"nombre":"Riobamba","rating":4.75,"region":"Interandina","rmse":2.0},{"bias":1.07,"codigo":"84123","color":"#009E73","confianza":"Media","corr":0.64,"familia":"Convencionales","lat":-0.91333,"lon":-78.61556,"mae":1.49,"modelo":"ICON","n":15,"nombre":"Latacunga","rating":4.6,"region":"Interandina","rmse":2.03},{"bias":0.96,"codigo":"84076","color":"#E69F00","confianza":"Media","corr":0.58,"familia":"Convencionales","lat":-0.23179,"lon":-78.37043,"mae":1.62,"modelo":"GFS05","n":15,"nombre":"La Tola","rating":4.47,"region":"Interandina","rmse":2.11},{"bias":-1.69,"codigo":"84239","color":"#56B4E9","confianza":"Media","corr":0.7,"familia":"Convencionales","lat":-2.88917,"lon":-78.98417,"mae":1.91,"modelo":"AIFS025","n":15,"nombre":"Cuenca","rating":4.13,"region":"Interandina","rmse":2.15},{"bias":-2.03,"codigo":"84253","color":"#56B4E9","confianza":"Media","corr":0.17,"familia":"Convencionales","lat":-3.42333,"lon":-78.56694,"mae":2.03,"modelo":"AIFS025","n":15,"nombre":"Gualaquiza","rating":3.52,"region":"Amazonia","rmse":2.17},{"bias":2.65,"codigo":"84056","color":"#E69F00","confianza":"Media","corr":0.77,"familia":"Convencionales","lat":0.01116,"lon":-78.25505,"mae":3.07,"modelo":"GFS05","n":15,"nombre":"Tomal\u00f3n","rating":3.24,"region":"Interandina","rmse":3.6}],"metricas":{"calif_media":6.1,"estaciones":40,"mas_ganador":"ICON"},"modo":"continuous","ranking":[{"bias":0.05,"color":"#009E73","confianza":"Media","corr":0.39,"estaciones":40,"familia":"Convencionales","mae":1.47,"modelo":"ICON","n":15,"rating":5.15,"rmse":1.73},{"bias":0.87,"color":"#56B4E9","confianza":"Media","corr":0.43,"estaciones":39,"familia":"Convencionales","mae":1.66,"modelo":"AIFS025","n":15,"rating":5.07,"rmse":1.88},{"bias":-0.34,"color":"#004E89","confianza":"Media","corr":0.34,"estaciones":40,"familia":"Convencionales","mae":1.43,"modelo":"IFSHRES","n":15,"rating":5.02,"rmse":1.68},{"bias":-0.44,"color":"#0072B2","confianza":"Media","corr":0.31,"estaciones":40,"familia":"Convencionales","mae":1.75,"modelo":"IFS025","n":15,"rating":4.62,"rmse":2.0},{"bias":-0.62,"color":"#E69F00","confianza":"Media","corr":0.31,"estaciones":40,"familia":"Convencionales","mae":2.07,"modelo":"GFS05","n":15,"rating":4.21,"rmse":2.34}],"sintesis_region":[{"modelo":"AIFS025","region":"Amazonia"},{"modelo":"ICON","region":"Insular"},{"modelo":"ICON","region":"Interandina"},{"modelo":"ICON","region":"Litoral"}],"ventana":"15"}
